ets Jul 29 2019 12:21:46

rst:0x1 (POWERON_RESET),boot:0x13 (SPI_FAST_FLASH_BOOT)
configsip: 0, SPIWP:0xee
clk_drv:0x00,q_drv:0x00,d_drv:0x00,cs0_drv:0x00,hd_drv:0x00,wp_drv:0x00
mode:DIO, clock div:2
load:0x3fff0030,len:7172
load:0x40078000,len:15540
load:0x40080400,len:4
ho 8 tail 4 room 4
load:0x40080404,len:3904
entry 0x40080640
[0;32mI (31) boot: ESP-IDF v5.2.1-dirty 2nd stage bootloader[0m
[0;32mI (31) boot: compile time Jun 28 2024 03:55:22[0m
[0;32mI (31) boot: Multicore bootloader[0m
[0;32mI (36) boot: chip revision: v3.1[0m
[0;32mI (40) boot.esp32: SPI Speed      : 40MHz[0m
[0;32mI (44) boot.esp32: SPI Mode       : DIO[0m
[0;32mI (49) boot.esp32: SPI Flash Size : 2MB[0m
[0;32mI (53) boot: Enabling RNG early entropy source...[0m
[0;32mI (59) boot: Partition Table:[0m
[0;32mI (62) boot: ## Label            Usage          Type ST Offset   Length[0m
[0;32mI (70) boot:  0 nvs              WiFi data        01 02 00009000 00006000[0m
[0;32mI (77) boot:  1 phy_init         RF data          01 01 0000f000 00001000[0m
[0;32mI (85) boot:  2 factory          factory app      00 00 00010000 00100000[0m
[0;32mI (92) boot: End of partition table[0m
[0;32mI (96) esp_image: segment 0: paddr=00010020 vaddr=3f400020 size=0d808h ( 55304) map[0m
[0;32mI (124) esp_image: segment 1: paddr=0001d830 vaddr=3ffb0000 size=02694h (  9876) load[0m
[0;32mI (128) esp_image: segment 2: paddr=0001fecc vaddr=40080000 size=0014ch (   332) load[0m
[0;32mI (130) esp_image: segment 3: paddr=00020020 vaddr=400d0020 size=21b98h (138136) map[0m
[0;32mI (185) esp_image: segment 4: paddr=00041bc0 vaddr=4008014c size=0e950h ( 59728) load[0m
[0;32mI (216) boot: Loaded app from partition at offset 0x10000[0m
[0;32mI (216) boot: Disabling RNG early entropy source...[0m
[0;32mI (228) cpu_start: Multicore app[0m
[0;32mI (237) cpu_start: Pro cpu start user code[0m
[0;32mI (237) cpu_start: cpu freq: 160000000 Hz[0m
[0;32mI (237) cpu_start: Application information:[0m
[0;32mI (240) cpu_start: Project name:     NODE[0m
[0;32mI (244) cpu_start: App version:      1[0m
[0;32mI (249) cpu_start: Compile time:     Jun 28 2024 03:55:09[0m
[0;32mI (255) cpu_start: ELF file SHA256:  509002afe...[0m
[0;32mI (260) cpu_start: ESP-IDF:          v5.2.1-dirty[0m
[0;32mI (266) cpu_start: Min chip rev:     v0.0[0m
[0;32mI (270) cpu_start: Max chip rev:     v3.99 [0m
[0;32mI (275) cpu_start: Chip rev:         v3.1[0m
[0;32mI (280) heap_init: Initializing. RAM available for dynamic allocation:[0m
[0;32mI (287) heap_init: At 3FFAE6E0 len 00001920 (6 KiB): DRAM[0m
[0;32mI (293) heap_init: At 3FFB3590 len 0002CA70 (178 KiB): DRAM[0m
[0;32mI (299) heap_init: At 3FFE0440 len 00003AE0 (14 KiB): D/IRAM[0m
[0;32mI (306) heap_init: At 3FFE4350 len 0001BCB0 (111 KiB): D/IRAM[0m
[0;32mI (312) heap_init: At 4008EA9C len 00011564 (69 KiB): IRAM[0m
[0;32mI (320) spi_flash: detected chip: generic[0m
[0;32mI (323) spi_flash: flash io: dio[0m
[0;33mW (327) spi_flash: Detected size(4096k) larger than the size in the binary image header(2048k). Using the size in the binary image header.[0m
[0;33mW (340) ADC: legacy driver is deprecated, please migrate to `esp_adc/adc_oneshot.h`[0m
[0;32mI (349) main_task: Started on CPU0[0m
[0;32mI (359) main_task: Calling app_main()[0m
[0;32mI (359) gpio: GPIO[18]| InputEn: 1| OutputEn: 0| OpenDrain: 0| Pullup: 1| Pulldown: 0| Intr:0 [0m
[0;32mI (359) gpio: GPIO[19]| InputEn: 0| OutputEn: 1| OpenDrain: 0| Pullup: 1| Pulldown: 0| Intr:0 [0m
Sending message: Hiiiii!
[0;32mI (389) gpio: GPIO[4]| InputEn: 0| OutputEn: 0| OpenDrain: 0| Pullup: 1| Pulldown: 0| Intr:0 [0m
[0;32mI (389) gpio: GPIO[5]| InputEn: 0| OutputEn: 0| OpenDrain: 0| Pullup: 1| Pulldown: 0| Intr:0 [0m
[0;32mI (399) Transmit UART: Encoded and sent data over UART.[0m
=== Reading Sensors ===
[0;32mI (409) PMS7003: PM1.0: 15 µg/m³[0m
[0;32mI (409) PMS7003: PM2.5: 25 µg/m³[0m
[0;32mI (409) PMS7003: PM10: 40 µg/m³[0m
[0;32mI (419) DHT22: Hum 37.0[0m
[0;32mI (419) DHT22: Tmp 31.0[0m
[0;32mI (419) MQ131: MQ131 - O3 Concentration: 16.82 ppb[0m
[0;32mI (429) MQ136: MQ136 - SO2 Concentration: 12.54 ppm[0m

[0;32mI (429) MICS6814: MICS6814 - CO Concentration: 3103.00 ppm[0m
[0;32mI (439) MICS6814: MICS6814 - NO2 Concentration: 2.62 ppm[0m

[0;32mI (449) GPS: Received: [0m
[0;32mI (449) GPS: UTC Time: , Latitude: 95.250046, Longitude: 20.099951[0m
[0;32mI (459) SSD1306: INTERFACE is i2c[0m
[0;32mI (459) SSD1306: CONFIG_SDA_GPIO=21[0m
[0;32mI (459) SSD1306: CONFIG_SCL_GPIO=22[0m
[0;32mI (469) SSD1306: CONFIG_RESET_GPIO=33[0m
[0;32mI (469) SSD1306: New i2c driver is used[0m
[0;32mI (479) gpio: GPIO[21]| InputEn: 1| OutputEn: 1| OpenDrain: 1| Pullup: 1| Pulldown: 0| Intr:0 [0m
[0;32mI (489) gpio: GPIO[22]| InputEn: 1| OutputEn: 1| OpenDrain: 1| Pullup: 1| Pulldown: 0| Intr:0 [0m
[0;32mI (499) gpio: GPIO[33]| InputEn: 0| OutputEn: 0| OpenDrain: 0| Pullup: 1| Pulldown: 0| Intr:0 [0m
[0;32mI (509) main_task: Returned from app_main()[0m
[0;32mI (559) SSD1306: Panel is 128x64[0m
[0;32mI (559) SSD1306: OLED configured successfully[0m
[0;32mI (5399) Transmit UART: Encoded and sent data over UART.[0m
=== Reading Sensors ===
[0;32mI (5459) PMS7003: PM1.0: 16 µg/m³[0m
[0;32mI (5459) PMS7003: PM2.5: 18 µg/m³[0m
[0;32mI (5459) PMS7003: PM10: 22 µg/m³[0m
[0;32mI (5459) DHT22: Hum 37.0[0m
[0;32mI (5459) DHT22: Tmp 31.0[0m
[0;32mI (5459) MQ131: MQ131 - O3 Concentration: 631654296015678004493549568000.00 ppb[0m
[0;32mI (5469) MQ136: MQ136 - SO2 Concentration: 11.82 ppm[0m

[0;32mI (5479) MICS6814: MICS6814 - CO Concentration: 1.00 ppm[0m
[0;32mI (5479) MICS6814: MICS6814 - NO2 Concentration: 3.20 ppm[0m

[0;32mI (5489) GPS: Received: 2059.85836,N,10553.21173,E,1,05,6.44,-5.6,M,-23.3,M,,*55
$GPGSA,A,3,23,15,05,13,24,,,,,,,,6.99,6.44,2.70*03
$GPGSV,3,1,11,05,28,055,20,11,11,128,20,12,00,173,,13,34,035,26*7E
$GPGSV,3,2,11,15,63,006,11,18,42,332,17,20,14,078,16,23,21,298,17*7C
$GPGSV,3,3,11,24,43,153,16,25,00,201,,29,48,225,*4E
$GPGLL,2059.85836,N,10553.21173,E,081954.00,A,A*62
$GPRMC,081955.00,A,2059.85247,N,10553.21275,E,0.585,,280624,,,A*71
$GPVTG,,T,,M,0.585,N,1.084,K,A*26
$GPGGA,081955.00,[0m
[0;31mE (5529) DHT: Sensor Timeout
[0m
[0;32mI (5539) GPS: UTC Time: 081952.00, Latitude: 20.997633, Longitude: 105.886871[0m
[0;32mI (10399) Transmit UART: Encoded and sent data over UART.[0m
=== Reading Sensors ===
[0;32mI (10549) PMS7003: PM1.0: 16 µg/m³[0m
[0;32mI (10549) PMS7003: PM2.5: 19 µg/m³[0m
[0;32mI (10549) PMS7003: PM10: 20 µg/m³[0m
[0;32mI (10549) DHT22: Hum 37.0[0m
[0;32mI (10549) DHT22: Tmp 31.0[0m
[0;32mI (10559) MQ131: MQ131 - O3 Concentration: 631654296015678004493549568000.00 ppb[0m
[0;32mI (10559) MQ136: MQ136 - SO2 Concentration: 12.44 ppm[0m

[0;32mI (10569) MICS6814: MICS6814 - CO Concentration: 905.00 ppm[0m
[0;32mI (10579) MICS6814: MICS6814 - NO2 Concentration: 2.93 ppm[0m

[0;32mI (10579) GPS: Received: ,11,05,28,055,21,11,11,128,22,12,00,173,,13,33,035,27*7B
$GPGSV,3,2,11,15,62,007,17,18,42,332,17,20,14,078,12,23,21,298,14*7D
$GPGSV,3,3,11,24,43,153,21,25,00,201,,29,48,225,*4A
$GPGLL,2059.84640,N,10553.21412,E,081959.00,A,A*63
$GPRMC,082000.00,A,2059.84583,N,10553.21416,E,0.462,,280624,,,A*7E
$GPVTG,,T,,M,0.462,N,0.857,K,A*29
$GPGGA,082000.00,2059.84583,N,10553.21416,E,1,05,1.31,-6.4,M,-23.3,M,,*5E
$GPGSA,A,3,23,15,05,13,24,,,,,,,,2.96,1.31,2.66*0A
$GPGSV,3,1[0m
[0;32mI (10629) GPS: UTC Time: 081952.00, Latitude: 20.997633, Longitude: 105.886871[0m
[0;32mI (15399) Transmit UART: Encoded and sent data over UART.[0m
=== Reading Sensors ===
[0;32mI (15629) PMS7003: PM1.0: 15 µg/m³[0m
[0;32mI (15629) PMS7003: PM2.5: 19 µg/m³[0m
[0;32mI (15629) PMS7003: PM10: 19 µg/m³[0m
[0;32mI (15629) DHT22: Hum 37.0[0m
[0;32mI (15629) DHT22: Tmp 31.0[0m
[0;32mI (15639) MQ131: MQ131 - O3 Concentration: 631654296015678004493549568000.00 ppb[0m
[0;32mI (15639) MQ136: MQ136 - SO2 Concentration: 12.42 ppm[0m

[0;32mI (15649) MICS6814: MICS6814 - CO Concentration: 58.00 ppm[0m
[0;32mI (15659) MICS6814: MICS6814 - NO2 Concentration: 2.88 ppm[0m

[0;32mI (15659) GPS: Received: ,298,14*7E
$GPGSV,3,3,11,24,43,153,19,25,00,201,,29,48,225,09*48
$GPGLL,2059.84330,N,10553.21562,E,082004.00,A,A*65
$GPRMC,082005.00,A,2059.84270,N,10553.21668,E,1.074,,280624,,,A*79
$GPVTG,,T,,M,1.074,N,1.988,K,A*29
$GPGGA,082005.00,2059.84270,N,10553.21668,E,1,04,2.37,-6.8,M,-23.3,M,,*53
$GPGSA,A,3,23,05,13,24,,,,,,,,,10.62,2.37,10.35*06
$GPGSV,3,1,11,05,28,055,18,11,11,128,21,12,00,173,,13,33,035,25*70
$GPGSV,3,2,11,15,62,007,,18,43,332,15,20,14,079,13,23,21,298,1[0m
[0;32mI (15709) GPS: UTC Time: 081952.00, Latitude: 20.997633, Longitude: 105.886871[0m
[0;31mE (17799) DHT: Sensor Timeout
[0m
[0;32mI (20399) Transmit UART: Encoded and sent data over UART.[0m
=== Reading Sensors ===
[0;32mI (20719) PMS7003: PM1.0: 16 µg/m³[0m
[0;32mI (20719) PMS7003: PM2.5: 20 µg/m³[0m
[0;32mI (20719) PMS7003: PM10: 20 µg/m³[0m
[0;32mI (20719) DHT22: Hum 36.9[0m
[0;32mI (20719) DHT22: Tmp 31.0[0m
[0;32mI (20729) MQ131: MQ131 - O3 Concentration: 631654296015678004493549568000.00 ppb[0m
[0;32mI (20729) MQ136: MQ136 - SO2 Concentration: 11.93 ppm[0m

[0;32mI (20739) MICS6814: MICS6814 - CO Concentration: 1.00 ppm[0m
[0;32mI (20749) MICS6814: MICS6814 - NO2 Concentration: 2.55 ppm[0m

[0;32mI (20749) GPS: Received: $GPRMC,082010.00,A,2059.84196,N,10553.21938,E,1.723,,280624,,,A*79
$GPVTG,,T,,M,1.723,N,3.192,K,A*2D
$GPGGA,082010.00,2059.84196,N,10553.21938,E,1,04,2.37,-6.8,M,-23.3,M,,*56
$GPGSA,A,3,23,05,13,24,,,,,,,,,10.63,2.37,10.37*05
$GPGSV,3,1,11,05,28,055,15,11,11,128,20,12,00,173,,13,33,035,24*7D
$GPGSV,3,2,11,15,62,007,,18,43,332,14,20,14,079,11,23,21,299,16*78
$GPGSV,3,3,11,24,43,152,17,25,00,200,,29,48,225,*4F
$GPGLL,2059.84196,N,10553.21938,E,082010.00,A,A*6D
[0m
[0;32mI (20799) GPS: UTC Time: 082010.00, Latitude: 20.997366, Longitude: 105.886993[0m
[0;32mI (25399) Transmit UART: Encoded and sent data over UART.[0m
=== Reading Sensors ===
[0;32mI (25799) PMS7003: PM1.0: 15 µg/m³[0m
[0;32mI (25799) PMS7003: PM2.5: 21 µg/m³[0m
[0;32mI (25799) PMS7003: PM10: 21 µg/m³[0m
[0;32mI (25799) DHT22: Hum 36.9[0m
[0;32mI (25799) DHT22: Tmp 31.0[0m
[0;32mI (25809) MQ131: MQ131 - O3 Concentration: 631654296015678004493549568000.00 ppb[0m
[0;32mI (25809) MQ136: MQ136 - SO2 Concentration: 12.01 ppm[0m

[0;32mI (25819) MICS6814: MICS6814 - CO Concentration: 1.00 ppm[0m
[0;32mI (25829) MICS6814: MICS6814 - NO2 Concentration: 2.75 ppm[0m

[0;32mI (25829) GPS: Received: $GPRMC,082015.00,A,2059.84039,N,10553.21956,E,0.548,,280624,,,A*7E
$GPVTG,,T,,M,0.548,N,1.015,K,A*2F
$GPGGA,082015.00,2059.84039,N,10553.21956,E,1,04,2.38,-6.7,M,-23.3,M,,*5F
$GPGSA,A,3,23,05,13,24,,,,,,,,,10.65,2.38,10.38*03
$GPGSV,3,1,11,05,28,055,14,11,11,128,,12,00,173,,13,33,035,22*78
$GPGSV,3,2,11,15,62,007,,18,43,332,07,20,14,079,10,23,21,299,15*78
$GPGSV,3,3,11,24,43,152,10,25,00,200,,29,48,224,*49
$GPGLL,2059.84039,N,10553.21956,E,082015.00,A,A*64
[0m
[0;32mI (25879) GPS: UTC Time: 082015.00, Latitude: 20.997339, Longitude: 105.886993[0m
[0;32mI (30399) Transmit UART: Encoded and sent data over UART.[0m
=== Reading Sensors ===
[0;32mI (30879) PMS7003: PM1.0: 14 µg/m³[0m
[0;32mI (30879) PMS7003: PM2.5: 21 µg/m³[0m
[0;32mI (30879) PMS7003: PM10: 21 µg/m³[0m
[0;32mI (30879) DHT22: Hum 36.9[0m
[0;32mI (30879) DHT22: Tmp 31.0[0m
[0;32mI (30889) MQ131: MQ131 - O3 Concentration: 631654296015678004493549568000.00 ppb[0m
[0;32mI (30889) MQ136: MQ136 - SO2 Concentration: 12.01 ppm[0m

[0;32mI (30899) MICS6814: MICS6814 - CO Concentration: 1917.00 ppm[0m
[0;32mI (30909) MICS6814: MICS6814 - NO2 Concentration: 2.53 ppm[0m

[0;32mI (30919) GPS: Received: $GPRMC,082020.00,V,,,,,,,280624,,,N*7F
$GPVTG,,,,,,,,,N*30
$GPGGA,082020.00,,,,,0,00,99.99,,,,,,*6E
$GPGSA,A,1,,,,,,,,,,,,,99.99,99.99,99.99*30
$GPGSV,3,1,11,05,28,055,17,11,11,128,,12,00,173,15,13,33,035,20*7D
$GPGSV,3,2,11,15,62,007,19,18,43,332,09,20,14,079,,23,21,299,14*7E
$GPGSV,3,3,11,24,43,152,,25,00,200,,29,48,224,07*4F
$GPGLL,,,,,082020.00,V,N*42
[0m
[0;32mI (30949) GPS: UTC Time: 082020.00, Latitude: 20.997362, Longitude: 105.886986[0m
[0;32mI (35399) Transmit UART: Encoded and sent data over UART.[0m
=== Reading Sensors ===
[0;32mI (35959) PMS7003: PM1.0: 15 µg/m³[0m
[0;32mI (35959) PMS7003: PM2.5: 21 µg/m³[0m
[0;32mI (35959) PMS7003: PM10: 23 µg/m³[0m
[0;32mI (35959) DHT22: Hum 36.9[0m
[0;32mI (35959) DHT22: Tmp 31.0[0m
[0;32mI (35969) MQ131: MQ131 - O3 Concentration: 631654296015678004493549568000.00 ppb[0m
[0;32mI (35969) MQ136: MQ136 - SO2 Concentration: 12.75 ppm[0m

[0;32mI (35979) MICS6814: MICS6814 - CO Concentration: 3060.00 ppm[0m
[0;32mI (35989) MICS6814: MICS6814 - NO2 Concentration: 3.26 ppm[0m

[0;32mI (35989) GPS: Received: $GPRMC,082025.00,V,,,,,,,280624,,,N*7A
$GPVTG,,,,,,,,,N*30
$GPGGA,082025.00,,,,,0,00,99.99,,,,,,*6B
$GPGSA,A,1,,,,,,,,,,,,,99.99,99.99,99.99*30
$GPGSV,3,1,11,05,28,055,21,11,11,128,19,12,00,173,,13,33,035,23*77
$GPGSV,3,2,11,15,62,007,15,18,43,332,,20,14,079,,23,21,299,17*78
$GPGSV,3,3,11,24,43,152,17,25,00,200,,29,48,224,08*46
$GPGLL,,,,,082025.00,V,N*47
[0m
[0;32mI (36029) GPS: UTC Time: 082025.00, Latitude: 20.997427, Longitude: 105.886940[0m
[0;31mE (36179) DHT: Sensor Timeout
[0m
[0;32mI (40399) Transmit UART: Encoded and sent data over UART.[0m
=== Reading Sensors ===
[0;32mI (41039) PMS7003: PM1.0: 15 µg/m³[0m
[0;32mI (41039) PMS7003: PM2.5: 20 µg/m³[0m
[0;32mI (41039) PMS7003: PM10: 22 µg/m³[0m
[0;32mI (41039) DHT22: Hum 36.9[0m
[0;32mI (41039) DHT22: Tmp 31.0[0m
[0;32mI (41049) MQ131: MQ131 - O3 Concentration: 631654296015678004493549568000.00 ppb[0m
[0;32mI (41049) MQ136: MQ136 - SO2 Concentration: 11.91 ppm[0m

[0;32mI (41059) MICS6814: MICS6814 - CO Concentration: 3214.00 ppm[0m
[0;32mI (41069) MICS6814: MICS6814 - NO2 Concentration: 3.40 ppm[0m

[0;32mI (41069) GPS: Received: $GPRMC,082030.00,A,2059.84227,N,10553.21763,E,0.749,,280624,,,A*7F
$GPVTG,,T,,M,0.749,N,1.387,K,A*24
$GPGGA,082030.00,2059.84227,N,10553.21763,E,1,05,1.31,-6.6,M,-23.3,M,,*57
$GPGSA,A,3,23,15,05,13,24,,,,,,,,2.97,1.31,2.67*0A
$GPGSV,3,1,11,05,28,055,12,11,11,128,21,12,00,173,,13,33,035,24*7B
$GPGSV,3,2,11,15,62,007,12,18,43,332,14,20,14,079,,23,21,299,17*7A
$GPGSV,3,3,11,24,43,152,18,25,00,200,,29,48,224,04*45
$GPGLL,2059.84227,N,10553.21763,E,082030.00,A,A*66
[0m
[0;32mI (41119) GPS: UTC Time: 082030.00, Latitude: 20.997372, Longitude: 105.886963[0m
[0;32mI (45399) Transmit UART: Encoded and sent data over UART.[0m
=== Reading Sensors ===
[0;32mI (46119) PMS7003: PM1.0: 15 µg/m³[0m
[0;32mI (46119) PMS7003: PM2.5: 20 µg/m³[0m
[0;32mI (46119) PMS7003: PM10: 21 µg/m³[0m
[0;32mI (46119) DHT22: Hum 36.9[0m
[0;32mI (46119) DHT22: Tmp 31.0[0m
[0;32mI (46129) MQ131: MQ131 - O3 Concentration: 631654296015678004493549568000.00 ppb[0m
[0;32mI (46129) MQ136: MQ136 - SO2 Concentration: 12.42 ppm[0m

[0;32mI (46139) MICS6814: MICS6814 - CO Concentration: 521.00 ppm[0m
[0;32mI (46149) MICS6814: MICS6814 - NO2 Concentration: 3.26 ppm[0m

[0;32mI (46149) GPS: Received: $GPRMC,082035.00,A,2059.84100,N,10553.22112,E,0.870,,280624,,,A*7A
$GPVTG,,T,,M,0.870,N,1.610,K,A*2A
$GPGGA,082035.00,2059.84100,N,10553.22112,E,1,04,1.47,-6.6,M,-23.3,M,,*57
$GPGSA,A,2,23,05,13,24,,,,,,,,,1.78,1.47,1.00*0E
$GPGSV,3,1,11,05,28,055,12,11,11,128,21,12,00,173,,13,33,035,25*7A
$GPGSV,3,2,11,15,62,007,11,18,43,332,12,20,14,079,,23,21,299,18*70
$GPGSV,3,3,11,24,43,152,15,25,00,200,,29,48,224,08*44
$GPGLL,2059.84100,N,10553.22112,E,082035.00,A,A*66
[0m
[0;32mI (46199) GPS: UTC Time: 082035.00, Latitude: 20.997351, Longitude: 105.887016[0m
[0;32mI (50399) Transmit UART: Encoded and sent data over UART.[0m
=== Reading Sensors ===
[0;32mI (51199) PMS7003: PM1.0: 15 µg/m³[0m
[0;32mI (51199) PMS7003: PM2.5: 18 µg/m³[0m
[0;32mI (51199) PMS7003: PM10: 20 µg/m³[0m
[0;32mI (51199) DHT22: Hum 36.9[0m
[0;32mI (51199) DHT22: Tmp 31.0[0m
[0;32mI (51209) MQ131: MQ131 - O3 Concentration: 631654296015678004493549568000.00 ppb[0m
[0;32mI (51209) MQ136: MQ136 - SO2 Concentration: 13.06 ppm[0m

[0;32mI (51219) MICS6814: MICS6814 - CO Concentration: 1906.00 ppm[0m
[0;32mI (51229) MICS6814: MICS6814 - NO2 Concentration: 3.06 ppm[0m

[0;32mI (51229) GPS: Received: 2059.83998,N,10553.22008,E,1,06,1.47,-6.6,M,-23.3,M,,*53
$GPGSA,A,2,23,15,05,13,29,24,,,,,,,1.78,1.47,1.00*01
$GPGSV,3,1,11,05,28,055,13,11,11,128,20,12,00,173,,13,33,035,23*7C
$GPGSV,3,2,11,15,62,007,10,18,43,332,,20,14,079,,23,21,299,18*72
$GPGSV,3,3,11,24,43,152,16,25,00,200,,29,48,224,08*47
$GPGLL,2059.83998,N,10553.22008,E,082040.00,A,A*60
$GPRMC,082041.00,A,2059.84080,N,10553.22115,E,0.472,,280624,,,A*79
$GPVTG,,T,,M,0.472,N,0.875,K,A*28
$GPGGA,082041.00,[0m
[0;32mI (51279) GPS: UTC Time: 082039.00, Latitude: 20.997337, Longitude: 105.887016[0m
[0;32mI (55399) Transmit UART: Encoded and sent data over UART.[0m
[0;31mE (55579) DHT: Sensor Timeout
[0m
=== Reading Sensors ===
[0;32mI (56289) PMS7003: PM1.0: 15 µg/m³[0m
[0;32mI (56289) PMS7003: PM2.5: 20 µg/m³[0m
[0;32mI (56289) PMS7003: PM10: 20 µg/m³[0m
[0;32mI (56289) DHT22: Hum 36.9[0m
[0;32mI (56289) DHT22: Tmp 31.0[0m
[0;32mI (56299) MQ131: MQ131 - O3 Concentration: 631654296015678004493549568000.00 ppb[0m
[0;32mI (56299) MQ136: MQ136 - SO2 Concentration: 12.83 ppm[0m

[0;32mI (56309) MICS6814: MICS6814 - CO Concentration: 33.00 ppm[0m
[0;32mI (56319) MICS6814: MICS6814 - NO2 Concentration: 2.39 ppm[0m

[0;32mI (56319) GPS: Received: 2059.84168,N,10553.22380,E,1,04,1.47,-6.7,M,-23.3,M,,*56
$GPGSA,A,2,23,15,13,24,,,,,,,,,1.78,1.47,1.00*0F
$GPGSV,3,1,11,05,28,055,09,11,11,128,20,12,00,173,,13,33,035,26*72
$GPGSV,3,2,11,15,62,007,07,18,43,332,,20,14,079,,23,21,299,20*7F
$GPGSV,3,3,11,24,43,152,16,25,00,200,,29,48,224,*4F
$GPGLL,2059.84168,N,10553.22380,E,082045.00,A,A*66
$GPRMC,082046.00,A,2059.84193,N,10553.22352,E,0.710,,280624,,,A*7B
$GPVTG,,T,,M,0.710,N,1.316,K,A*20
$GPGGA,082046.00,2059.84193,N,10553.22352,E,1,03,1.47,-6.7,M,-23.3,M,,*59
$GPGSA,A,2,23,13,24,,,,,,,,,,1.78,1.47,1.00*0B
$GPGSV,3,1,11,[0m
[0;32mI (56379) GPS: UTC Time: 082039.00, Latitude: 20.997337, Longitude: 105.887016[0m
[0;32mI (60399) Transmit UART: Encoded and sent data over UART.[0m
[0;31mE (60679) DHT: Sensor Timeout
[0m
=== Reading Sensors ===
[0;32mI (61389) PMS7003: PM1.0: 16 µg/m³[0m
[0;32mI (61389) PMS7003: PM2.5: 20 µg/m³[0m
[0;32mI (61389) PMS7003: PM10: 20 µg/m³[0m
[0;32mI (61389) DHT22: Hum 36.9[0m
[0;32mI (61389) DHT22: Tmp 31.0[0m
[0;32mI (61399) MQ131: MQ131 - O3 Concentration: 631654296015678004493549568000.00 ppb[0m
[0;32mI (61399) MQ136: MQ136 - SO2 Concentration: 12.98 ppm[0m

[0;32mI (61409) MICS6814: MICS6814 - CO Concentration: 1.00 ppm[0m
[0;32mI (61419) MICS6814: MICS6814 - NO2 Concentration: 2.56 ppm[0m

[0;32mI (61419) GPS: Received: ,1,11,05,28,055,10,11,11,128,20,12,00,173,,13,33,035,24*78
$GPGSV,3,2,11,15,62,007,11,18,43,332,,20,14,079,16,23,21,299,20*7F
$GPGSV,3,3,11,24,43,152,15,25,00,200,,29,48,224,08*44
$GPGLL,2059.84148,N,10553.22385,E,082050.00,A,A*65
$GPRMC,082051.00,A,2059.84103,N,10553.22459,E,0.847,,280624,,,A*75
$GPVTG,,T,,M,0.847,N,1.569,K,A*23
$GPGGA,082051.00,2059.84103,N,10553.22459,E,1,05,2.41,-6.7,M,-23.3,M,,*59
$GPGSA,A,3,23,15,05,13,24,,,,,,,,10.74,2.41,10.46*00
$GPGSV,3[0m
[0;32mI (61469) GPS: UTC Time: 082039.00, Latitude: 20.997337, Longitude: 105.887016[0m
[0;32mI (65399) Transmit UART: Encoded and sent data over UART.[0m
=== Reading Sensors ===
[0;32mI (66469) PMS7003: PM1.0: 16 µg/m³[0m
[0;32mI (66469) PMS7003: PM2.5: 20 µg/m³[0m
[0;32mI (66469) PMS7003: PM10: 20 µg/m³[0m
[0;32mI (66469) DHT22: Hum 36.9[0m
[0;32mI (66469) DHT22: Tmp 31.0[0m
[0;32mI (66479) MQ131: MQ131 - O3 Concentration: 631654296015678004493549568000.00 ppb[0m
[0;32mI (66479) MQ136: MQ136 - SO2 Concentration: 13.04 ppm[0m

[0;32mI (66489) MICS6814: MICS6814 - CO Concentration: 24.00 ppm[0m
[0;32mI (66499) MICS6814: MICS6814 - NO2 Concentration: 2.47 ppm[0m

[0;32mI (66499) GPS: Received: 5*74
$GPGSV,3,3,11,24,43,152,10,25,00,200,,29,48,224,07*4E
$GPGLL,2059.84178,N,10553.22415,E,082055.00,A,A*6D
$GPRMC,082056.00,A,2059.84113,N,10553.22304,E,0.619,,280624,,,A*79
$GPVTG,,T,,M,0.619,N,1.146,K,A*2F
$GPGGA,082056.00,2059.84113,N,10553.22304,E,1,04,2.10,-6.7,M,-23.3,M,,*55
$GPGSA,A,3,23,13,29,24,,,,,,,,,7.68,2.10,7.39*0B
$GPGSV,3,1,11,05,28,055,09,11,11,128,16,12,00,173,,13,33,035,19*7B
$GPGSV,3,2,11,15,62,007,10,18,43,332,,20,14,079,11,23,21,299,14*[0m
[0;32mI (66549) GPS: UTC Time: 082039.00, Latitude: 20.997337, Longitude: 105.887016[0m
[0;32mI (70399) Transmit UART: Encoded and sent data over UART.[0m
=== Reading Sensors ===
[0;32mI (71549) PMS7003: PM1.0: 16 µg/m³[0m
[0;32mI (71549) PMS7003: PM2.5: 20 µg/m³[0m
[0;32mI (71549) PMS7003: PM10: 20 µg/m³[0m
[0;32mI (71549) DHT22: Hum 37.0[0m
[0;32mI (71549) DHT22: Tmp 31.0[0m
[0;32mI (71559) MQ131: MQ131 - O3 Concentration: 631654296015678004493549568000.00 ppb[0m
[0;32mI (71559) MQ136: MQ136 - SO2 Concentration: 13.04 ppm[0m

[0;32mI (71569) MICS6814: MICS6814 - CO Concentration: 1.00 ppm[0m
[0;32mI (71579) MICS6814: MICS6814 - NO2 Concentration: 2.53 ppm[0m

[0;32mI (71579) GPS: Received: $GPRMC,082101.00,V,,,,,,,280624,,,N*7D
$GPVTG,,,,,,,,,N*30
$GPGGA,082101.00,,,,,0,00,99.99,,,,,,*6C
$GPGSA,A,1,,,,,,,,,,,,,99.99,99.99,99.99*30
$GPGSV,3,1,11,05,28,056,08,11,11,128,17,12,00,173,,13,33,035,20*72
$GPGSV,3,2,11,15,62,007,,18,43,332,,20,14,079,10,23,21,299,13*79
$GPGSV,3,3,11,24,43,152,08,25,00,200,,29,48,224,*40
$GPGLL,,,,,082101.00,V,N*40
[0m
[0;32mI (71619) GPS: UTC Time: 082101.00, Latitude: 20.997337, Longitude: 105.887016[0m
[0;32mI (75409) Transmit UART: Encoded and sent data over UART.[0m
=== Reading Sensors ===
[0;32mI (76629) PMS7003: PM1.0: 17 µg/m³[0m
[0;32mI (76629) PMS7003: PM2.5: 21 µg/m³[0m
[0;32mI (76629) PMS7003: PM10: 21 µg/m³[0m
[0;32mI (76629) DHT22: Hum 37.0[0m
[0;32mI (76629) DHT22: Tmp 31.0[0m
[0;32mI (76639) MQ131: MQ131 - O3 Concentration: 631654296015678004493549568000.00 ppb[0m
[0;32mI (76639) MQ136: MQ136 - SO2 Concentration: 13.06 ppm[0m

[0;32mI (76649) MICS6814: MICS6814 - CO Concentration: 1329.00 ppm[0m
[0;32mI (76659) MICS6814: MICS6814 - NO2 Concentration: 2.53 ppm[0m

[0;32mI (76659) GPS: Received: $GPRMC,082106.00,V,,,,,,,280624,,,N*7A
$GPVTG,,,,,,,,,N*30
$GPGGA,082106.00,,,,,0,00,99.99,,,,,,*6B
$GPGSA,A,1,,,,,,,,,,,,,99.99,99.99,99.99*30
$GPGSV,3,1,11,05,28,056,07,11,11,128,20,12,00,172,,13,33,035,25*7D
$GPGSV,3,2,11,15,62,007,,18,43,332,,20,14,079,11,23,21,299,14*7F
$GPGSV,3,3,11,24,43,152,07,25,00,200,,29,48,224,*4F
$GPGLL,,,,,082106.00,V,N*47
[0m
[0;32mI (76699) GPS: UTC Time: 082106.00, Latitude: 20.997337, Longitude: 105.887016[0m
[0;32mI (80409) Transmit UART: Encoded and sent data over UART.[0m
=== Reading Sensors ===
[0;32mI (81709) PMS7003: PM1.0: 17 µg/m³[0m
[0;32mI (81709) PMS7003: PM2.5: 20 µg/m³[0m
[0;32mI (81709) PMS7003: PM10: 20 µg/m³[0m
[0;32mI (81709) DHT22: Hum 37.0[0m
[0;32mI (81709) DHT22: Tmp 31.0[0m
[0;32mI (81719) MQ131: MQ131 - O3 Concentration: 631654296015678004493549568000.00 ppb[0m
[0;32mI (81719) MQ136: MQ136 - SO2 Concentration: 12.60 ppm[0m

[0;32mI (81729) MICS6814: MICS6814 - CO Concentration: 2623.00 ppm[0m
[0;32mI (81739) MICS6814: MICS6814 - NO2 Concentration: 3.16 ppm[0m

[0;32mI (81739) GPS: Received: $GPRMC,082111.00,A,2059.84397,N,10553.21799,E,1.894,,280624,,,A*7C
$GPVTG,,T,,M,1.894,N,3.507,K,A*26
$GPGGA,082111.00,2059.84397,N,10553.21799,E,1,05,1.47,-6.7,M,-23.3,M,,*5A
$GPGSA,A,2,23,05,13,29,24,,,,,,,,1.78,1.47,1.00*05
$GPGSV,3,1,12,01,,,16,05,28,056,08,11,11,128,21,12,00,172,09*4C
$GPGSV,3,2,12,13,33,034,26,15,62,008,09,18,43,332,14,20,14,079,09*72
$GPGSV,3,3,12,23,21,299,11,24,43,152,11,25,00,200,,29,48,224,11*7B
$GPGLL,2059.84397,N,10553.21799,E,082111.00,A,A*6B
[0m
[0;32mI (81789) GPS: UTC Time: 082111.00, Latitude: 20.997400, Longitude: 105.886963[0m
[0;32mI (85409) Transmit UART: Encoded and sent data over UART.[0m
[0;31mE (86199) DHT: Sensor Timeout
[0m
=== Reading Sensors ===
[0;32mI (86799) PMS7003: PM1.0: 16 µg/m³[0m
[0;32mI (86799) PMS7003: PM2.5: 20 µg/m³[0m
[0;32mI (86799) PMS7003: PM10: 20 µg/m³[0m
[0;32mI (86799) DHT22: Hum 36.7[0m
[0;32mI (86799) DHT22: Tmp 31.0[0m
[0;32mI (86809) MQ131: MQ131 - O3 Concentration: 631654296015678004493549568000.00 ppb[0m
[0;32mI (86809) MQ136: MQ136 - SO2 Concentration: 13.00 ppm[0m

[0;32mI (86819) MICS6814: MICS6814 - CO Concentration: 1.00 ppm[0m
[0;32mI (86829) MICS6814: MICS6814 - NO2 Concentration: 3.00 ppm[0m

[0;32mI (86829) GPS: Received: $GPRMC,082116.00,V,,,,,,,280624,,,N*7B
$GPVTG,,,,,,,,,N*30
$GPGGA,082116.00,,,,,0,00,99.99,,,,,,*6A
$GPGSA,A,1,,,,,,,,,,,,,99.99,99.99,99.99*30
$GPGSV,3,1,11,05,28,056,19,11,11,128,21,12,00,172,,13,33,034,26*71
$GPGSV,3,2,11,15,62,008,13,18,43,332,19,20,14,079,19,23,21,299,19*7F
$GPGSV,3,3,11,24,43,152,,25,00,200,17,29,48,224,09*47
$GPGLL,,,,,082116.00,V,N*46
[0m
[0;32mI (86869) GPS: UTC Time: 082116.00, Latitude: 20.997297, Longitude: 105.886864[0m
[0;32mI (90409) Transmit UART: Encoded and sent data over UART.[0m
=== Reading Sensors ===
[0;32mI (91879) PMS7003: PM1.0: 17 µg/m³[0m
[0;32mI (91879) PMS7003: PM2.5: 21 µg/m³[0m
[0;32mI (91879) PMS7003: PM10: 22 µg/m³[0m
[0;32mI (91879) DHT22: Hum 37.0[0m
[0;32mI (91879) DHT22: Tmp 31.0[0m
[0;32mI (91889) MQ131: MQ131 - O3 Concentration: 631654296015678004493549568000.00 ppb[0m
[0;32mI (91889) MQ136: MQ136 - SO2 Concentration: 12.90 ppm[0m

[0;32mI (91899) MICS6814: MICS6814 - CO Concentration: 1.00 ppm[0m
[0;32mI (91909) MICS6814: MICS6814 - NO2 Concentration: 3.84 ppm[0m

[0;32mI (91909) GPS: Received: $GPRMC,082121.00,A,2059.83450,N,10553.21449,E,2.866,,280624,,,A*74
$GPVTG,,T,,M,2.866,N,5.308,K,A*27
$GPGGA,082121.00,2059.83450,N,10553.21449,E,1,06,1.18,5.3,M,-23.3,M,,*7F
$GPGSA,A,3,23,15,05,13,29,24,,,,,,,2.87,1.18,2.62*0E
$GPGSV,3,1,11,05,28,056,19,11,11,128,21,12,00,172,,13,33,034,26*71
$GPGSV,3,2,11,15,62,008,14,18,43,332,15,20,14,079,17,23,21,299,19*7A
$GPGSV,3,3,11,24,44,152,15,25,00,200,11,29,48,224,11*4B
$GPGLL,2059.83450,N,10553.21449,E,082121.00,A,A*6D
[0m
[0;32mI (91959) GPS: UTC Time: 082121.00, Latitude: 20.997242, Longitude: 105.886909[0m
[0;32mI (95409) Transmit UART: Encoded and sent data over UART.[0m
=== Reading Sensors ===
[0;32mI (96969) PMS7003: PM1.0: 15 µg/m³[0m
[0;32mI (96969) PMS7003: PM2.5: 19 µg/m³[0m
[0;32mI (96969) PMS7003: PM10: 20 µg/m³[0m
[0;32mI (96969) DHT22: Hum 37.0[0m
[0;32mI (96969) DHT22: Tmp 31.0[0m
[0;32mI (96979) MQ131: MQ131 - O3 Concentration: 631654296015678004493549568000.00 ppb[0m
[0;32mI (96979) MQ136: MQ136 - SO2 Concentration: 13.67 ppm[0m

[0;32mI (96989) MICS6814: MICS6814 - CO Concentration: 681.00 ppm[0m
[0;32mI (96999) MICS6814: MICS6814 - NO2 Concentration: 3.15 ppm[0m

[0;32mI (96999) GPS: Received: $GPRMC,082126.00,A,2059.83615,N,10553.21552,E,0.829,,280624,,,A*72
$GPVTG,,T,,M,0.829,N,1.536,K,A*21
$GPGGA,082126.00,2059.83615,N,10553.21552,E,1,06,1.18,5.3,M,-23.3,M,,*70
$GPGSA,A,3,23,15,05,13,29,24,,,,,,,2.87,1.18,2.62*0E
$GPGSV,3,1,11,05,28,056,18,11,11,128,22,12,00,172,11,13,33,034,27*72
$GPGSV,3,2,11,15,62,008,17,18,43,332,16,20,14,079,18,23,21,299,18*74
$GPGSV,3,3,11,24,44,152,18,25,00,200,07,29,47,224,13*4C
$GPGLL,2059.83615,N,10553.21552,E,082126.00,A,A*62
[0m
[0;32mI (97049) GPS: UTC Time: 082126.00, Latitude: 20.997269, Longitude: 105.886925[0m
[0;32mI (100409) Transmit UART: Encoded and sent data over UART.[0m
=== Reading Sensors ===
[0;32mI (102059) PMS7003: PM1.0: 15 µg/m³[0m
[0;32mI (102059) PMS7003: PM2.5: 19 µg/m³[0m
[0;32mI (102059) PMS7003: PM10: 21 µg/m³[0m
[0;32mI (102059) DHT22: Hum 37.0[0m
[0;32mI (102059) DHT22: Tmp 31.0[0m
[0;32mI (102069) MQ131: MQ131 - O3 Concentration: 631654296015678004493549568000.00 ppb[0m
[0;32mI (102069) MQ136: MQ136 - SO2 Concentration: 12.83 ppm[0m

[0;32mI (102079) MICS6814: MICS6814 - CO Concentration: 1.00 ppm[0m
[0;32mI (102089) MICS6814: MICS6814 - NO2 Concentration: 2.22 ppm[0m

[0;32mI (102089) GPS: Received: 2059.83516,N,10553.21335,E,1,06,1.18,6.1,M,-23.3,M,,*70
$GPGSA,A,3,23,15,05,13,29,24,,,,,,,2.87,1.18,2.62*0E
$GPGSV,3,1,11,05,28,056,18,11,11,128,21,12,00,172,08,13,33,034,26*78
$GPGSV,3,2,11,15,62,008,17,18,43,332,14,20,14,079,17,23,21,299,16*77
$GPGSV,3,3,11,24,44,152,18,25,00,200,06,29,47,224,12*4C
$GPGLL,2059.83516,N,10553.21335,E,082131.00,A,A*63
$GPRMC,082132.00,A,2059.83551,N,10553.21252,E,2.060,,280624,,,A*74
$GPVTG,,T,,M,2.060,N,3.815,K,A*28
$GPGGA,082132.00,[0m
[0;32mI (102139) GPS: UTC Time: 082128.00, Latitude: 20.997271, Longitude: 105.886917[0m
[0;31mE (104589) DHT: Sensor Timeout
[0m
[0;32mI (105409) Transmit UART: Encoded and sent data over UART.[0m
=== Reading Sensors ===
[0;32mI (107149) PMS7003: PM1.0: 15 µg/m³[0m
[0;32mI (107149) PMS7003: PM2.5: 19 µg/m³[0m
[0;32mI (107149) PMS7003: PM10: 20 µg/m³[0m
[0;32mI (107149) DHT22: Hum 37.0[0m
[0;32mI (107149) DHT22: Tmp 31.0[0m
[0;32mI (107159) MQ131: MQ131 - O3 Concentration: 631654296015678004493549568000.00 ppb[0m
[0;32mI (107159) MQ136: MQ136 - SO2 Concentration: 14.43 ppm[0m

[0;32mI (107169) MICS6814: MICS6814 - CO Concentration: 3092.00 ppm[0m
[0;32mI (107179) MICS6814: MICS6814 - NO2 Concentration: 2.22 ppm[0m

[0;32mI (107179) GPS: Received: 11,05,28,056,17,11,11,128,20,12,00,172,09,13,33,034,24*75
$GPGSV,3,2,11,15,62,008,17,18,43,332,10,20,14,079,15,23,21,299,15*72
$GPGSV,3,3,11,24,44,152,11,25,00,200,06,29,47,224,*46
$GPGLL,2059.83550,N,10553.21103,E,082136.00,A,A*61
$GPRMC,082137.00,A,2059.83520,N,10553.21056,E,1.502,,280624,,,A*73
$GPVTG,,T,,M,1.502,N,2.782,K,A*2A
$GPGGA,082137.00,2059.83520,N,10553.21056,E,1,05,1.32,6.3,M,-23.3,M,,*7C
$GPGSA,A,3,23,15,05,13,24,,,,,,,,2.99,1.32,2.68*08
$GPGSV,3,1,[0m
[0;32mI (107229) GPS: UTC Time: 082128.00, Latitude: 20.997271, Longitude: 105.886917[0m
[0;32mI (110409) Transmit UART: Encoded and sent data over UART.[0m
=== Reading Sensors ===
[0;32mI (112239) PMS7003: PM1.0: 15 µg/m³[0m
[0;32mI (112239) PMS7003: PM2.5: 18 µg/m³[0m
[0;32mI (112239) PMS7003: PM10: 19 µg/m³[0m
[0;32mI (112239) DHT22: Hum 36.9[0m
[0;32mI (112239) DHT22: Tmp 31.0[0m
[0;32mI (112249) MQ131: MQ131 - O3 Concentration: 631654296015678004493549568000.00 ppb[0m
[0;32mI (112249) MQ136: MQ136 - SO2 Concentration: 14.73 ppm[0m

[0;32mI (112259) MICS6814: MICS6814 - CO Concentration: 1328.00 ppm[0m
[0;32mI (112269) MICS6814: MICS6814 - NO2 Concentration: 1.85 ppm[0m

[0;32mI (112269) GPS: Received: 99,17*7D
$GPGSV,3,3,11,24,44,152,18,25,00,200,,29,47,224,*49
$GPGLL,2059.83693,N,10553.20995,E,082141.00,A,A*6B
$GPRMC,082142.00,A,2059.83745,N,10553.20984,E,0.573,,280624,,,A*70
$GPVTG,,T,,M,0.573,N,1.061,K,A*24
$GPGGA,082142.00,2059.83745,N,10553.20984,E,1,05,1.32,14.2,M,-23.3,M,,*4A
$GPGSA,A,3,23,15,05,13,24,,,,,,,,2.99,1.32,2.68*08
$GPGSV,3,1,11,05,28,056,21,11,11,128,23,12,00,172,14,13,33,034,26*7D
$GPGSV,3,2,11,15,62,008,21,18,43,332,16,20,14,079,20,23,21,2[0m
[0;32mI (112319) GPS: UTC Time: 082128.00, Latitude: 20.997271, Longitude: 105.886917[0m
[0;32mI (115409) Transmit UART: Encoded and sent data over UART.[0m
=== Reading Sensors ===
[0;32mI (117329) PMS7003: PM1.0: 18 µg/m³[0m
[0;32mI (117329) PMS7003: PM2.5: 22 µg/m³[0m
[0;32mI (117329) PMS7003: PM10: 22 µg/m³[0m
[0;32mI (117329) DHT22: Hum 36.9[0m
[0;32mI (117329) DHT22: Tmp 31.0[0m
[0;32mI (117339) MQ131: MQ131 - O3 Concentration: 631654296015678004493549568000.00 ppb[0m
[0;32mI (117339) MQ136: MQ136 - SO2 Concentration: 14.39 ppm[0m

[0;32mI (117349) MICS6814: MICS6814 - CO Concentration: 1.00 ppm[0m
[0;32mI (117359) MICS6814: MICS6814 - NO2 Concentration: 2.38 ppm[0m

[0;32mI (117359) GPS: Received: $GPRMC,082147.00,A,2059.83845,N,10553.20867,E,2.623,,280624,,,A*72
$GPVTG,,T,,M,2.623,N,4.858,K,A*27
$GPGGA,082147.00,2059.83845,N,10553.20867,E,1,05,1.32,12.7,M,-23.3,M,,*4F
$GPGSA,A,3,23,15,05,13,24,,,,,,,,2.99,1.32,2.69*09
$GPGSV,3,1,11,05,28,056,24,11,11,128,22,12,00,172,,13,33,034,27*7D
$GPGSV,3,2,11,15,62,008,22,18,43,332,,20,14,079,20,23,21,299,12*74
$GPGSV,3,3,11,24,44,152,21,25,00,200,21,29,47,224,17*46
$GPGLL,2059.83845,N,10553.20867,E,082147.00,A,A*64
[0m
[0;32mI (117409) GPS: UTC Time: 082147.00, Latitude: 20.997307, Longitude: 105.886810[0m
[0;32mI (120409) Transmit UART: Encoded and sent data over UART.[0m
=== Reading Sensors ===
[0;32mI (122419) PMS7003: PM1.0: 15 µg/m³[0m
[0;32mI (122419) PMS7003: PM2.5: 21 µg/m³[0m
[0;32mI (122419) PMS7003: PM10: 21 µg/m³[0m
[0;32mI (122419) DHT22: Hum 36.9[0m
[0;32mI (122419) DHT22: Tmp 31.0[0m
[0;32mI (122429) MQ131: MQ131 - O3 Concentration: 631654296015678004493549568000.00 ppb[0m
[0;32mI (122429) MQ136: MQ136 - SO2 Concentration: 14.57 ppm[0m

[0;32mI (122439) MICS6814: MICS6814 - CO Concentration: 1672.00 ppm[0m
[0;32mI (122449) MICS6814: MICS6814 - NO2 Concentration: 2.22 ppm[0m

[0;32mI (122449) GPS: Received: $GPRMC,082152.00,A,2059.83813,N,10553.20547,E,1.732,,280624,,,A*78
$GPVTG,,T,,M,1.732,N,3.207,K,A*22
$GPGGA,082152.00,2059.83813,N,10553.20547,E,1,05,1.98,9.9,M,-23.3,M,,*73
$GPGSA,A,3,15,05,13,29,24,,,,,,,,4.79,1.98,4.36*07
$GPGSV,3,1,11,05,28,056,24,11,11,128,23,12,00,172,,13,33,034,27*7C
$GPGSV,3,2,11,15,62,008,23,18,43,332,24,20,14,079,20,23,21,299,*70
$GPGSV,3,3,11,24,44,152,21,25,00,200,,29,47,224,14*46
$GPGLL,2059.83813,N,10553.20547,E,082152.00,A,A*6C
[0m
[0;32mI (122499) GPS: UTC Time: 082152.00, Latitude: 20.997303, Longitude: 105.886757[0m
[0;32mI (125409) Transmit UART: Encoded and sent data over UART.[0m
[0;31mE (126049) DHT: Sensor Timeout
[0m
=== Reading Sensors ===
[0;32mI (127509) PMS7003: PM1.0: 15 µg/m³[0m
[0;32mI (127509) PMS7003: PM2.5: 21 µg/m³[0m
[0;32mI (127509) PMS7003: PM10: 21 µg/m³[0m
[0;32mI (127509) DHT22: Hum 36.9[0m
[0;32mI (127509) DHT22: Tmp 31.0[0m
[0;32mI (127519) MQ131: MQ131 - O3 Concentration: 631654296015678004493549568000.00 ppb[0m
[0;32mI (127519) MQ136: MQ136 - SO2 Concentration: 14.61 ppm[0m

[0;32mI (127529) MICS6814: MICS6814 - CO Concentration: 1.00 ppm[0m
[0;32mI (127539) MICS6814: MICS6814 - NO2 Concentration: 1.82 ppm[0m

[0;32mI (127539) GPS: Received: $GPRMC,082157.00,A,2059.83717,N,10553.20567,E,0.199,,280624,,,A*72
$GPVTG,,T,,M,0.199,N,0.368,K,A*2F
$GPGGA,082157.00,2059.83717,N,10553.20567,E,1,06,1.18,7.6,M,-23.3,M,,*75
$GPGSA,A,3,23,15,05,13,29,24,,,,,,,2.89,1.18,2.63*01
$GPGSV,3,1,11,05,28,056,24,11,11,128,22,12,00,172,,13,33,034,27*7D
$GPGSV,3,2,11,15,62,008,24,18,43,332,18,20,14,079,19,23,21,299,13*70
$GPGSV,3,3,11,24,44,152,22,25,00,200,,29,47,224,16*47
$GPGLL,2059.83717,N,10553.20567,E,082157.00,A,A*60
[0m
[0;32mI (127589) GPS: UTC Time: 082157.00, Latitude: 20.997286, Longitude: 105.886765[0m
[0;32mI (130409) Transmit UART: Encoded and sent data over UART.[0m
=== Reading Sensors ===
[0;32mI (132599) PMS7003: PM1.0: 18 µg/m³[0m
[0;32mI (132599) PMS7003: PM2.5: 23 µg/m³[0m
[0;32mI (132599) PMS7003: PM10: 23 µg/m³[0m
[0;32mI (132599) DHT22: Hum 36.9[0m
[0;32mI (132599) DHT22: Tmp 31.0[0m
[0;32mI (132609) MQ131: MQ131 - O3 Concentration: 631654296015678004493549568000.00 ppb[0m
[0;32mI (132609) MQ136: MQ136 - SO2 Concentration: 14.23 ppm[0m

[0;32mI (132619) MICS6814: MICS6814 - CO Concentration: 1303.00 ppm[0m
[0;32mI (132629) MICS6814: MICS6814 - NO2 Concentration: 1.79 ppm[0m

[0;32mI (132629) GPS: Received: $GPRMC,082202.00,A,2059.83720,N,10553.20755,E,0.554,,280624,,,A*73
$GPVTG,,T,,M,0.554,N,1.026,K,A*22
$GPGGA,082202.00,2059.83720,N,10553.20755,E,1,06,1.18,10.4,M,-23.3,M,,*45
$GPGSA,A,3,23,15,05,13,29,24,,,,,,,2.89,1.18,2.64*06
$GPGSV,3,1,11,05,28,056,23,11,11,128,22,12,00,172,,13,33,034,26*7B
$GPGSV,3,2,11,15,62,008,22,18,43,332,19,20,14,079,18,23,21,299,15*70
$GPGSV,3,3,11,24,44,152,24,25,00,200,,29,47,224,14*43
$GPGLL,2059.83720,N,10553.20755,E,082202.00,A,A*64
[0m
[0;32mI (132679) GPS: UTC Time: 082202.00, Latitude: 20.997286, Longitude: 105.886795[0m
[0;32mI (135409) Transmit UART: Encoded and sent data over UART.[0m
=== Reading Sensors ===
[0;32mI (137689) PMS7003: PM1.0: 17 µg/m³[0m
[0;32mI (137689) PMS7003: PM2.5: 21 µg/m³[0m
[0;32mI (137689) PMS7003: PM10: 21 µg/m³[0m
[0;32mI (137689) DHT22: Hum 36.9[0m
[0;32mI (137689) DHT22: Tmp 31.0[0m
[0;32mI (137699) MQ131: MQ131 - O3 Concentration: 631654296015678004493549568000.00 ppb[0m
[0;32mI (137699) MQ136: MQ136 - SO2 Concentration: 14.61 ppm[0m

[0;32mI (137709) MICS6814: MICS6814 - CO Concentration: 2875.00 ppm[0m
[0;32mI (137719) MICS6814: MICS6814 - NO2 Concentration: 2.12 ppm[0m

[0;32mI (137719) GPS: Received: $GPRMC,082207.00,A,2059.83751,N,10553.21059,E,1.080,,280624,,,A*77
$GPVTG,,T,,M,1.080,N,2.000,K,A*28
$GPGGA,082207.00,2059.83751,N,10553.21059,E,1,06,1.18,11.8,M,-23.3,M,,*41
$GPGSA,A,3,23,15,05,13,29,24,,,,,,,2.89,1.18,2.64*06
$GPGSV,3,1,11,05,28,056,24,11,11,128,22,12,00,172,,13,33,034,27*7D
$GPGSV,3,2,11,15,62,008,24,18,43,332,18,20,14,079,19,23,21,299,18*7B
$GPGSV,3,3,11,24,44,152,21,25,00,200,,29,47,224,16*44
$GPGLL,2059.83751,N,10553.21059,E,082207.00,A,A*6D
[0m
[0;32mI (137769) GPS: UTC Time: 082207.00, Latitude: 20.997292, Longitude: 105.886841[0m
[0;32mI (140409) Transmit UART: Encoded and sent data over UART.[0m
=== Reading Sensors ===
[0;32mI (142779) PMS7003: PM1.0: 16 µg/m³[0m
[0;32mI (142779) PMS7003: PM2.5: 20 µg/m³[0m
[0;32mI (142779) PMS7003: PM10: 20 µg/m³[0m
[0;32mI (142779) DHT22: Hum 36.9[0m
[0;32mI (142779) DHT22: Tmp 31.0[0m
[0;32mI (142789) MQ131: MQ131 - O3 Concentration: 631654296015678004493549568000.00 ppb[0m
[0;32mI (142789) MQ136: MQ136 - SO2 Concentration: 14.96 ppm[0m

[0;32mI (142799) MICS6814: MICS6814 - CO Concentration: 2127.00 ppm[0m
[0;32mI (142809) MICS6814: MICS6814 - NO2 Concentration: 2.33 ppm[0m

[0;32mI (142809) GPS: Received: $GPRMC,082212.00,A,2059.83794,N,10553.21100,E,0.414,,280624,,,A*7F
$GPVTG,,T,,M,0.414,N,0.767,K,A*24
$GPGGA,082212.00,2059.83794,N,10553.21100,E,1,06,1.18,10.8,M,-23.3,M,,*40
$GPGSA,A,3,23,15,05,13,29,24,,,,,,,2.89,1.18,2.64*06
$GPGSV,3,1,11,05,28,056,25,11,11,128,23,12,00,172,,13,33,034,27*7D
$GPGSV,3,2,11,15,62,008,22,18,43,332,20,20,14,079,17,23,21,299,18*78
$GPGSV,3,3,11,24,44,152,22,25,00,200,07,29,47,224,14*42
$GPGLL,2059.83794,N,10553.21100,E,082212.00,A,A*6D
[0m
[0;32mI (142859) GPS: UTC Time: 082212.00, Latitude: 20.997299, Longitude: 105.886848[0m
[0;32mI (145409) Transmit UART: Encoded and sent data over UART.[0m
=== Reading Sensors ===
[0;32mI (147869) PMS7003: PM1.0: 14 µg/m³[0m
[0;32mI (147869) PMS7003: PM2.5: 19 µg/m³[0m
[0;32mI (147869) PMS7003: PM10: 20 µg/m³[0m
[0;32mI (147869) DHT22: Hum 37.0[0m
[0;32mI (147869) DHT22: Tmp 31.0[0m
[0;32mI (147879) MQ131: MQ131 - O3 Concentration: 631654296015678004493549568000.00 ppb[0m
[0;32mI (147879) MQ136: MQ136 - SO2 Concentration: 14.35 ppm[0m

[0;32mI (147889) MICS6814: MICS6814 - CO Concentration: 873.00 ppm[0m
[0;32mI (147899) MICS6814: MICS6814 - NO2 Concentration: 2.00 ppm[0m

[0;32mI (147899) GPS: Received: 2059.83898,N,10553.21066,E,1,06,1.18,9.7,M,-23.3,M,,*70
$GPGSA,A,3,23,15,05,13,29,24,,,,,,,2.89,1.18,2.64*06
$GPGSV,3,1,11,05,28,056,26,11,11,129,23,12,00,172,,13,33,034,26*7E
$GPGSV,3,2,11,15,62,008,21,18,43,332,20,20,14,079,16,23,21,299,17*75
$GPGSV,3,3,11,24,44,152,21,25,00,200,08,29,47,224,16*4C
$GPGLL,2059.83898,N,10553.21066,E,082217.00,A,A*6A
$GPRMC,082218.00,A,2059.83929,N,10553.21070,E,0.459,,280624,,,A*72
$GPVTG,,T,,M,0.459,N,0.849,K,A*2E
$GPGGA,082218.00,[0m
[0;32mI (147949) GPS: UTC Time: 082216.00, Latitude: 20.997318, Longitude: 105.886848[0m
[0;32mI (150409) Transmit UART: Encoded and sent data over UART.[0m
=== Reading Sensors ===
[0;32mI (152959) PMS7003: PM1.0: 14 µg/m³[0m
[0;32mI (152959) PMS7003: PM2.5: 19 µg/m³[0m
[0;32mI (152959) PMS7003: PM10: 19 µg/m³[0m
[0;32mI (152959) DHT22: Hum 37.0[0m
[0;32mI (152959) DHT22: Tmp 31.0[0m
[0;32mI (152969) MQ131: MQ131 - O3 Concentration: 631654296015678004493549568000.00 ppb[0m
[0;32mI (152969) MQ136: MQ136 - SO2 Concentration: 14.04 ppm[0m

[0;32mI (152979) MICS6814: MICS6814 - CO Concentration: 2047.00 ppm[0m
[0;32mI (152989) MICS6814: MICS6814 - NO2 Concentration: 1.83 ppm[0m

[0;32mI (152989) GPS: Received: 2059.83941,N,10553.21026,E,1,06,1.18,8.7,M,-23.3,M,,*76
$GPGSA,A,3,23,15,05,13,29,24,,,,,,,2.90,1.18,2.64*0E
$GPGSV,3,1,11,05,28,056,25,11,11,129,24,12,00,172,,13,32,034,27*7A
$GPGSV,3,2,11,15,61,008,22,18,43,332,20,20,14,079,17,23,21,299,17*74
$GPGSV,3,3,11,24,44,152,24,25,00,200,16,29,47,224,17*47
$GPGLL,2059.83941,N,10553.21026,E,082222.00,A,A*6D
$GPRMC,082223.00,A,2059.83925,N,10553.21049,E,0.491,,280624,,,A*78
$GPVTG,,T,,M,0.491,N,0.910,K,A*27
$GPGGA,082223.00,2059.83925,N,10553.21049,E,1,06,1.18,8.8,M,-23.3,M,,*73
$GPGSA,A,3,23,15,05,13,29,24,,,,,,,2.90,1.18,2.64*0E
$GPGSV,3,[0m
[0;32mI (153049) GPS: UTC Time: 082216.00, Latitude: 20.997318, Longitude: 105.886848[0m
[0;32mI (155409) Transmit UART: Encoded and sent data over UART.[0m
[0;31mE (156669) DHT: Sensor Timeout
[0m
=== Reading Sensors ===
[0;32mI (158059) PMS7003: PM1.0: 14 µg/m³[0m
[0;32mI (158059) PMS7003: PM2.5: 17 µg/m³[0m
[0;32mI (158059) PMS7003: PM10: 19 µg/m³[0m
[0;32mI (158059) DHT22: Hum 37.0[0m
[0;32mI (158059) DHT22: Tmp 31.0[0m
[0;32mI (158069) MQ131: MQ131 - O3 Concentration: 631654296015678004493549568000.00 ppb[0m
[0;32mI (158069) MQ136: MQ136 - SO2 Concentration: 13.98 ppm[0m

[0;32mI (158079) MICS6814: MICS6814 - CO Concentration: 2327.00 ppm[0m
[0;32mI (158089) MICS6814: MICS6814 - NO2 Concentration: 2.02 ppm[0m

[0;32mI (158089) GPS: Received: 1,11,05,28,056,23,11,11,129,22,12,00,172,,13,32,034,26*7B
$GPGSV,3,2,11,15,61,008,21,18,44,332,21,20,13,080,19,23,21,299,18*71
$GPGSV,3,3,11,24,44,152,24,25,00,200,07,29,47,224,16*46
$GPGLL,2059.83956,N,10553.21098,E,082227.00,A,A*6B
$GPRMC,082228.00,A,2059.83970,N,10553.21085,E,0.047,,280624,,,A*7C
$GPVTG,,T,,M,0.047,N,0.087,K,A*2F
$GPGGA,082228.00,2059.83970,N,10553.21085,E,1,06,1.18,7.6,M,-23.3,M,,*79
$GPGSA,A,3,23,15,05,13,29,24,,,,,,,2.90,1.18,2.65*0F
$GPGSV,3,[0m
[0;32mI (158139) GPS: UTC Time: 082216.00, Latitude: 20.997318, Longitude: 105.886848[0m
[0;32mI (160409) Transmit UART: Encoded and sent data over UART.[0m
=== Reading Sensors ===
[0;32mI (163149) PMS7003: PM1.0: 16 µg/m³[0m
[0;32mI (163149) PMS7003: PM2.5: 21 µg/m³[0m
[0;32mI (163149) PMS7003: PM10: 22 µg/m³[0m
[0;32mI (163149) DHT22: Hum 37.0[0m
[0;32mI (163149) DHT22: Tmp 31.0[0m
[0;32mI (163159) MQ131: MQ131 - O3 Concentration: 631654296015678004493549568000.00 ppb[0m
[0;32mI (163159) MQ136: MQ136 - SO2 Concentration: 13.88 ppm[0m

[0;32mI (163169) MICS6814: MICS6814 - CO Concentration: 1.00 ppm[0m
[0;32mI (163179) MICS6814: MICS6814 - NO2 Concentration: 2.18 ppm[0m

[0;32mI (163179) GPS: Received: 300,17*7E
$GPGSV,3,3,11,24,44,152,25,25,00,199,,29,47,224,14*41
$GPGLL,2059.84006,N,10553.21103,E,082232.00,A,A*67
$GPRMC,082233.00,A,2059.84016,N,10553.21125,E,0.456,,280624,,,A*77
$GPVTG,,T,,M,0.456,N,0.845,K,A*2D
$GPGGA,082233.00,2059.84016,N,10553.21125,E,1,06,1.18,5.7,M,-23.3,M,,*75
$GPGSA,A,3,23,15,05,13,29,24,,,,,,,2.90,1.18,2.65*0F
$GPGSV,3,1,11,05,28,056,23,11,11,129,21,12,00,172,16,13,32,034,27*7E
$GPGSV,3,2,11,15,61,008,21,18,44,332,21,20,13,080,19,23,21,[0m
[0;32mI (163229) GPS: UTC Time: 082216.00, Latitude: 20.997318, Longitude: 105.886848[0m
[0;31mE (163809) DHT: Sensor Timeout
[0m
[0;32mI (165409) Transmit UART: Encoded and sent data over UART.[0m
=== Reading Sensors ===
[0;32mI (168239) PMS7003: PM1.0: 16 µg/m³[0m
[0;32mI (168239) PMS7003: PM2.5: 22 µg/m³[0m
[0;32mI (168239) PMS7003: PM10: 23 µg/m³[0m
[0;32mI (168239) DHT22: Hum 36.8[0m
[0;32mI (168239) DHT22: Tmp 31.0[0m
[0;32mI (168249) MQ131: MQ131 - O3 Concentration: 631654296015678004493549568000.00 ppb[0m
[0;32mI (168249) MQ136: MQ136 - SO2 Concentration: 14.06 ppm[0m

[0;32mI (168259) MICS6814: MICS6814 - CO Concentration: 1.00 ppm[0m
[0;32mI (168269) MICS6814: MICS6814 - NO2 Concentration: 2.29 ppm[0m

[0;32mI (168269) GPS: Received: $GPRMC,082238.00,A,2059.83923,N,10553.21197,E,0.859,,280624,,,A*7E
$GPVTG,,T,,M,0.859,N,1.591,K,A*2B
$GPGGA,082238.00,2059.83923,N,10553.21197,E,1,06,1.18,6.4,M,-23.3,M,,*7F
$GPGSA,A,3,23,15,05,13,29,24,,,,,,,2.90,1.18,2.65*0F
$GPGSV,3,1,11,05,28,056,23,11,11,129,22,12,00,172,12,13,32,034,27*79
$GPGSV,3,2,11,15,61,008,21,18,44,332,18,20,13,080,19,23,21,300,17*75
$GPGSV,3,3,11,24,44,152,24,25,00,199,,29,47,223,18*4B
$GPGLL,2059.83923,N,10553.21197,E,082238.00,A,A*69
[0m
[0;32mI (168319) GPS: UTC Time: 082238.00, Latitude: 20.997320, Longitude: 105.886864[0m
[0;32mI (170409) Transmit UART: Encoded and sent data over UART.[0m
=== Reading Sensors ===
[0;32mI (173329) PMS7003: PM1.0: 16 µg/m³[0m
[0;32mI (173329) PMS7003: PM2.5: 21 µg/m³[0m
[0;32mI (173329) PMS7003: PM10: 22 µg/m³[0m
[0;32mI (173329) DHT22: Hum 37.1[0m
[0;32mI (173329) DHT22: Tmp 31.0[0m
[0;32mI (173339) MQ131: MQ131 - O3 Concentration: 631654296015678004493549568000.00 ppb[0m
[0;32mI (173339) MQ136: MQ136 - SO2 Concentration: 13.77 ppm[0m

[0;32mI (173349) MICS6814: MICS6814 - CO Concentration: 2742.00 ppm[0m
[0;32mI (173359) MICS6814: MICS6814 - NO2 Concentration: 2.73 ppm[0m

[0;32mI (173359) GPS: Received: $GPRMC,082243.00,A,2059.83902,N,10553.21132,E,0.352,,280624,,,A*7E
$GPVTG,,T,,M,0.352,N,0.652,K,A*26
$GPGGA,082243.00,2059.83902,N,10553.21132,E,1,06,1.18,5.4,M,-23.3,M,,*7C
$GPGSA,A,3,23,15,05,13,29,24,,,,,,,2.90,1.18,2.65*0F
$GPGSV,3,1,11,05,28,056,24,11,11,129,22,12,00,172,08,13,32,034,27*75
$GPGSV,3,2,11,15,61,008,22,18,44,332,20,20,13,080,20,23,21,300,18*78
$GPGSV,3,3,11,24,44,152,25,25,00,199,17,29,47,223,17*43
$GPGLL,2059.83902,N,10553.21132,E,082243.00,A,A*69
[0m
[0;32mI (173409) GPS: UTC Time: 082243.00, Latitude: 20.997316, Longitude: 105.886856[0m
[0;32mI (175409) Transmit UART: Encoded and sent data over UART.[0m
[0;31mE (176079) DHT: Sensor Timeout
[0m
=== Reading Sensors ===
[0;32mI (178419) PMS7003: PM1.0: 16 µg/m³[0m
[0;32mI (178419) PMS7003: PM2.5: 20 µg/m³[0m
[0;32mI (178419) PMS7003: PM10: 21 µg/m³[0m
[0;32mI (178419) DHT22: Hum 37.1[0m
[0;32mI (178419) DHT22: Tmp 31.0[0m
[0;32mI (178429) MQ131: MQ131 - O3 Concentration: 631654296015678004493549568000.00 ppb[0m
[0;32mI (178429) MQ136: MQ136 - SO2 Concentration: 13.84 ppm[0m

[0;32mI (178439) MICS6814: MICS6814 - CO Concentration: 2204.00 ppm[0m
[0;32mI (178449) MICS6814: MICS6814 - NO2 Concentration: 2.50 ppm[0m

[0;32mI (178449) GPS: Received: $GPRMC,082248.00,A,2059.83946,N,10553.21139,E,0.542,,280624,,,A*79
$GPVTG,,T,,M,0.542,N,1.004,K,A*25
$GPGGA,082248.00,2059.83946,N,10553.21139,E,1,06,1.18,3.5,M,-23.3,M,,*7B
$GPGSA,A,3,23,15,05,13,29,24,,,,,,,2.91,1.18,2.66*0D
$GPGSV,3,1,11,05,28,056,22,11,11,129,22,12,00,172,07,13,32,034,28*73
$GPGSV,3,2,11,15,61,008,23,18,44,332,19,20,13,080,20,23,21,300,19*72
$GPGSV,3,3,11,24,44,152,24,25,00,199,12,29,47,223,15*45
$GPGLL,2059.83946,N,10553.21139,E,082248.00,A,A*69
[0m
[0;32mI (178499) GPS: UTC Time: 082248.00, Latitude: 20.997324, Longitude: 105.886856[0m
[0;32mI (180409) Transmit UART: Encoded and sent data over UART.[0m
=== Reading Sensors ===
[0;32mI (183509) PMS7003: PM1.0: 17 µg/m³[0m
[0;32mI (183509) PMS7003: PM2.5: 20 µg/m³[0m
[0;32mI (183509) PMS7003: PM10: 21 µg/m³[0m
[0;32mI (183509) DHT22: Hum 36.8[0m
[0;32mI (183509) DHT22: Tmp 31.0[0m
[0;32mI (183519) MQ131: MQ131 - O3 Concentration: 631654296015678004493549568000.00 ppb[0m
[0;32mI (183519) MQ136: MQ136 - SO2 Concentration: 14.31 ppm[0m

[0;32mI (183529) MICS6814: MICS6814 - CO Concentration: 14.00 ppm[0m
[0;32mI (183539) MICS6814: MICS6814 - NO2 Concentration: 2.32 ppm[0m

[0;32mI (183539) GPS: Received: $GPRMC,082253.00,A,2059.83937,N,10553.21249,E,0.604,,280624,,,A*70
$GPVTG,,T,,M,0.604,N,1.119,K,A*29
$GPGGA,082253.00,2059.83937,N,10553.21249,E,1,06,1.18,1.9,M,-23.3,M,,*7D
$GPGSA,A,3,23,15,05,13,29,24,,,,,,,2.91,1.18,2.66*0D
$GPGSV,3,1,11,05,28,056,22,11,11,129,21,12,00,172,,13,32,034,27*78
$GPGSV,3,2,11,15,61,008,21,18,44,332,21,20,13,080,19,23,21,300,18*70
$GPGSV,3,3,11,24,44,152,21,25,00,199,09,29,47,223,19*46
$GPGLL,2059.83937,N,10553.21249,E,082253.00,A,A*61
[0m
[0;32mI (183589) GPS: UTC Time: 082253.00, Latitude: 20.997322, Longitude: 105.886871[0m
[0;32mI (185409) Transmit UART: Encoded and sent data over UART.[0m
=== Reading Sensors ===
[0;32mI (188599) PMS7003: PM1.0: 17 µg/m³[0m
[0;32mI (188599) PMS7003: PM2.5: 20 µg/m³[0m
[0;32mI (188599) PMS7003: PM10: 20 µg/m³[0m
[0;32mI (188599) DHT22: Hum 37.1[0m
[0;32mI (188599) DHT22: Tmp 31.0[0m
[0;32mI (188609) MQ131: MQ131 - O3 Concentration: 631654296015678004493549568000.00 ppb[0m
[0;32mI (188609) MQ136: MQ136 - SO2 Concentration: 14.35 ppm[0m

[0;32mI (188619) MICS6814: MICS6814 - CO Concentration: 313.00 ppm[0m
[0;32mI (188629) MICS6814: MICS6814 - NO2 Concentration: 2.43 ppm[0m

[0;32mI (188629) GPS: Received: $GPRMC,082258.00,A,2059.83926,N,10553.21131,E,0.786,,280624,,,A*7C
$GPVTG,,T,,M,0.786,N,1.455,K,A*2F
$GPGGA,082258.00,2059.83926,N,10553.21131,E,1,06,1.18,2.3,M,-23.3,M,,*73
$GPGSA,A,3,23,15,05,13,29,24,,,,,,,2.91,1.18,2.66*0D
$GPGSV,3,1,11,05,28,056,21,11,11,129,21,12,00,172,,13,32,034,28*74
$GPGSV,3,2,11,15,61,008,23,18,44,332,20,20,13,080,19,23,21,300,19*72
$GPGSV,3,3,11,24,44,152,23,25,00,199,,29,47,223,16*42
$GPGLL,2059.83926,N,10553.21131,E,082258.00,A,A*66
[0m
[0;32mI (188679) GPS: UTC Time: 082258.00, Latitude: 20.997320, Longitude: 105.886856[0m
[0;32mI (190409) Transmit UART: Encoded and sent data over UART.[0m
=== Reading Sensors ===
[0;32mI (193689) PMS7003: PM1.0: 17 µg/m³[0m
[0;32mI (193689) PMS7003: PM2.5: 21 µg/m³[0m
[0;32mI (193689) PMS7003: PM10: 21 µg/m³[0m
[0;32mI (193689) DHT22: Hum 37.1[0m
[0;32mI (193689) DHT22: Tmp 31.0[0m
[0;32mI (193699) MQ131: MQ131 - O3 Concentration: 631654296015678004493549568000.00 ppb[0m
[0;32mI (193699) MQ136: MQ136 - SO2 Concentration: 14.55 ppm[0m

[0;32mI (193709) MICS6814: MICS6814 - CO Concentration: 130.00 ppm[0m
[0;32mI (193719) MICS6814: MICS6814 - NO2 Concentration: 2.39 ppm[0m

[0;32mI (193719) GPS: Received: $GPRMC,082303.00,A,2059.83935,N,10553.21118,E,0.734,,280624,,,A*73
$GPVTG,,T,,M,0.734,N,1.359,K,A*2D
$GPGGA,082303.00,2059.83935,N,10553.21118,E,1,06,1.18,2.0,M,-23.3,M,,*76
$GPGSA,A,3,23,15,05,13,29,24,,,,,,,2.91,1.18,2.66*0D
$GPGSV,3,1,11,05,28,056,19,11,11,129,21,12,00,172,,13,32,034,28*7F
$GPGSV,3,2,11,15,61,008,22,18,44,332,21,20,13,080,18,23,21,300,18*72
$GPGSV,3,3,11,24,44,152,24,25,00,199,,29,47,223,17*44
$GPGLL,2059.83935,N,10553.21118,E,082303.00,A,A*60
[0m
[0;32mI (193769) GPS: UTC Time: 082303.00, Latitude: 20.997322, Longitude: 105.886856[0m
[0;32mI (195409) Transmit UART: Encoded and sent data over UART.[0m
=== Reading Sensors ===
[0;32mI (198779) PMS7003: PM1.0: 17 µg/m³[0m
[0;32mI (198779) PMS7003: PM2.5: 21 µg/m³[0m
[0;32mI (198779) PMS7003: PM10: 21 µg/m³[0m
[0;32mI (198779) DHT22: Hum 36.8[0m
[0;32mI (198779) DHT22: Tmp 31.0[0m
[0;32mI (198789) MQ131: MQ131 - O3 Concentration: 631654296015678004493549568000.00 ppb[0m
[0;32mI (198789) MQ136: MQ136 - SO2 Concentration: 15.02 ppm[0m

[0;32mI (198799) MICS6814: MICS6814 - CO Concentration: 1.00 ppm[0m
[0;32mI (198809) MICS6814: MICS6814 - NO2 Concentration: 2.38 ppm[0m

[0;32mI (198809) GPS: Received: 2059.83967,N,10553.21094,E,1,06,1.33,1.9,M,-23.3,M,,*7C
$GPGSA,A,3,23,15,05,13,29,24,,,,,,,3.01,1.33,2.71*0A
$GPGSV,3,1,11,05,28,056,20,11,11,129,21,12,00,172,,13,32,034,28*75
$GPGSV,3,2,11,15,61,008,23,18,44,332,19,20,13,080,16,23,21,300,19*77
$GPGSV,3,3,11,24,44,152,23,25,00,199,,29,47,223,15*41
$GPGLL,2059.83967,N,10553.21094,E,082308.00,A,A*69
$GPRMC,082309.00,A,2059.83972,N,10553.21134,E,0.424,,280624,,,A*76
$GPVTG,,T,,M,0.424,N,0.786,K,A*28
$GPGGA,082309.00,[0m
[0;32mI (198859) GPS: UTC Time: 082305.00, Latitude: 20.997322, Longitude: 105.886841[0m
[0;32mI (200409) Transmit UART: Encoded and sent data over UART.[0m
=== Reading Sensors ===
[0;32mI (203869) PMS7003: PM1.0: 15 µg/m³[0m
[0;32mI (203869) PMS7003: PM2.5: 21 µg/m³[0m
[0;32mI (203869) PMS7003: PM10: 21 µg/m³[0m
[0;32mI (203869) DHT22: Hum 36.8[0m
[0;32mI (203869) DHT22: Tmp 31.0[0m
[0;32mI (203879) MQ131: MQ131 - O3 Concentration: 631654296015678004493549568000.00 ppb[0m
[0;32mI (203879) MQ136: MQ136 - SO2 Concentration: 15.31 ppm[0m

[0;32mI (203889) MICS6814: MICS6814 - CO Concentration: 1.00 ppm[0m
[0;32mI (203899) MICS6814: MICS6814 - NO2 Concentration: 2.47 ppm[0m

[0;32mI (203899) GPS: Received: 1,11,05,28,056,19,11,11,129,20,12,00,172,,13,32,034,28*7E
$GPGSV,3,2,11,15,61,008,23,18,44,332,18,20,13,080,14,23,21,300,19*74
$GPGSV,3,3,11,24,44,152,22,25,00,199,,29,47,223,17*42
$GPGLL,2059.83916,N,10553.21179,E,082313.00,A,A*67
$GPRMC,082314.00,A,2059.83913,N,10553.21204,E,0.502,,280624,,,A*78
$GPVTG,,T,,M,0.502,N,0.929,K,A*26
$GPGGA,082314.00,2059.83913,N,10553.21204,E,1,06,1.18,1.9,M,-23.3,M,,*70
$GPGSA,A,3,23,15,05,13,29,24,,,,,,,2.92,1.18,2.67*0F
$GPGSV,3,[0m
[0;32mI (203949) GPS: UTC Time: 082305.00, Latitude: 20.997322, Longitude: 105.886841[0m
[0;32mI (205409) Transmit UART: Encoded and sent data over UART.[0m
=== Reading Sensors ===
[0;32mI (208959) PMS7003: PM1.0: 15 µg/m³[0m
[0;32mI (208959) PMS7003: PM2.5: 20 µg/m³[0m
[0;32mI (208959) PMS7003: PM10: 20 µg/m³[0m
[0;32mI (208959) DHT22: Hum 36.7[0m
[0;32mI (208959) DHT22: Tmp 31.0[0m
[0;32mI (208969) MQ131: MQ131 - O3 Concentration: 631654296015678004493549568000.00 ppb[0m
[0;32mI (208969) MQ136: MQ136 - SO2 Concentration: 13.69 ppm[0m

[0;32mI (208979) MICS6814: MICS6814 - CO Concentration: 1.00 ppm[0m
[0;32mI (208989) MICS6814: MICS6814 - NO2 Concentration: 2.08 ppm[0m

[0;32mI (208989) GPS: Received: 19*7A
$GPGSV,3,3,11,24,44,152,23,25,00,199,,29,47,223,15*41
$GPGLL,2059.83929,N,10553.21211,E,082318.00,A,A*6D
$GPRMC,082319.00,A,2059.83921,N,10553.21180,E,0.721,,280624,,,A*78
$GPVTG,,T,,M,0.721,N,1.335,K,A*23
$GPGGA,082319.00,2059.83921,N,10553.21180,E,1,06,1.18,0.9,M,-23.3,M,,*72
$GPGSA,A,3,23,15,05,13,29,24,,,,,,,2.92,1.18,2.67*0F
$GPGSV,3,1,11,05,28,056,18,11,11,129,20,12,00,172,,13,32,034,29*7E
$GPGSV,3,2,11,15,61,008,24,18,44,332,22,20,13,080,,23,21,300,[0m
[0;32mI (209039) GPS: UTC Time: 082305.00, Latitude: 20.997322, Longitude: 105.886841[0m
[0;32mI (210409) Transmit UART: Encoded and sent data over UART.[0m
=== Reading Sensors ===
[0;32mI (214049) PMS7003: PM1.0: 16 µg/m³[0m
[0;32mI (214049) PMS7003: PM2.5: 20 µg/m³[0m
[0;32mI (214049) PMS7003: PM10: 22 µg/m³[0m
[0;32mI (214049) DHT22: Hum 36.7[0m
[0;32mI (214049) DHT22: Tmp 31.1[0m
[0;32mI (214059) MQ131: MQ131 - O3 Concentration: 631654296015678004493549568000.00 ppb[0m
[0;32mI (214059) MQ136: MQ136 - SO2 Concentration: 13.86 ppm[0m

[0;32mI (214069) MICS6814: MICS6814 - CO Concentration: 2525.00 ppm[0m
[0;32mI (214079) MICS6814: MICS6814 - NO2 Concentration: 2.10 ppm[0m

[0;32mI (214079) GPS: Received: 19*71
$GPGSV,3,3,11,24,44,152,23,25,00,199,,29,47,223,18*4C
$GPGLL,2059.83897,N,10553.21224,E,082323.00,A,A*67
$GPRMC,082324.00,A,2059.83917,N,10553.21271,E,0.466,,280624,,,A*7E
$GPVTG,,T,,M,0.466,N,0.862,K,A*2B
$GPGGA,082324.00,2059.83917,N,10553.21271,E,1,06,1.18,0.8,M,-23.3,M,,*75
$GPGSA,A,3,23,15,05,13,29,24,,,,,,,2.92,1.18,2.67*0F
$GPGSV,3,1,11,05,28,057,18,11,11,129,19,12,00,172,,13,32,034,28*74
$GPGSV,3,2,11,15,61,008,22,18,44,332,17,20,13,080,19,23,21,30[0m
[0;32mI (214129) GPS: UTC Time: 082305.00, Latitude: 20.997322, Longitude: 105.886841[0m
[0;32mI (215409) Transmit UART: Encoded and sent data over UART.[0m
=== Reading Sensors ===
[0;32mI (219139) PMS7003: PM1.0: 15 µg/m³[0m
[0;32mI (219139) PMS7003: PM2.5: 20 µg/m³[0m
[0;32mI (219139) PMS7003: PM10: 21 µg/m³[0m
[0;32mI (219139) DHT22: Hum 36.7[0m
[0;32mI (219139) DHT22: Tmp 31.1[0m
[0;32mI (219149) MQ131: MQ131 - O3 Concentration: 631654296015678004493549568000.00 ppb[0m
[0;32mI (219149) MQ136: MQ136 - SO2 Concentration: 13.55 ppm[0m

[0;32mI (219159) MICS6814: MICS6814 - CO Concentration: 25.00 ppm[0m
[0;32mI (219169) MICS6814: MICS6814 - NO2 Concentration: 2.25 ppm[0m

[0;32mI (219169) GPS: Received: $GPRMC,082329.00,A,2059.83929,N,10553.21160,E,1.106,,280624,,,A*7F
$GPVTG,,T,,M,1.106,N,2.048,K,A*2B
$GPGGA,082329.00,2059.83929,N,10553.21160,E,1,06,1.18,1.1,M,-23.3,M,,*7E
$GPGSA,A,3,23,15,05,13,29,24,,,,,,,2.92,1.18,2.67*0F
$GPGSV,3,1,11,05,28,057,18,11,10,129,20,12,00,171,,13,32,034,28*7C
$GPGSV,3,2,11,15,61,008,25,18,44,332,18,20,13,080,,23,21,300,19*77
$GPGSV,3,3,11,24,44,152,24,25,00,199,,29,47,223,18*4B
$GPGLL,2059.83929,N,10553.21160,E,082329.00,A,A*6A
[0m
[0;32mI (219219) GPS: UTC Time: 082329.00, Latitude: 20.997322, Longitude: 105.886864[0m
[0;32mI (220409) Transmit UART: Encoded and sent data over UART.[0m
=== Reading Sensors ===
[0;32mI (224229) PMS7003: PM1.0: 16 µg/m³[0m
[0;32mI (224229) PMS7003: PM2.5: 21 µg/m³[0m
[0;32mI (224229) PMS7003: PM10: 22 µg/m³[0m
[0;32mI (224229) DHT22: Hum 36.7[0m
[0;32mI (224229) DHT22: Tmp 31.0[0m
[0;32mI (224239) MQ131: MQ131 - O3 Concentration: 631654296015678004493549568000.00 ppb[0m
[0;32mI (224239) MQ136: MQ136 - SO2 Concentration: 7.81 ppm[0m

[0;32mI (224249) MICS6814: MICS6814 - CO Concentration: 1.00 ppm[0m
[0;32mI (224259) MICS6814: MICS6814 - NO2 Concentration: 3.63 ppm[0m

[0;32mI (224259) GPS: Received: $GPRMC,082334.00,A,2059.83922,N,10553.21200,E,0.136,,280624,,,A*7F
$GPVTG,,T,,M,0.136,N,0.253,K,A*23
$GPGGA,082334.00,2059.83922,N,10553.21200,E,1,06,1.18,1.3,M,-23.3,M,,*7E
$GPGSA,A,3,23,15,05,13,29,24,,,,,,,2.92,1.18,2.67*0F
$GPGSV,3,1,11,05,28,057,20,11,10,129,22,12,00,171,,13,32,034,31*7D
$GPGSV,3,2,11,15,61,009,23,18,45,332,14,20,13,080,,23,21,300,28*7F
$GPGSV,3,3,11,24,44,152,30,25,00,199,,29,47,223,19*4F
$GPGLL,2059.83922,N,10553.21200,E,082334.00,A,A*68
[0m
