ets Jul 29 2019 12:21:46

rst:0x1 (POWERON_RESET),boot:0x13 (SPI_FAST_FLASH_BOOT)
configsip: 0, SPIWP:0xee
clk_drv:0x00,q_drv:0x00,d_drv:0x00,cs0_drv:0x00,hd_drv:0x00,wp_drv:0x00
mode:DIO, clock div:2
load:0x3fff0030,len:7172
load:0x40078000,len:15540
load:0x40080400,len:4
ho 8 tail 4 room 4
load:0x40080404,len:3904
entry 0x40080640
[0;32mI (31) boot: ESP-IDF v5.2.1-dirty 2nd stage bootloader[0m
[0;32mI (31) boot: compile time Jun 28 2024 03:55:22[0m
[0;32mI (31) boot: Multicore bootloader[0m
[0;32mI (36) boot: chip revision: v3.1[0m
[0;32mI (40) boot.esp32: SPI Speed      : 40MHz[0m
[0;32mI (44) boot.esp32: SPI Mode       : DIO[0m
[0;32mI (49) boot.esp32: SPI Flash Size : 2MB[0m
[0;32mI (53) boot: Enabling RNG early entropy source...[0m
[0;32mI (59) boot: Partition Table:[0m
[0;32mI (62) boot: ## Label            Usage          Type ST Offset   Length[0m
[0;32mI (70) boot:  0 nvs              WiFi data        01 02 00009000 00006000[0m
[0;32mI (77) boot:  1 phy_init         RF data          01 01 0000f000 00001000[0m
[0;32mI (85) boot:  2 factory          factory app      00 00 00010000 00100000[0m
[0;32mI (92) boot: End of partition table[0m
[0;32mI (96) esp_image: segment 0: paddr=00010020 vaddr=3f400020 size=0d898h ( 55448) map[0m
[0;32mI (124) esp_image: segment 1: paddr=0001d8c0 vaddr=3ffb0000 size=02694h (  9876) load[0m
[0;32mI (128) esp_image: segment 2: paddr=0001ff5c vaddr=40080000 size=000bch (   188) load[0m
[0;32mI (130) esp_image: segment 3: paddr=00020020 vaddr=400d0020 size=21d5ch (138588) map[0m
[0;32mI (186) esp_image: segment 4: paddr=00041d84 vaddr=400800bc size=0ea08h ( 59912) load[0m
[0;32mI (217) boot: Loaded app from partition at offset 0x10000[0m
[0;32mI (217) boot: Disabling RNG early entropy source...[0m
[0;32mI (228) cpu_start: Multicore app[0m
[0;32mI (237) cpu_start: Pro cpu start user code[0m
[0;32mI (237) cpu_start: cpu freq: 160000000 Hz[0m
[0;32mI (237) cpu_start: Application information:[0m
[0;32mI (240) cpu_start: Project name:     NODE[0m
[0;32mI (245) cpu_start: App version:      1[0m
[0;32mI (249) cpu_start: Compile time:     Jun 28 2024 03:55:09[0m
[0;32mI (255) cpu_start: ELF file SHA256:  ccbf28ecf...[0m
[0;32mI (261) cpu_start: ESP-IDF:          v5.2.1-dirty[0m
[0;32mI (266) cpu_start: Min chip rev:     v0.0[0m
[0;32mI (271) cpu_start: Max chip rev:     v3.99 [0m
[0;32mI (275) cpu_start: Chip rev:         v3.1[0m
[0;32mI (280) heap_init: Initializing. RAM available for dynamic allocation:[0m
[0;32mI (288) heap_init: At 3FFAE6E0 len 00001920 (6 KiB): DRAM[0m
[0;32mI (293) heap_init: At 3FFB3690 len 0002C970 (178 KiB): DRAM[0m
[0;32mI (300) heap_init: At 3FFE0440 len 00003AE0 (14 KiB): D/IRAM[0m
[0;32mI (306) heap_init: At 3FFE4350 len 0001BCB0 (111 KiB): D/IRAM[0m
[0;32mI (313) heap_init: At 4008EAC4 len 0001153C (69 KiB): IRAM[0m
[0;32mI (320) spi_flash: detected chip: generic[0m
[0;32mI (323) spi_flash: flash io: dio[0m
[0;33mW (327) spi_flash: Detected size(4096k) larger than the size in the binary image header(2048k). Using the size in the binary image header.[0m
[0;33mW (340) ADC: legacy driver is deprecated, please migrate to `esp_adc/adc_oneshot.h`[0m
[0;32mI (349) main_task: Started on CPU0[0m
[0;32mI (359) main_task: Calling app_main()[0m
[0;32mI (359) gpio: GPIO[18]| InputEn: 1| OutputEn: 0| OpenDrain: 0| Pullup: 1| Pulldown: 0| Intr:0 [0m
[0;32mI (359) gpio: GPIO[19]| InputEn: 0| OutputEn: 1| OpenDrain: 0| Pullup: 1| Pulldown: 0| Intr:0 [0m
Sending message: Hiiiii!
[0;32mI (389) gpio: GPIO[4]| InputEn: 0| OutputEn: 0| OpenDrain: 0| Pullup: 1| Pulldown: 0| Intr:0 [0m
[0;32mI (389) gpio: GPIO[5]| InputEn: 0| OutputEn: 0| OpenDrain: 0| Pullup: 1| Pulldown: 0| Intr:0 [0m
[0;32mI (2399) Transmit UART: Encoded and sent data over UART.[0m
[0;32mI (2399) gpio: GPIO[2]| InputEn: 0| OutputEn: 0| OpenDrain: 0| Pullup: 1| Pulldown: 0| Intr:0 [0m
=== Reading Node number 4 ===
[0;32mI (2409) PMS7003: PM1.0: 15 µg/m³[0m
[0;32mI (2409) PMS7003: PM2.5: 25 µg/m³[0m
[0;32mI (2409) PMS7003: PM10: 40 µg/m³[0m
[0;32mI (2409) DHT22: Hum 32.9[0m
[0;32mI (2419) DHT22: Tmp 33.1[0m
[0;32mI (2419) MQ131: MQ131 - O3 Concentration: 33.55 ppb[0m
[0;32mI (2429) MQ136: MQ136 - SO2 Concentration: 22.12 ppm[0m

[0;32mI (2429) MICS6814: MICS6814 - CO Concentration: 1.00 ppm[0m
[0;32mI (2439) MICS6814: MICS6814 - NO2 Concentration: 3.83 ppm[0m

[0;32mI (2439) GPS: Received: $GPRMC,101412.00,A,2059.85317,N,10553.21337,E,0.551,,290624,,,A*7D
$GPVTG,,T,,M,0.551,N,1.020,K,A*21
$GPGGA,101412.00,2059.85317,N,10553.21337,E,1,05,2.98,33.7,M,-23.3,M,,*45
$GPGSA,A,3,15,05,18,23,24,,,,,,,,5.33,2.98,4.42*09
$GPGSV,3,1,12,05,08,107,10,10,22,320,,12,12,129,16,15,20,048,25*72
$GPGSV,3,2,12,18,74,200,20,23,47,351,22,24,55,053,17,25,12,160,*71
$GPGSV,3,3,12,27,04,293,,28,07,208,,29,07,184,,32,29,268,08*7B
$GPGLL,2059.85317,N,10553.21337,E,101412.00,A,A*6E
$GPRMC,101413.00,A,2059.85318,N,10553.21358,E,0.657,,290624,,,A*7F
$GPVTG,,T,,M,0.657,N,1.217,K,A*22
$GPGGA,101413.00,2059.85318,N,10553.21358,E,1,04,2.98,33.9,M,-23.3,M,,*4D
$GPGSA,A,3,15,18,23,24,,,,,,,,,5.33,2.98,4.42*0C
$GPGSV,3,1,12,05,08,107,,10,22,320,,12,12,129,16,15,20,048,27*71
$GPGSV,3,2,12,18,74,200,22,23,47,351,24,24,55,053,20,25,12,160,*71
$GPGSV,3,3,12,27,04,293,,28,07,208,,29,07,184,,32,29,268,08*7B
$GPGLL,2059.85318,N,10553.21358,E,101413.00,A,A*69
[0m
[0;32mI (2529) GPS: UTC Time: 101412.00, Latitude: 20.997553, Longitude: 105.886887[0m
[0;32mI (2539) SSD1306: INTERFACE is i2c[0m
[0;32mI (2539) SSD1306: CONFIG_SDA_GPIO=21[0m
[0;32mI (2549) SSD1306: CONFIG_SCL_GPIO=22[0m
[0;32mI (2549) SSD1306: CONFIG_RESET_GPIO=33[0m
[0;32mI (2559) SSD1306: New i2c driver is used[0m
[0;32mI (2559) gpio: GPIO[21]| InputEn: 1| OutputEn: 1| OpenDrain: 1| Pullup: 1| Pulldown: 0| Intr:0 [0m
[0;32mI (2569) gpio: GPIO[22]| InputEn: 1| OutputEn: 1| OpenDrain: 1| Pullup: 1| Pulldown: 0| Intr:0 [0m
[0;32mI (2579) gpio: GPIO[33]| InputEn: 0| OutputEn: 0| OpenDrain: 0| Pullup: 1| Pulldown: 0| Intr:0 [0m
[0;32mI (2589) main_task: Returned from app_main()[0m
[0;32mI (2639) SSD1306: Panel is 128x64[0m
[0;32mI (2639) SSD1306: OLED configured successfully[0m
[0;32mI (2899) RX_TASK: Read 6 bytes: C000041F06C7[0m
[0;32mI (7399) Transmit UART: Encoded and sent data over UART.[0m
=== Reading Node number 4 ===
[0;32mI (7539) PMS7003: PM1.0: 12 µg/m³[0m
[0;32mI (7539) PMS7003: PM2.5: 15 µg/m³[0m
[0;32mI (7539) PMS7003: PM10: 16 µg/m³[0m
[0;32mI (7539) DHT22: Hum 32.9[0m
[0;32mI (7539) DHT22: Tmp 33.1[0m
[0;32mI (7549) MQ131: MQ131 - O3 Concentration: 631654296015678004493549568000.00 ppb[0m
[0;32mI (7549) MQ136: MQ136 - SO2 Concentration: 22.43 ppm[0m

[0;32mI (7559) MICS6814: MICS6814 - CO Concentration: 1.00 ppm[0m
[0;32mI (7569) MICS6814: MICS6814 - NO2 Concentration: 3.94 ppm[0m

[0;32mI (7569) GPS: Received: $GPRMC,101418.00,A,2059.84522,N,10553.19248,E,4.058,301.25,290624,,,A*67
$GPVTG,301.25,T,,M,4.058,N,7.515,K,A*37
$GPGGA,101418.00,2059.84522,N,10553.19248,E,1,05,1.98,-0.5,M,-23.3,M,,*50
$GPGSA,A,3,32,15,18,23,24,,,,,,,,3.02,1.98,2.29*01
$GPGSV,3,1,12,05,08,107,11,10,22,320,,12,12,129,14,15,20,048,27*73
$GPGSV,3,2,12,18,74,200,21,23,47,351,24,24,55,053,22,25,12,160,*70
$GPGSV,3,3,12,27,04,293,,28,07,208,,29,07,184,,32,29,268,09*7A
$GPGLL,2059.84522,N,10553.19248,E,101418.00,A,A*67
[0m
[0;32mI (7619) GPS: UTC Time: 101418.00, Latitude: 20.997421, Longitude: 105.886543[0m
[0;32mI (12399) Transmit UART: Encoded and sent data over UART.[0m
=== Reading Node number 4 ===
[0;32mI (12629) PMS7003: PM1.0: 14 µg/m³[0m
[0;32mI (12629) PMS7003: PM2.5: 18 µg/m³[0m
[0;32mI (12629) PMS7003: PM10: 18 µg/m³[0m
[0;32mI (12629) DHT22: Hum 32.8[0m
[0;32mI (12629) DHT22: Tmp 33.1[0m
[0;32mI (12639) MQ131: MQ131 - O3 Concentration: 631654296015678004493549568000.00 ppb[0m
[0;32mI (12639) MQ136: MQ136 - SO2 Concentration: 22.79 ppm[0m

[0;32mI (12649) MICS6814: MICS6814 - CO Concentration: 1692.00 ppm[0m
[0;32mI (12659) MICS6814: MICS6814 - NO2 Concentration: 3.78 ppm[0m

[0;32mI (12659) GPS: Received: $GPRMC,101423.00,A,2059.84442,N,10553.19388,E,1.101,,290624,,,A*76
$GPVTG,,T,,M,1.101,N,2.039,K,A*2A
$GPGGA,101423.00,2059.84442,N,10553.19388,E,1,05,2.98,-3.4,M,-23.3,M,,*53
$GPGSA,A,3,15,05,18,23,24,,,,,,,,5.32,2.98,4.42*08
$GPGSV,3,1,12,05,08,107,16,10,22,320,,12,12,129,18,15,20,048,29*76
$GPGSV,3,2,12,18,74,200,23,23,47,351,26,24,55,053,25,25,12,160,*77
$GPGSV,3,3,12,27,04,293,,28,07,208,,29,07,184,,32,29,268,*73
$GPGLL,2059.84442,N,10553.19388,E,101423.00,A,A*65
[0m
[0;32mI (12709) GPS: UTC Time: 101423.00, Latitude: 20.997408, Longitude: 105.886566[0m
[0;32mI (17399) Transmit UART: Encoded and sent data over UART.[0m
=== Reading Node number 4 ===
[0;32mI (17719) PMS7003: PM1.0: 14 µg/m³[0m
[0;32mI (17719) PMS7003: PM2.5: 18 µg/m³[0m
[0;32mI (17719) PMS7003: PM10: 19 µg/m³[0m
[0;32mI (17719) DHT22: Hum 32.8[0m
[0;32mI (17719) DHT22: Tmp 33.1[0m
[0;32mI (17729) MQ131: MQ131 - O3 Concentration: 631654296015678004493549568000.00 ppb[0m
[0;32mI (17729) MQ136: MQ136 - SO2 Concentration: 22.74 ppm[0m

[0;32mI (17739) MICS6814: MICS6814 - CO Concentration: 3999.00 ppm[0m
[0;32mI (17749) MICS6814: MICS6814 - NO2 Concentration: 3.53 ppm[0m

[0;32mI (17749) GPS: Received: $GPRMC,101428.00,A,2059.84481,N,10553.19437,E,0.469,,290624,,,A*7B
$GPVTG,,T,,M,0.469,N,0.869,K,A*2F
$GPGGA,101428.00,2059.84481,N,10553.19437,E,1,05,2.41,-4.7,M,-23.3,M,,*54
$GPGSA,A,3,15,05,18,23,24,,,,,,,,3.77,2.41,2.90*02
$GPGSV,3,1,12,05,08,107,15,10,22,320,,12,12,129,20,15,20,048,29*7E
$GPGSV,3,2,12,18,74,200,23,23,47,351,26,24,55,053,27,25,12,160,*75
$GPGSV,3,3,12,27,04,293,16,28,07,208,,29,07,184,,32,29,268,*74
$GPGLL,2059.84481,N,10553.19437,E,101428.00,A,A*62
[0m
[0;32mI (17799) GPS: UTC Time: 101428.00, Latitude: 20.997414, Longitude: 105.886574[0m
[0;32mI (22399) Transmit UART: Encoded and sent data over UART.[0m
=== Reading Node number 4 ===
[0;32mI (22809) PMS7003: PM1.0: 12 µg/m³[0m
[0;32mI (22809) PMS7003: PM2.5: 18 µg/m³[0m
[0;32mI (22809) PMS7003: PM10: 18 µg/m³[0m
[0;32mI (22819) DHT22: Hum 32.9[0m
[0;32mI (22819) DHT22: Tmp 33.1[0m
[0;32mI (22819) MQ131: MQ131 - O3 Concentration: 631654296015678004493549568000.00 ppb[0m
[0;32mI (22829) MQ136: MQ136 - SO2 Concentration: 23.15 ppm[0m

[0;32mI (22839) MICS6814: MICS6814 - CO Concentration: 83.00 ppm[0m
[0;32mI (22839) MICS6814: MICS6814 - NO2 Concentration: 3.50 ppm[0m

[0;32mI (22849) GPS: Received: $GPRMC,101433.00,A,2059.84485,N,10553.19544,E,0.783,,290624,,,A*77
$GPVTG,,T,,M,0.783,N,1.450,K,A*2F
$GPGGA,101433.00,2059.84485,N,10553.19544,E,1,05,2.42,-5.1,M,-23.3,M,,*5B
$GPGSA,A,3,15,05,18,23,24,,,,,,,,3.78,2.42,2.90*0E
$GPGSV,3,1,12,05,08,107,16,10,22,320,17,12,12,129,19,15,20,048,31*78
$GPGSV,3,2,12,18,74,200,23,23,47,351,26,24,55,053,28,25,12,160,*7A
$GPGSV,3,3,12,27,04,293,06,28,07,208,,29,07,184,,32,29,268,*75
$GPGLL,2059.84485,N,10553.19544,E,101433.00,A,A*69
$GPRMC,101434.00,A,2059.84442,N,10553.19558,E,1.056,,290624,,,A*78
$GPVTG,,T,,M,1.056,N,1.955,K,A*29
$GPGGA,101434.00,[0m
[0;32mI (22909) GPS: UTC Time: 101433.00, Latitude: 20.997414, Longitude: 105.886589[0m
[0;32mI (27399) Transmit UART: Encoded and sent data over UART.[0m
=== Reading Node number 4 ===
[0;32mI (27909) PMS7003: PM1.0: 11 µg/m³[0m
[0;32mI (27909) PMS7003: PM2.5: 16 µg/m³[0m
[0;32mI (27909) PMS7003: PM10: 17 µg/m³[0m
[0;32mI (27909) DHT22: Hum 32.8[0m
[0;32mI (27909) DHT22: Tmp 33.1[0m
[0;32mI (27919) MQ131: MQ131 - O3 Concentration: 631654296015678004493549568000.00 ppb[0m
[0;32mI (27919) MQ136: MQ136 - SO2 Concentration: 23.36 ppm[0m

[0;32mI (27929) MICS6814: MICS6814 - CO Concentration: 3632.00 ppm[0m
[0;32mI (27939) MICS6814: MICS6814 - NO2 Concentration: 3.31 ppm[0m

[0;32mI (27939) GPS: Received: 2059.84440,N,10553.19650,E,1,05,2.42,-5.9,M,-23.3,M,,*57
$GPGSA,A,3,15,05,18,23,24,,,,,,,,3.78,2.42,2.91*0F
$GPGSV,3,1,12,05,08,107,14,10,22,320,,12,12,129,20,15,20,048,29*7F
$GPGSV,3,2,12,18,74,200,22,23,47,351,25,24,55,053,27,25,12,160,*77
$GPGSV,3,3,12,27,04,293,,28,07,208,,29,07,184,,32,29,268,06*75
$GPGLL,2059.84440,N,10553.19650,E,101438.00,A,A*6D
$GPRMC,101439.00,A,2059.84439,N,10553.19667,E,0.319,,290624,,,A*7F
$GPVTG,,T,,M,0.319,N,0.591,K,A*25
$GPGGA,101439.00,[0m
[0;32mI (27989) GPS: UTC Time: 101433.00, Latitude: 20.997414, Longitude: 105.886589[0m
[0;32mI (32399) Transmit UART: Encoded and sent data over UART.[0m
=== Reading Node number 4 ===
[0;32mI (32999) PMS7003: PM1.0: 12 µg/m³[0m
[0;32mI (32999) PMS7003: PM2.5: 16 µg/m³[0m
[0;32mI (32999) PMS7003: PM10: 17 µg/m³[0m
[0;32mI (32999) DHT22: Hum 32.8[0m
[0;32mI (32999) DHT22: Tmp 33.2[0m
[0;32mI (33009) MQ131: MQ131 - O3 Concentration: 631654296015678004493549568000.00 ppb[0m
[0;32mI (33009) MQ136: MQ136 - SO2 Concentration: 23.18 ppm[0m

[0;32mI (33019) MICS6814: MICS6814 - CO Concentration: 3999.00 ppm[0m
[0;32mI (33029) MICS6814: MICS6814 - NO2 Concentration: 3.38 ppm[0m

[0;32mI (33029) GPS: Received: ,12,05,08,107,15,10,22,320,,12,12,129,21,15,20,048,31*76
$GPGSV,3,2,12,18,74,200,23,23,47,351,27,24,55,053,28,25,12,160,*7B
$GPGSV,3,3,12,27,04,293,,28,07,208,,29,07,184,18,32,29,268,06*7C
$GPGLL,2059.84365,N,10553.19722,E,101443.00,A,A*65
$GPRMC,101444.00,A,2059.84363,N,10553.19739,E,0.439,,290624,,,A*72
$GPVTG,,T,,M,0.439,N,0.812,K,A*26
$GPGGA,101444.00,2059.84363,N,10553.19739,E,1,06,2.42,-7.0,M,-23.3,M,,*5C
$GPGSA,A,3,32,15,05,18,23,24,,,,,,,3.79,2.42,2.91*0F
$GPGSV,3[0m
[0;32mI (33079) GPS: UTC Time: 101433.00, Latitude: 20.997414, Longitude: 105.886589[0m
[0;32mI (37399) Transmit UART: Encoded and sent data over UART.[0m
=== Reading Node number 4 ===
[0;32mI (38089) PMS7003: PM1.0: 12 µg/m³[0m
[0;32mI (38089) PMS7003: PM2.5: 16 µg/m³[0m
[0;32mI (38089) PMS7003: PM10: 16 µg/m³[0m
[0;32mI (38089) DHT22: Hum 32.9[0m
[0;32mI (38089) DHT22: Tmp 33.2[0m
[0;32mI (38099) MQ131: MQ131 - O3 Concentration: 631654296015678004493549568000.00 ppb[0m
[0;32mI (38099) MQ136: MQ136 - SO2 Concentration: 23.39 ppm[0m

[0;32mI (38109) MICS6814: MICS6814 - CO Concentration: 35.00 ppm[0m
[0;32mI (38119) MICS6814: MICS6814 - NO2 Concentration: 3.51 ppm[0m

[0;32mI (38119) GPS: Received: ,*75
$GPGSV,3,3,12,27,04,293,,28,07,208,,29,07,184,08,32,29,268,09*72
$GPGLL,2059.84392,N,10553.19750,E,101448.00,A,A*63
$GPRMC,101449.00,A,2059.84379,N,10553.19770,E,0.498,,290624,,,A*72
$GPVTG,,T,,M,0.498,N,0.922,K,A*2F
$GPGGA,101449.00,2059.84379,N,10553.19770,E,1,05,2.97,-7.7,M,-23.3,M,,*5B
$GPGSA,A,3,32,15,18,23,24,,,,,,,,5.30,2.97,4.40*03
$GPGSV,3,1,12,05,07,107,08,10,22,320,,12,12,129,23,15,20,048,30*76
$GPGSV,3,2,12,18,74,200,24,23,47,351,27,24,55,053,27,25,12,160[0m
[0;32mI (38169) GPS: UTC Time: 101433.00, Latitude: 20.997414, Longitude: 105.886589[0m
[0;32mI (42399) Transmit UART: Encoded and sent data over UART.[0m
=== Reading Node number 4 ===
[0;32mI (43179) PMS7003: PM1.0: 13 µg/m³[0m
[0;32mI (43179) PMS7003: PM2.5: 17 µg/m³[0m
[0;32mI (43179) PMS7003: PM10: 18 µg/m³[0m
[0;32mI (43179) DHT22: Hum 32.8[0m
[0;32mI (43179) DHT22: Tmp 33.2[0m
[0;32mI (43189) MQ131: MQ131 - O3 Concentration: 631654296015678004493549568000.00 ppb[0m
[0;32mI (43189) MQ136: MQ136 - SO2 Concentration: 23.26 ppm[0m

[0;32mI (43199) MICS6814: MICS6814 - CO Concentration: 1.00 ppm[0m
[0;32mI (43209) MICS6814: MICS6814 - NO2 Concentration: 3.83 ppm[0m

[0;32mI (43209) GPS: Received: $GPRMC,101453.00,A,2059.84373,N,10553.19811,E,0.662,,290624,,,A*7C
$GPVTG,,T,,M,0.662,N,1.227,K,A*27
$GPGGA,101453.00,2059.84373,N,10553.19811,E,1,06,2.43,-7.5,M,-23.3,M,,*5A
$GPGSA,A,3,32,15,05,18,23,24,,,,,,,3.79,2.43,2.92*0D
$GPGSV,3,1,12,05,07,107,12,10,22,320,,12,12,129,21,15,20,048,28*76
$GPGSV,3,2,12,18,74,200,21,23,47,351,25,24,55,053,24,25,12,160,*77
$GPGSV,3,3,12,27,04,293,,28,07,208,,29,07,184,,32,29,268,08*7B
$GPGLL,2059.84373,N,10553.19811,E,101453.00,A,A*6C
[0m
[0;31mE (43259) DHT: Sensor Timeout
[0m
[0;32mI (43269) GPS: UTC Time: 101453.00, Latitude: 20.997395, Longitude: 105.886635[0m
[0;32mI (47399) Transmit UART: Encoded and sent data over UART.[0m
=== Reading Node number 4 ===
[0;32mI (48279) PMS7003: PM1.0: 12 µg/m³[0m
[0;32mI (48279) PMS7003: PM2.5: 18 µg/m³[0m
[0;32mI (48279) PMS7003: PM10: 22 µg/m³[0m
[0;32mI (48279) DHT22: Hum 32.8[0m
[0;32mI (48279) DHT22: Tmp 33.2[0m
[0;32mI (48289) MQ131: MQ131 - O3 Concentration: 631654296015678004493549568000.00 ppb[0m
[0;32mI (48289) MQ136: MQ136 - SO2 Concentration: 23.62 ppm[0m

[0;32mI (48299) MICS6814: MICS6814 - CO Concentration: 3999.00 ppm[0m
[0;32mI (48309) MICS6814: MICS6814 - NO2 Concentration: 3.86 ppm[0m

[0;32mI (48309) GPS: Received: $GPRMC,101458.00,A,2059.84348,N,10553.19930,E,0.338,,290624,,,A*77
$GPVTG,,T,,M,0.338,N,0.627,K,A*28
$GPGGA,101458.00,2059.84348,N,10553.19930,E,1,05,2.97,-7.7,M,-23.3,M,,*53
$GPGSA,A,3,15,05,18,23,24,,,,,,,,5.30,2.97,4.39*09
$GPGSV,3,1,12,05,07,107,07,10,23,320,19,12,13,129,23,15,20,048,29*79
$GPGSV,3,2,12,18,74,200,21,23,47,351,25,24,55,053,23,25,12,160,*70
$GPGSV,3,3,12,27,04,293,,28,07,208,,29,07,184,,32,29,268,*73
$GPGLL,2059.84348,N,10553.19930,E,101458.00,A,A*6D
[0m
[0;32mI (48359) GPS: UTC Time: 101458.00, Latitude: 20.997391, Longitude: 105.886658[0m
[0;32mI (52399) Transmit UART: Encoded and sent data over UART.[0m
=== Reading Node number 4 ===
[0;32mI (53369) PMS7003: PM1.0: 12 µg/m³[0m
[0;32mI (53369) PMS7003: PM2.5: 18 µg/m³[0m
[0;32mI (53369) PMS7003: PM10: 21 µg/m³[0m
[0;32mI (53369) DHT22: Hum 32.8[0m
[0;32mI (53369) DHT22: Tmp 33.2[0m
[0;32mI (53379) MQ131: MQ131 - O3 Concentration: 631654296015678004493549568000.00 ppb[0m
[0;32mI (53379) MQ136: MQ136 - SO2 Concentration: 24.54 ppm[0m

[0;32mI (53389) MICS6814: MICS6814 - CO Concentration: 1.00 ppm[0m
[0;32mI (53399) MICS6814: MICS6814 - NO2 Concentration: 2.91 ppm[0m

[0;32mI (53399) GPS: Received: $GPRMC,101503.00,A,2059.84339,N,10553.20142,E,0.182,,290624,,,A*7A
$GPVTG,,T,,M,0.182,N,0.337,K,A*2F
$GPGGA,101503.00,2059.84339,N,10553.20142,E,1,04,2.35,-2.9,M,-23.3,M,,*5F
$GPGSA,A,2,32,15,18,23,,,,,,,,,2.56,2.35,1.00*0A
$GPGSV,3,1,12,05,07,107,,10,23,320,18,12,13,129,23,15,20,048,31*76
$GPGSV,3,2,12,18,73,199,21,23,47,351,23,24,55,053,,25,12,160,*73
$GPGSV,3,3,12,27,04,293,,28,07,208,,29,07,184,,32,29,268,14*76
$GPGLL,2059.84339,N,10553.20142,E,101503.00,A,A*63
[0m
[0;32mI (53449) GPS: UTC Time: 101503.00, Latitude: 20.997391, Longitude: 105.886688[0m
[0;32mI (57399) Transmit UART: Encoded and sent data over UART.[0m
=== Reading Node number 4 ===
[0;32mI (58459) PMS7003: PM1.0: 13 µg/m³[0m
[0;32mI (58459) PMS7003: PM2.5: 17 µg/m³[0m
[0;32mI (58459) PMS7003: PM10: 20 µg/m³[0m
[0;32mI (58459) DHT22: Hum 32.8[0m
[0;32mI (58459) DHT22: Tmp 33.2[0m
[0;32mI (58469) MQ131: MQ131 - O3 Concentration: 631654296015678004493549568000.00 ppb[0m
[0;32mI (58469) MQ136: MQ136 - SO2 Concentration: 23.84 ppm[0m

[0;32mI (58479) MICS6814: MICS6814 - CO Concentration: 2841.00 ppm[0m
[0;32mI (58489) MICS6814: MICS6814 - NO2 Concentration: 3.27 ppm[0m

[0;32mI (58489) GPS: Received: $GPRMC,101508.00,A,2059.84458,N,10553.20585,E,0.233,,290624,,,A*77
$GPVTG,,T,,M,0.233,N,0.431,K,A*27
$GPGGA,101508.00,2059.84458,N,10553.20585,E,1,04,5.12,0.7,M,-23.3,M,,*78
$GPGSA,A,3,32,15,18,24,,,,,,,,,6.75,5.12,4.39*04
$GPGSV,3,1,12,05,07,107,,10,23,320,20,12,13,129,,15,20,048,29*75
$GPGSV,3,2,12,18,73,199,22,23,47,352,,24,54,052,27,25,12,160,*77
$GPGSV,3,3,12,27,04,293,,28,07,208,,29,07,184,,32,29,268,13*71
$GPGLL,2059.84458,N,10553.20585,E,101508.00,A,A*67
[0m
[0;32mI (58539) GPS: UTC Time: 101508.00, Latitude: 20.997410, Longitude: 105.886765[0m
[0;32mI (62399) Transmit UART: Encoded and sent data over UART.[0m
=== Reading Node number 4 ===
[0;32mI (63549) PMS7003: PM1.0: 13 µg/m³[0m
[0;32mI (63549) PMS7003: PM2.5: 17 µg/m³[0m
[0;32mI (63549) PMS7003: PM10: 18 µg/m³[0m
[0;32mI (63549) DHT22: Hum 32.8[0m
[0;32mI (63549) DHT22: Tmp 33.2[0m
[0;32mI (63559) MQ131: MQ131 - O3 Concentration: 631654296015678004493549568000.00 ppb[0m
[0;32mI (63559) MQ136: MQ136 - SO2 Concentration: 22.79 ppm[0m

[0;32mI (63569) MICS6814: MICS6814 - CO Concentration: 30.00 ppm[0m
[0;32mI (63579) MICS6814: MICS6814 - NO2 Concentration: 4.23 ppm[0m

[0;32mI (63579) GPS: Received: $GPRMC,101513.00,A,2059.84558,N,10553.20638,E,1.360,,290624,,,A*7F
$GPVTG,,T,,M,1.360,N,2.519,K,A*28
$GPGGA,101513.00,2059.84558,N,10553.20638,E,1,05,1.96,2.7,M,-23.3,M,,*7D
$GPGSA,A,3,32,15,18,23,24,,,,,,,,3.01,1.96,2.29*0C
$GPGSV,3,1,12,05,07,107,,10,23,320,20,12,13,129,23,15,20,048,30*7C
$GPGSV,3,2,12,18,73,199,23,23,47,352,24,24,54,052,29,25,12,159,16*73
$GPGSV,3,3,12,27,04,292,,28,08,208,,29,07,183,07,32,29,268,14*78
$GPGLL,2059.84558,N,10553.20638,E,101513.00,A,A*69
[0m
[0;32mI (63629) GPS: UTC Time: 101513.00, Latitude: 20.997427, Longitude: 105.886772[0m
[0;32mI (67399) Transmit UART: Encoded and sent data over UART.[0m
=== Reading Node number 4 ===
[0;32mI (68639) PMS7003: PM1.0: 14 µg/m³[0m
[0;32mI (68639) PMS7003: PM2.5: 18 µg/m³[0m
[0;32mI (68639) PMS7003: PM10: 18 µg/m³[0m
[0;32mI (68639) DHT22: Hum 32.8[0m
[0;32mI (68639) DHT22: Tmp 33.2[0m
[0;32mI (68649) MQ131: MQ131 - O3 Concentration: 631654296015678004493549568000.00 ppb[0m
[0;32mI (68649) MQ136: MQ136 - SO2 Concentration: 22.86 ppm[0m

[0;32mI (68659) MICS6814: MICS6814 - CO Concentration: 410.00 ppm[0m
[0;32mI (68669) MICS6814: MICS6814 - NO2 Concentration: 3.88 ppm[0m

[0;32mI (68669) GPS: Received: $GPRMC,101518.00,A,2059.84549,N,10553.20613,E,0.285,,290624,,,A*76
$GPVTG,,T,,M,0.285,N,0.528,K,A*23
$GPGGA,101518.00,2059.84549,N,10553.20613,E,1,06,2.96,2.4,M,-23.3,M,,*7C
$GPGSA,A,3,32,15,05,18,23,24,,,,,,,5.29,2.96,4.38*00
$GPGSV,4,1,13,01,,,13,05,07,107,11,10,23,320,20,12,13,129,26*45
$GPGSV,4,2,13,15,20,048,31,18,73,199,25,23,47,352,26,24,54,052,31*7E
$GPGSV,4,3,13,25,12,159,,27,04,292,,28,08,208,,29,07,183,*73
$GPGSV,4,4,13,32,29,268,18*44
$GPGLL,2059.84549,N,10553.20613,E,101518.00,A,A*6B
[0m
[0;32mI (68719) GPS: UTC Time: 101518.00, Latitude: 20.997425, Longitude: 105.886772[0m
[0;31mE (69799) DHT: Sensor Timeout
[0m
[0;32mI (72399) Transmit UART: Encoded and sent data over UART.[0m
=== Reading Node number 4 ===
[0;32mI (73729) PMS7003: PM1.0: 13 µg/m³[0m
[0;32mI (73729) PMS7003: PM2.5: 17 µg/m³[0m
[0;32mI (73729) PMS7003: PM10: 17 µg/m³[0m
[0;32mI (73729) DHT22: Hum 32.8[0m
[0;32mI (73729) DHT22: Tmp 33.2[0m
[0;32mI (73739) MQ131: MQ131 - O3 Concentration: 631654296015678004493549568000.00 ppb[0m
[0;32mI (73739) MQ136: MQ136 - SO2 Concentration: 23.18 ppm[0m

[0;32mI (73749) MICS6814: MICS6814 - CO Concentration: 1.00 ppm[0m
[0;32mI (73759) MICS6814: MICS6814 - NO2 Concentration: 3.74 ppm[0m

[0;32mI (73759) GPS: Received: 2059.84391,N,10553.21101,E,1,05,1.96,4.4,M,-23.3,M,,*74
$GPGSA,A,3,32,15,18,23,24,,,,,,,,3.01,1.96,2.29*0C
$GPGSV,4,1,13,01,,,08,05,07,107,08,10,23,320,19,12,13,129,23*48
$GPGSV,4,2,13,15,20,048,30,18,73,199,25,23,47,352,25,24,54,052,31*7C
$GPGSV,4,3,13,25,12,159,,27,04,292,,28,08,208,,29,07,183,*73
$GPGSV,4,4,13,32,29,268,16*4A
$GPGLL,2059.84391,N,10553.21101,E,101523.00,A,A*65
$GPRMC,101524.00,A,2059.84398,N,10553.21135,E,0.766,,290624,,,A*79
$GPVTG,,T,,M,0.766,N,1.419,K,A*29
$GPGGA,101524.00,[0m
[0;32mI (73809) GPS: UTC Time: 101521.00, Latitude: 20.997414, Longitude: 105.886818[0m
[0;32mI (77399) Transmit UART: Encoded and sent data over UART.[0m
=== Reading Node number 4 ===
[0;32mI (78819) PMS7003: PM1.0: 13 µg/m³[0m
[0;32mI (78819) PMS7003: PM2.5: 17 µg/m³[0m
[0;32mI (78819) PMS7003: PM10: 18 µg/m³[0m
[0;32mI (78819) DHT22: Hum 32.8[0m
[0;32mI (78819) DHT22: Tmp 33.2[0m
[0;32mI (78829) MQ131: MQ131 - O3 Concentration: 631654296015678004493549568000.00 ppb[0m
[0;32mI (78829) MQ136: MQ136 - SO2 Concentration: 23.18 ppm[0m

[0;32mI (78839) MICS6814: MICS6814 - CO Concentration: 2634.00 ppm[0m
[0;32mI (78849) MICS6814: MICS6814 - NO2 Concentration: 3.80 ppm[0m

[0;32mI (78849) GPS: Received: 12,05,07,107,08,10,23,320,19,12,13,129,23,15,20,048,30*7E
$GPGSV,3,2,12,18,73,199,24,23,47,352,25,24,54,052,31,25,12,159,*7B
$GPGSV,3,3,12,27,04,292,,28,08,208,,29,07,183,,32,29,268,16*7D
$GPGLL,2059.84334,N,10553.21294,E,101528.00,A,A*6E
$GPRMC,101529.00,A,2059.84340,N,10553.21310,E,0.564,,290624,,,A*74
$GPVTG,,T,,M,0.564,N,1.045,K,A*24
$GPGGA,101529.00,2059.84340,N,10553.21310,E,1,05,1.96,5.7,M,-23.3,M,,*72
$GPGSA,A,3,32,15,18,23,24,,,,,,,,3.01,1.96,2.29*0C
$GPGSV,3,1,[0m
[0;32mI (78899) GPS: UTC Time: 101521.00, Latitude: 20.997414, Longitude: 105.886818[0m
[0;31mE (82049) DHT: Sensor Timeout
[0m
[0;32mI (82399) Transmit UART: Encoded and sent data over UART.[0m
=== Reading Node number 4 ===
[0;32mI (83909) PMS7003: PM1.0: 12 µg/m³[0m
[0;32mI (83909) PMS7003: PM2.5: 15 µg/m³[0m
[0;32mI (83909) PMS7003: PM10: 15 µg/m³[0m
[0;32mI (83909) DHT22: Hum 32.9[0m
[0;32mI (83909) DHT22: Tmp 33.2[0m
[0;32mI (83919) MQ131: MQ131 - O3 Concentration: 631654296015678004493549568000.00 ppb[0m
[0;32mI (83919) MQ136: MQ136 - SO2 Concentration: 22.76 ppm[0m

[0;32mI (83929) MICS6814: MICS6814 - CO Concentration: 3088.00 ppm[0m
[0;32mI (83939) MICS6814: MICS6814 - NO2 Concentration: 3.31 ppm[0m

[0;32mI (83939) GPS: Received: 159,*7D
$GPGSV,3,3,12,27,04,292,,28,08,208,,29,07,183,,32,29,268,10*7B
$GPGLL,2059.84357,N,10553.21290,E,101533.00,A,A*65
$GPRMC,101534.00,A,2059.84349,N,10553.21278,E,0.303,,290624,,,A*79
$GPVTG,,T,,M,0.303,N,0.560,K,A*20
$GPGGA,101534.00,2059.84349,N,10553.21278,E,1,06,2.96,6.1,M,-23.3,M,,*7D
$GPGSA,A,3,32,15,05,18,23,24,,,,,,,5.28,2.96,4.37*0E
$GPGSV,3,1,12,05,07,107,07,10,23,320,20,12,13,129,22,15,20,048,23*78
$GPGSV,3,2,12,18,73,199,23,23,47,352,25,24,54,052,29,25,12,[0m
[0;32mI (83989) GPS: UTC Time: 101521.00, Latitude: 20.997414, Longitude: 105.886818[0m
[0;32mI (87399) Transmit UART: Encoded and sent data over UART.[0m
=== Reading Node number 4 ===
[0;32mI (88999) PMS7003: PM1.0: 12 µg/m³[0m
[0;32mI (88999) PMS7003: PM2.5: 15 µg/m³[0m
[0;32mI (88999) PMS7003: PM10: 15 µg/m³[0m
[0;32mI (88999) DHT22: Hum 32.9[0m
[0;32mI (88999) DHT22: Tmp 33.2[0m
[0;32mI (89009) MQ131: MQ131 - O3 Concentration: 631654296015678004493549568000.00 ppb[0m
[0;32mI (89009) MQ136: MQ136 - SO2 Concentration: 22.94 ppm[0m

[0;32mI (89019) MICS6814: MICS6814 - CO Concentration: 1.00 ppm[0m
[0;32mI (89029) MICS6814: MICS6814 - NO2 Concentration: 3.50 ppm[0m

[0;32mI (89029) GPS: Received: *7E
$GPGSV,3,3,12,27,04,292,,28,08,208,,29,07,183,,32,29,268,07*7D
$GPGLL,2059.84375,N,10553.21197,E,101538.00,A,A*6A
$GPRMC,101539.00,A,2059.84378,N,10553.21172,E,0.382,,290624,,,A*76
$GPVTG,,T,,M,0.382,N,0.708,K,A*25
$GPGGA,101539.00,2059.84378,N,10553.21172,E,1,05,2.96,6.3,M,-23.3,M,,*7A
$GPGSA,A,3,32,15,18,23,24,,,,,,,,5.27,2.96,4.36*05
$GPGSV,3,1,12,05,07,107,,10,23,320,19,12,13,129,20,15,20,048,29*7D
$GPGSV,3,2,12,18,73,199,21,23,47,352,23,24,54,052,27,25,12,159,*7F
$GPGSV,3,3,12,27,04,292,,28,08,208,,29,07,183,,32,29,268,07*7D
$GPGLL,2059.84378,N,10553.21172,E,101539.00,A,A*6D
[0m
[0;32mI (89089) GPS: UTC Time: 101521.00, Latitude: 20.997414, Longitude: 105.886818[0m
[0;32mI (92399) Transmit UART: Encoded and sent data over UART.[0m
=== Reading Node number 4 ===
[0;32mI (94099) PMS7003: PM1.0: 12 µg/m³[0m
[0;32mI (94099) PMS7003: PM2.5: 13 µg/m³[0m
[0;32mI (94099) PMS7003: PM10: 15 µg/m³[0m
[0;32mI (94099) DHT22: Hum 32.9[0m
[0;32mI (94099) DHT22: Tmp 33.2[0m
[0;32mI (94109) MQ131: MQ131 - O3 Concentration: 631654296015678004493549568000.00 ppb[0m
[0;32mI (94109) MQ136: MQ136 - SO2 Concentration: 23.07 ppm[0m

[0;32mI (94119) MICS6814: MICS6814 - CO Concentration: 3667.00 ppm[0m
[0;32mI (94129) MICS6814: MICS6814 - NO2 Concentration: 3.48 ppm[0m

[0;32mI (94129) GPS: Received: $GPRMC,101544.00,A,2059.84589,N,10553.20991,E,0.927,,290624,,,A*75
$GPVTG,,T,,M,0.927,N,1.716,K,A*2E
$GPGGA,101544.00,2059.84589,N,10553.20991,E,1,05,2.96,6.3,M,-23.3,M,,*7C
$GPGSA,A,3,32,15,18,23,24,,,,,,,,5.27,2.96,4.36*05
$GPGSV,3,1,12,05,07,107,,10,23,320,19,12,13,129,20,15,20,048,28*7C
$GPGSV,3,2,12,18,73,199,20,23,47,352,21,24,54,052,26,25,12,159,*7D
$GPGSV,3,3,12,27,04,292,,28,08,208,,29,07,183,19,32,29,268,07*75
$GPGLL,2059.84589,N,10553.20991,E,101544.00,A,A*6B
[0m
[0;32mI (94179) GPS: UTC Time: 101544.00, Latitude: 20.997431, Longitude: 105.886833[0m
[0;31mE (94339) DHT: Sensor Timeout
[0m
[0;32mI (97399) Transmit UART: Encoded and sent data over UART.[0m
=== Reading Node number 4 ===
[0;32mI (99189) PMS7003: PM1.0: 13 µg/m³[0m
[0;32mI (99189) PMS7003: PM2.5: 15 µg/m³[0m
[0;32mI (99189) PMS7003: PM10: 17 µg/m³[0m
[0;32mI (99189) DHT22: Hum 32.9[0m
[0;32mI (99189) DHT22: Tmp 33.2[0m
[0;32mI (99199) MQ131: MQ131 - O3 Concentration: 631654296015678004493549568000.00 ppb[0m
[0;32mI (99199) MQ136: MQ136 - SO2 Concentration: 23.02 ppm[0m

[0;32mI (99209) MICS6814: MICS6814 - CO Concentration: 1.00 ppm[0m
[0;32mI (99219) MICS6814: MICS6814 - NO2 Concentration: 3.47 ppm[0m

[0;32mI (99219) GPS: Received: $GPRMC,101549.00,A,2059.84508,N,10553.20964,E,0.222,,290624,,,A*75
$GPVTG,,T,,M,0.222,N,0.411,K,A*25
$GPGGA,101549.00,2059.84508,N,10553.20964,E,1,04,2.96,6.5,M,-23.3,M,,*75
$GPGSA,A,3,15,18,23,24,,,,,,,,,5.27,2.96,4.36*04
$GPGSV,3,1,12,05,07,107,,10,23,320,18,12,13,129,22,15,20,048,30*76
$GPGSV,3,2,12,18,73,199,24,23,47,352,24,24,54,052,29,25,12,159,*73
$GPGSV,3,3,12,27,04,292,,28,08,208,,29,07,183,,32,29,268,*7A
$GPGLL,2059.84508,N,10553.20964,E,101549.00,A,A*65
[0m
[0;32mI (99269) GPS: UTC Time: 101549.00, Latitude: 20.997417, Longitude: 105.886826[0m
[0;32mI (102399) Transmit UART: Encoded and sent data over UART.[0m
=== Reading Node number 4 ===
[0;32mI (104279) PMS7003: PM1.0: 13 µg/m³[0m
[0;32mI (104279) PMS7003: PM2.5: 18 µg/m³[0m
[0;32mI (104279) PMS7003: PM10: 23 µg/m³[0m
[0;32mI (104279) DHT22: Hum 32.9[0m
[0;32mI (104279) DHT22: Tmp 33.1[0m
[0;32mI (104289) MQ131: MQ131 - O3 Concentration: 631654296015678004493549568000.00 ppb[0m
[0;32mI (104289) MQ136: MQ136 - SO2 Concentration: 22.94 ppm[0m

[0;32mI (104299) MICS6814: MICS6814 - CO Concentration: 50.00 ppm[0m
[0;32mI (104309) MICS6814: MICS6814 - NO2 Concentration: 3.55 ppm[0m

[0;32mI (104309) GPS: Received: $GPRMC,101554.00,A,2059.84447,N,10553.21043,E,0.665,,290624,,,A*79
$GPVTG,,T,,M,0.665,N,1.231,K,A*27
$GPGGA,101554.00,2059.84447,N,10553.21043,E,1,04,2.96,6.4,M,-23.3,M,,*7F
$GPGSA,A,3,15,18,23,24,,,,,,,,,5.26,2.96,4.35*06
$GPGSV,3,1,12,05,07,107,,10,23,320,15,12,13,129,18,15,20,048,24*77
$GPGSV,3,2,12,18,73,199,20,23,47,352,21,24,54,052,25,25,12,159,*7E
$GPGSV,3,3,12,27,04,292,,28,08,208,,29,07,183,,32,29,268,*7A
$GPGLL,2059.84447,N,10553.21043,E,101554.00,A,A*6E
[0m
[0;32mI (104359) GPS: UTC Time: 101554.00, Latitude: 20.997408, Longitude: 105.886841[0m
[0;31mE (106599) DHT: Sensor Timeout
[0m
[0;32mI (107399) Transmit UART: Encoded and sent data over UART.[0m
=== Reading Node number 4 ===
[0;32mI (109369) PMS7003: PM1.0: 12 µg/m³[0m
[0;32mI (109369) PMS7003: PM2.5: 18 µg/m³[0m
[0;32mI (109369) PMS7003: PM10: 21 µg/m³[0m
[0;32mI (109369) DHT22: Hum 33.0[0m
[0;32mI (109369) DHT22: Tmp 33.1[0m
[0;32mI (109379) MQ131: MQ131 - O3 Concentration: 631654296015678004493549568000.00 ppb[0m
[0;32mI (109379) MQ136: MQ136 - SO2 Concentration: 22.30 ppm[0m

[0;32mI (109389) MICS6814: MICS6814 - CO Concentration: 27.00 ppm[0m
[0;32mI (109399) MICS6814: MICS6814 - NO2 Concentration: 3.61 ppm[0m

[0;32mI (109399) GPS: Received: $GPRMC,101559.00,A,2059.84393,N,10553.20962,E,0.312,,290624,,,A*74
$GPVTG,,T,,M,0.312,N,0.577,K,A*26
$GPGGA,101559.00,2059.84393,N,10553.20962,E,1,04,2.96,6.5,M,-23.3,M,,*76
$GPGSA,A,3,15,18,23,24,,,,,,,,,5.26,2.96,4.35*06
$GPGSV,3,1,12,05,07,107,,10,23,320,13,12,13,129,17,15,20,048,26*7C
$GPGSV,3,2,12,18,73,199,18,23,47,352,20,24,54,052,24,25,12,159,*75
$GPGSV,3,3,12,27,04,292,,28,08,208,,29,07,183,,32,29,268,08*72
$GPGLL,2059.84393,N,10553.20962,E,101559.00,A,A*66
[0m
[0;32mI (109449) GPS: UTC Time: 101559.00, Latitude: 20.997398, Longitude: 105.886826[0m
[0;32mI (112399) Transmit UART: Encoded and sent data over UART.[0m
=== Reading Node number 4 ===
[0;32mI (114459) PMS7003: PM1.0: 12 µg/m³[0m
[0;32mI (114469) PMS7003: PM2.5: 17 µg/m³[0m
[0;32mI (114469) PMS7003: PM10: 21 µg/m³[0m
[0;32mI (114479) DHT22: Hum 33.0[0m
[0;32mI (114479) DHT22: Tmp 33.1[0m
[0;32mI (114479) MQ131: MQ131 - O3 Concentration: 631654296015678004493549568000.00 ppb[0m
[0;32mI (114479) MQ136: MQ136 - SO2 Concentration: 23.23 ppm[0m

[0;32mI (114489) MICS6814: MICS6814 - CO Concentration: 2841.00 ppm[0m
[0;32mI (114499) MICS6814: MICS6814 - NO2 Concentration: 3.69 ppm[0m

[0;32mI (114499) GPS: Received: $GPRMC,101604.00,A,2059.84414,N,10553.21135,E,1.764,,290624,,,A*78
$GPVTG,,T,,M,1.764,N,3.267,K,A*27
$GPGGA,101604.00,2059.84414,N,10553.21135,E,1,05,2.96,5.9,M,-23.3,M,,*70
$GPGSA,A,3,32,15,18,23,24,,,,,,,,5.26,2.96,4.35*07
$GPGSV,3,1,12,05,07,108,,10,23,320,11,12,13,129,20,15,20,048,26*75
$GPGSV,3,2,12,18,73,199,20,23,47,352,21,24,54,052,26,25,12,159,*7D
$GPGSV,3,3,12,27,04,292,,28,08,208,,29,07,183,,32,29,268,08*72
$GPGLL,2059.84414,N,10553.21135,E,101604.00,A,A*6E
[0m
[0;32mI (114549) GPS: UTC Time: 101604.00, Latitude: 20.997402, Longitude: 105.886856[0m
[0;32mI (117399) Transmit UART: Encoded and sent data over UART.[0m
[0;31mE (118859) DHT: Sensor Timeout
[0m
=== Reading Node number 4 ===
[0;32mI (119559) PMS7003: PM1.0: 13 µg/m³[0m
[0;32mI (119559) PMS7003: PM2.5: 17 µg/m³[0m
[0;32mI (119559) PMS7003: PM10: 19 µg/m³[0m
[0;32mI (119559) DHT22: Hum 33.0[0m
[0;32mI (119559) DHT22: Tmp 33.1[0m
[0;32mI (119569) MQ131: MQ131 - O3 Concentration: 631654296015678004493549568000.00 ppb[0m
[0;32mI (119569) MQ136: MQ136 - SO2 Concentration: 22.68 ppm[0m

[0;32mI (119579) MICS6814: MICS6814 - CO Concentration: 1.00 ppm[0m
[0;32mI (119589) MICS6814: MICS6814 - NO2 Concentration: 3.54 ppm[0m

[0;32mI (119589) GPS: Received: 2059.84452,N,10553.20963,E,1,04,2.96,5.9,M,-23.3,M,,*74
$GPGSA,A,3,15,18,23,24,,,,,,,,,5.26,2.96,4.34*07
$GPGSV,3,1,12,05,07,108,,10,23,320,16,12,13,128,22,15,20,048,29*7E
$GPGSV,3,2,12,18,73,199,22,23,47,352,24,24,54,052,29,25,12,159,*75
$GPGSV,3,3,12,27,04,292,,28,08,208,,29,07,183,,32,29,268,*7A
$GPGLL,2059.84452,N,10553.20963,E,101609.00,A,A*6B
$GPRMC,101610.00,A,2059.84400,N,10553.20970,E,0.303,,290624,,,A*74
$GPVTG,,T,,M,0.303,N,0.561,K,A*21
$GPGGA,101610.00,[0m
[0;32mI (119639) GPS: UTC Time: 101607.00, Latitude: 20.997404, Longitude: 105.886841[0m
[0;32mI (122399) Transmit UART: Encoded and sent data over UART.[0m
=== Reading Node number 4 ===
[0;32mI (124649) PMS7003: PM1.0: 13 µg/m³[0m
[0;32mI (124649) PMS7003: PM2.5: 15 µg/m³[0m
[0;32mI (124649) PMS7003: PM10: 15 µg/m³[0m
[0;32mI (124649) DHT22: Hum 33.0[0m
[0;32mI (124649) DHT22: Tmp 33.1[0m
[0;32mI (124659) MQ131: MQ131 - O3 Concentration: 631654296015678004493549568000.00 ppb[0m
[0;32mI (124659) MQ136: MQ136 - SO2 Concentration: 22.94 ppm[0m

[0;32mI (124669) MICS6814: MICS6814 - CO Concentration: 32.00 ppm[0m
[0;32mI (124679) MICS6814: MICS6814 - NO2 Concentration: 3.64 ppm[0m

[0;32mI (124679) GPS: Received: ,05,07,108,,10,23,320,20,12,13,128,24,15,19,049,31*7F
$GPGSV,3,2,12,18,73,198,23,23,47,352,26,24,54,052,30,25,12,159,*7F
$GPGSV,3,3,12,27,04,292,,28,08,208,,29,07,183,,32,29,268,*7A
$GPGLL,2059.84400,N,10553.20872,E,101614.00,A,A*61
$GPRMC,101615.00,A,2059.84402,N,10553.20864,E,0.173,,290624,,,A*72
$GPVTG,,T,,M,0.173,N,0.320,K,A*27
$GPGGA,101615.00,2059.84402,N,10553.20864,E,1,04,2.96,5.4,M,-23.3,M,,*77
$GPGSA,A,3,15,18,23,24,,,,,,,,,5.25,2.96,4.34*04
$GPGSV,3,1,12[0m
[0;32mI (124729) GPS: UTC Time: 101607.00, Latitude: 20.997404, Longitude: 105.886841[0m
[0;32mI (127399) Transmit UART: Encoded and sent data over UART.[0m
=== Reading Node number 4 ===
[0;32mI (129739) PMS7003: PM1.0: 13 µg/m³[0m
[0;32mI (129739) PMS7003: PM2.5: 17 µg/m³[0m
[0;32mI (129739) PMS7003: PM10: 17 µg/m³[0m
[0;32mI (129739) DHT22: Hum 33.0[0m
[0;32mI (129739) DHT22: Tmp 33.1[0m
[0;32mI (129749) MQ131: MQ131 - O3 Concentration: 631654296015678004493549568000.00 ppb[0m
[0;32mI (129749) MQ136: MQ136 - SO2 Concentration: 22.58 ppm[0m

[0;32mI (129759) MICS6814: MICS6814 - CO Concentration: 1.00 ppm[0m
[0;32mI (129769) MICS6814: MICS6814 - NO2 Concentration: 3.78 ppm[0m

[0;32mI (129769) GPS: Received: *70
$GPGSV,3,3,12,27,04,292,,28,08,208,,29,07,183,,32,29,268,*7A
$GPGLL,2059.84431,N,10553.20854,E,101619.00,A,A*6A
$GPRMC,101620.00,A,2059.84452,N,10553.20909,E,0.927,,290624,,,A*72
$GPVTG,,T,,M,0.927,N,1.717,K,A*2F
$GPGGA,101620.00,2059.84452,N,10553.20909,E,1,04,2.96,5.1,M,-23.3,M,,*7B
$GPGSA,A,3,15,18,23,24,,,,,,,,,5.25,2.96,4.34*04
$GPGSV,3,1,12,05,07,108,08,10,23,320,21,12,13,128,21,15,19,049,30*72
$GPGSV,3,2,12,18,73,198,20,23,48,352,24,24,54,052,30,25,12,159,[0m
[0;32mI (129819) GPS: UTC Time: 101607.00, Latitude: 20.997404, Longitude: 105.886841[0m
[0;32mI (132399) Transmit UART: Encoded and sent data over UART.[0m
=== Reading Node number 4 ===
[0;32mI (134829) PMS7003: PM1.0: 12 µg/m³[0m
[0;32mI (134829) PMS7003: PM2.5: 16 µg/m³[0m
[0;32mI (134829) PMS7003: PM10: 16 µg/m³[0m
[0;32mI (134829) DHT22: Hum 33.0[0m
[0;32mI (134829) DHT22: Tmp 33.1[0m
[0;32mI (134839) MQ131: MQ131 - O3 Concentration: 631654296015678004493549568000.00 ppb[0m
[0;32mI (134839) MQ136: MQ136 - SO2 Concentration: 22.99 ppm[0m

[0;32mI (134849) MICS6814: MICS6814 - CO Concentration: 1667.00 ppm[0m
[0;32mI (134859) MICS6814: MICS6814 - NO2 Concentration: 3.87 ppm[0m

[0;32mI (134859) GPS: Received: *7F
$GPGSV,3,3,12,27,04,292,,28,08,209,,29,07,183,,32,29,268,*7B
$GPGLL,2059.84369,N,10553.20923,E,101624.00,A,A*6F
$GPRMC,101625.00,A,2059.84384,N,10553.20951,E,0.652,,290624,,,A*7B
$GPVTG,,T,,M,0.652,N,1.208,K,A*29
$GPGGA,101625.00,2059.84384,N,10553.20951,E,1,04,2.96,4.6,M,-23.3,M,,*79
$GPGSA,A,3,15,18,23,24,,,,,,,,,5.25,2.96,4.34*04
$GPGSV,3,1,12,05,07,108,,10,23,320,23,12,13,128,20,15,19,049,30*79
$GPGSV,3,2,12,18,73,198,21,23,48,352,24,24,54,052,31,25,12,159,*71
$GPGSV,3,3,12,27,04,292,,28,08,209,,29,07,183,,32,29,268,*7B
$GPGLL,2059.84384,N,10553.20951,E,101625.00,A,A*68
[0m
[0;32mI (134919) GPS: UTC Time: 101607.00, Latitude: 20.997404, Longitude: 105.886841[0m
[0;31mE (137259) DHT: Sensor Timeout
[0m
[0;32mI (137399) Transmit UART: Encoded and sent data over UART.[0m
=== Reading Node number 4 ===
[0;32mI (139939) PMS7003: PM1.0: 12 µg/m³[0m
[0;32mI (139939) PMS7003: PM2.5: 17 µg/m³[0m
[0;32mI (139939) PMS7003: PM10: 17 µg/m³[0m
[0;32mI (139939) DHT22: Hum 33.0[0m
[0;32mI (139939) DHT22: Tmp 33.1[0m
[0;32mI (139949) MQ131: MQ131 - O3 Concentration: 631654296015678004493549568000.00 ppb[0m
[0;32mI (139949) MQ136: MQ136 - SO2 Concentration: 22.81 ppm[0m

[0;32mI (139959) MICS6814: MICS6814 - CO Concentration: 1.00 ppm[0m
[0;32mI (139969) MICS6814: MICS6814 - NO2 Concentration: 3.84 ppm[0m

[0;32mI (139969) GPS: Received: $GPRMC,101630.00,A,2059.84517,N,10553.20964,E,1.132,,290624,,,A*75
$GPVTG,,T,,M,1.132,N,2.097,K,A*2E
$GPGGA,101630.00,2059.84517,N,10553.20964,E,1,04,2.96,4.7,M,-23.3,M,,*76
$GPGSA,A,3,15,18,23,24,,,,,,,,,5.25,2.96,4.33*03
$GPGSV,3,1,12,05,07,108,,10,23,320,19,12,13,128,20,15,19,049,29*78
$GPGSV,3,2,12,18,73,198,20,23,48,352,21,24,54,052,26,25,12,159,*73
$GPGSV,3,3,12,27,04,292,,28,08,209,08,29,07,183,,32,29,269,*72
$GPGLL,2059.84517,N,10553.20964,E,101630.00,A,A*66
[0m
[0;32mI (140019) GPS: UTC Time: 101630.00, Latitude: 20.997419, Longitude: 105.886826[0m
[0;32mI (142399) Transmit UART: Encoded and sent data over UART.[0m
=== Reading Node number 4 ===
[0;32mI (145029) PMS7003: PM1.0: 13 µg/m³[0m
[0;32mI (145029) PMS7003: PM2.5: 17 µg/m³[0m
[0;32mI (145029) PMS7003: PM10: 18 µg/m³[0m
[0;32mI (145029) DHT22: Hum 33.0[0m
[0;32mI (145029) DHT22: Tmp 33.1[0m
[0;32mI (145039) MQ131: MQ131 - O3 Concentration: 631654296015678004493549568000.00 ppb[0m
[0;32mI (145039) MQ136: MQ136 - SO2 Concentration: 22.94 ppm[0m

[0;32mI (145049) MICS6814: MICS6814 - CO Concentration: 3113.00 ppm[0m
[0;32mI (145059) MICS6814: MICS6814 - NO2 Concentration: 3.51 ppm[0m

[0;32mI (145059) GPS: Received: $GPRMC,101635.00,A,2059.84487,N,10553.20956,E,0.325,,290624,,,A*7C
$GPVTG,,T,,M,0.325,N,0.602,K,A*23
$GPGGA,101635.00,2059.84487,N,10553.20956,E,1,04,2.96,4.4,M,-23.3,M,,*79
$GPGSA,A,3,15,18,23,24,,,,,,,,,5.24,2.96,4.33*02
$GPGSV,3,1,12,05,07,108,,10,23,320,21,12,13,128,22,15,19,049,30*79
$GPGSV,3,2,12,18,73,198,22,23,48,352,25,24,54,052,27,25,12,159,*74
$GPGSV,3,3,12,27,04,292,,28,08,209,08,29,07,183,,32,29,269,*72
$GPGLL,2059.84487,N,10553.20956,E,101635.00,A,A*6A
[0m
[0;32mI (145109) GPS: UTC Time: 101635.00, Latitude: 20.997414, Longitude: 105.886826[0m
[0;32mI (147399) Transmit UART: Encoded and sent data over UART.[0m
=== Reading Node number 4 ===
[0;32mI (150119) PMS7003: PM1.0: 13 µg/m³[0m
[0;32mI (150119) PMS7003: PM2.5: 17 µg/m³[0m
[0;32mI (150119) PMS7003: PM10: 18 µg/m³[0m
[0;32mI (150119) DHT22: Hum 33.0[0m
[0;32mI (150119) DHT22: Tmp 33.1[0m
[0;32mI (150129) MQ131: MQ131 - O3 Concentration: 631654296015678004493549568000.00 ppb[0m
[0;32mI (150129) MQ136: MQ136 - SO2 Concentration: 22.15 ppm[0m

[0;32mI (150139) MICS6814: MICS6814 - CO Concentration: 1.00 ppm[0m
[0;32mI (150149) MICS6814: MICS6814 - NO2 Concentration: 3.71 ppm[0m

[0;32mI (150149) GPS: Received: $GPRMC,101640.00,A,2059.84456,N,10553.20965,E,0.485,,290624,,,A*7F
$GPVTG,,T,,M,0.485,N,0.898,K,A*23
$GPGGA,101640.00,2059.84456,N,10553.20965,E,1,04,2.96,4.1,M,-23.3,M,,*72
$GPGSA,A,3,15,18,23,24,,,,,,,,,5.24,2.96,4.33*02
$GPGSV,3,1,12,05,07,108,,10,23,320,20,12,13,128,23,15,19,049,30*79
$GPGSV,3,2,12,18,73,198,21,23,48,352,25,24,54,052,25,25,12,159,*75
$GPGSV,3,3,12,27,04,292,,28,08,209,,29,07,183,,32,29,269,*7A
$GPGLL,2059.84456,N,10553.20965,E,101640.00,A,A*64
[0m
[0;32mI (150199) GPS: UTC Time: 101640.00, Latitude: 20.997410, Longitude: 105.886826[0m
[0;32mI (152399) Transmit UART: Encoded and sent data over UART.[0m
=== Reading Node number 4 ===
[0;32mI (155209) PMS7003: PM1.0: 14 µg/m³[0m
[0;32mI (155209) PMS7003: PM2.5: 17 µg/m³[0m
[0;32mI (155209) PMS7003: PM10: 18 µg/m³[0m
[0;32mI (155209) DHT22: Hum 33.0[0m
[0;32mI (155209) DHT22: Tmp 33.1[0m
[0;32mI (155219) MQ131: MQ131 - O3 Concentration: 631654296015678004493549568000.00 ppb[0m
[0;32mI (155219) MQ136: MQ136 - SO2 Concentration: 22.84 ppm[0m

[0;32mI (155229) MICS6814: MICS6814 - CO Concentration: 660.00 ppm[0m
[0;32mI (155239) MICS6814: MICS6814 - NO2 Concentration: 3.62 ppm[0m

[0;32mI (155239) GPS: Received: $GPRMC,101645.00,A,2059.84459,N,10553.21016,E,0.714,,290624,,,A*72
$GPVTG,,T,,M,0.714,N,1.323,K,A*22
$GPGGA,101645.00,2059.84459,N,10553.21016,E,1,04,2.96,4.0,M,-23.3,M,,*75
$GPGSA,A,3,15,18,23,24,,,,,,,,,5.24,2.96,4.33*02
$GPGSV,3,1,12,05,07,108,08,10,23,320,21,12,13,128,21,15,19,049,29*7A
$GPGSV,3,2,12,18,73,198,21,23,48,352,23,24,54,052,25,25,12,159,*73
$GPGSV,3,3,12,27,04,292,,28,08,209,,29,07,183,,32,29,269,*7A
$GPGLL,2059.84459,N,10553.21016,E,101645.00,A,A*62
[0m
[0;32mI (155289) GPS: UTC Time: 101645.00, Latitude: 20.997410, Longitude: 105.886833[0m
[0;32mI (157399) Transmit UART: Encoded and sent data over UART.[0m
=== Reading Node number 4 ===
[0;32mI (160299) PMS7003: PM1.0: 13 µg/m³[0m
[0;32mI (160299) PMS7003: PM2.5: 17 µg/m³[0m
[0;32mI (160299) PMS7003: PM10: 18 µg/m³[0m
[0;32mI (160299) DHT22: Hum 33.0[0m
[0;32mI (160299) DHT22: Tmp 33.1[0m
[0;32mI (160309) MQ131: MQ131 - O3 Concentration: 631654296015678004493549568000.00 ppb[0m
[0;32mI (160309) MQ136: MQ136 - SO2 Concentration: 23.36 ppm[0m

[0;32mI (160319) MICS6814: MICS6814 - CO Concentration: 1.00 ppm[0m
[0;32mI (160329) MICS6814: MICS6814 - NO2 Concentration: 3.42 ppm[0m

[0;32mI (160329) GPS: Received: $GPRMC,101650.00,A,2059.84211,N,10553.21007,E,0.595,,290624,,,A*77
$GPVTG,,T,,M,0.595,N,1.102,K,A*28
$GPGGA,101650.00,2059.84211,N,10553.21007,E,1,05,2.96,3.4,M,-23.3,M,,*79
$GPGSA,A,3,32,15,18,23,24,,,,,,,,5.24,2.96,4.32*02
$GPGSV,3,1,12,05,07,108,,10,23,320,19,12,13,128,19,15,19,049,27*7C
$GPGSV,3,2,12,18,73,198,19,23,48,352,22,24,54,052,23,25,12,159,*7F
$GPGSV,3,3,12,27,04,292,,28,08,209,,29,07,183,,32,29,269,17*7C
$GPGLL,2059.84211,N,10553.21007,E,101650.00,A,A*6C
[0m
[0;32mI (160379) GPS: UTC Time: 101650.00, Latitude: 20.997368, Longitude: 105.886833[0m
[0;32mI (162399) Transmit UART: Encoded and sent data over UART.[0m
=== Reading Node number 4 ===
[0;32mI (165389) PMS7003: PM1.0: 14 µg/m³[0m
[0;32mI (165389) PMS7003: PM2.5: 16 µg/m³[0m
[0;32mI (165389) PMS7003: PM10: 18 µg/m³[0m
[0;32mI (165389) DHT22: Hum 33.1[0m
[0;32mI (165389) DHT22: Tmp 33.1[0m
[0;32mI (165399) MQ131: MQ131 - O3 Concentration: 631654296015678004493549568000.00 ppb[0m
[0;32mI (165399) MQ136: MQ136 - SO2 Concentration: 22.97 ppm[0m

[0;32mI (165409) MICS6814: MICS6814 - CO Concentration: 1105.00 ppm[0m
[0;32mI (165419) MICS6814: MICS6814 - NO2 Concentration: 3.60 ppm[0m

[0;32mI (165419) GPS: Received: $GPRMC,101655.00,A,2059.84197,N,10553.21594,E,1.102,,290624,,,A*7B
$GPVTG,,T,,M,1.102,N,2.041,K,A*26
$GPGGA,101655.00,2059.84197,N,10553.21594,E,1,05,1.94,11.3,M,-23.3,M,,*4B
$GPGSA,A,3,32,15,18,23,24,,,,,,,,3.00,1.94,2.28*0E
$GPGSV,3,1,12,05,07,108,08,10,23,320,18,12,13,128,15,15,19,049,25*7B
$GPGSV,3,2,12,18,73,198,17,23,48,352,18,24,54,052,21,25,12,159,*7A
$GPGSV,3,3,12,27,04,292,,28,08,209,,29,07,183,,32,29,269,11*7A
$GPGLL,2059.84197,N,10553.21594,E,101655.00,A,A*6B
$GPRMC,101656.00,A,2059.84337,N,10553.21529,E,0.942,,290624,,,A*7B
$GPVTG,,T,,M,0.942,N,1.745,K,A*2B
$GPGGA,101656.00,[0m
[0;32mI (165479) GPS: UTC Time: 101655.00, Latitude: 20.997366, Longitude: 105.886932[0m
[0;32mI (167399) Transmit UART: Encoded and sent data over UART.[0m
=== Reading Node number 4 ===
[0;32mI (170489) PMS7003: PM1.0: 13 µg/m³[0m
[0;32mI (170489) PMS7003: PM2.5: 17 µg/m³[0m
[0;32mI (170489) PMS7003: PM10: 19 µg/m³[0m
[0;32mI (170489) DHT22: Hum 33.1[0m
[0;32mI (170489) DHT22: Tmp 33.1[0m
[0;32mI (170499) MQ131: MQ131 - O3 Concentration: 631654296015678004493549568000.00 ppb[0m
[0;32mI (170499) MQ136: MQ136 - SO2 Concentration: 22.89 ppm[0m

[0;32mI (170509) MICS6814: MICS6814 - CO Concentration: 1929.00 ppm[0m
[0;32mI (170519) MICS6814: MICS6814 - NO2 Concentration: 3.62 ppm[0m

[0;32mI (170519) GPS: Received: 2059.84261,N,10553.21435,E,1,06,2.96,14.2,M,-23.3,M,,*4C
$GPGSA,A,3,32,15,05,18,23,24,,,,,,,5.23,2.96,4.32*00
$GPGSV,3,1,12,05,07,108,10,10,23,320,15,12,13,128,15,15,19,049,24*7E
$GPGSV,3,2,12,18,73,198,16,23,48,352,18,24,54,052,21,25,12,159,*7B
$GPGSV,3,3,12,27,04,292,,28,08,209,,29,07,183,,32,29,269,11*7A
$GPGLL,2059.84261,N,10553.21435,E,101700.00,A,A*6A
$GPRMC,101701.00,A,2059.84258,N,10553.21414,E,0.619,,290624,,,A*7E
$GPVTG,,T,,M,0.619,N,1.147,K,A*2E
$GPGGA,101701.00,[0m
[0;32mI (170569) GPS: UTC Time: 101655.00, Latitude: 20.997366, Longitude: 105.886932[0m
[0;31mE (170939) DHT: CheckSum error
[0m
[0;32mI (172399) Transmit UART: Encoded and sent data over UART.[0m
=== Reading Node number 4 ===
[0;32mI (175579) PMS7003: PM1.0: 13 µg/m³[0m
[0;32mI (175579) PMS7003: PM2.5: 20 µg/m³[0m
[0;32mI (175579) PMS7003: PM10: 22 µg/m³[0m
[0;32mI (175579) DHT22: Hum 33.1[0m
[0;32mI (175579) DHT22: Tmp 33.1[0m
[0;32mI (175589) MQ131: MQ131 - O3 Concentration: 631654296015678004493549568000.00 ppb[0m
[0;32mI (175589) MQ136: MQ136 - SO2 Concentration: 23.02 ppm[0m

[0;32mI (175599) MICS6814: MICS6814 - CO Concentration: 1.00 ppm[0m
[0;32mI (175609) MICS6814: MICS6814 - NO2 Concentration: 4.00 ppm[0m

[0;32mI (175609) GPS: Received: 2,05,07,108,,10,23,320,15,12,13,128,14,15,19,049,22*78
$GPGSV,3,2,12,18,73,198,14,23,48,352,18,24,54,052,20,25,12,159,*78
$GPGSV,3,3,12,27,04,292,,28,08,209,,29,07,183,,32,29,269,*7A
$GPGLL,2059.84471,N,10553.21301,E,101705.00,A,A*68
$GPRMC,101706.00,A,2059.84508,N,10553.21227,E,1.214,,290624,,,A*75
$GPVTG,,T,,M,1.214,N,2.248,K,A*29
$GPGGA,101706.00,2059.84508,N,10553.21227,E,1,04,2.96,14.1,M,-23.3,M,,*46
$GPGSA,A,3,15,18,23,24,,,,,,,,,5.23,2.96,4.32*04
$GPGSV,3,1,1[0m
[0;32mI (175659) GPS: UTC Time: 101655.00, Latitude: 20.997366, Longitude: 105.886932[0m
[0;32mI (177399) Transmit UART: Encoded and sent data over UART.[0m
=== Reading Node number 4 ===
[0;32mI (180679) PMS7003: PM1.0: 11 µg/m³[0m
[0;32mI (180679) PMS7003: PM2.5: 19 µg/m³[0m
[0;32mI (180689) PMS7003: PM10: 20 µg/m³[0m
[0;32mI (180689) DHT22: Hum 33.1[0m
[0;32mI (180689) DHT22: Tmp 33.1[0m
[0;32mI (180689) MQ131: MQ131 - O3 Concentration: 631654296015678004493549568000.00 ppb[0m
[0;32mI (180699) MQ136: MQ136 - SO2 Concentration: 23.02 ppm[0m

[0;32mI (180699) MICS6814: MICS6814 - CO Concentration: 1.00 ppm[0m
[0;32mI (180709) MICS6814: MICS6814 - NO2 Concentration: 4.20 ppm[0m

[0;32mI (180719) GPS: Received: 76
$GPGSV,3,3,12,27,04,292,,28,08,209,,29,07,183,,32,29,269,*7A
$GPGLL,2059.84607,N,10553.21224,E,101710.00,A,A*69
$GPRMC,101711.00,A,2059.84637,N,10553.21153,E,1.128,,290624,,,A*70
$GPVTG,,T,,M,1.128,N,2.088,K,A*2B
$GPGGA,101711.00,2059.84637,N,10553.21153,E,1,04,2.96,13.7,M,-23.3,M,,*4E
$GPGSA,A,3,15,18,23,24,,,,,,,,,5.23,2.96,4.31*07
$GPGSV,3,1,12,05,07,108,,10,23,320,14,12,13,128,14,15,19,049,23*78
$GPGSV,3,2,12,18,73,198,15,23,48,352,17,24,54,052,19,25,12,159,*[0m
[0;32mI (180759) GPS: UTC Time: 101655.00, Latitude: 20.997366, Longitude: 105.886932[0m
[0;32mI (182399) Transmit UART: Encoded and sent data over UART.[0m
=== Reading Node number 4 ===
[0;32mI (185769) PMS7003: PM1.0: 12 µg/m³[0m
[0;32mI (185769) PMS7003: PM2.5: 18 µg/m³[0m
[0;32mI (185769) PMS7003: PM10: 18 µg/m³[0m
[0;32mI (185769) DHT22: Hum 33.1[0m
[0;32mI (185769) DHT22: Tmp 33.1[0m
[0;32mI (185779) MQ131: MQ131 - O3 Concentration: 631654296015678004493549568000.00 ppb[0m
[0;32mI (185779) MQ136: MQ136 - SO2 Concentration: 23.20 ppm[0m

[0;32mI (185789) MICS6814: MICS6814 - CO Concentration: 1.00 ppm[0m
[0;32mI (185799) MICS6814: MICS6814 - NO2 Concentration: 3.71 ppm[0m

[0;32mI (185799) GPS: Received: $GPRMC,101716.00,A,2059.84509,N,10553.21160,E,0.271,,290624,,,A*77
$GPVTG,,T,,M,0.271,N,0.501,K,A*23
$GPGGA,101716.00,2059.84509,N,10553.21160,E,1,04,2.96,12.9,M,-23.3,M,,*48
$GPGSA,A,3,15,18,23,24,,,,,,,,,5.23,2.96,4.31*07
$GPGSV,3,1,12,05,07,108,,10,23,321,15,12,13,128,14,15,19,049,23*78
$GPGSV,3,2,12,18,73,198,16,23,48,352,17,24,54,052,19,25,12,159,*7F
$GPGSV,3,3,12,27,04,292,,28,08,209,,29,07,183,,32,29,269,*7A
$GPGLL,2059.84509,N,10553.21160,E,101716.00,A,A*61
[0m
[0;32mI (185849) GPS: UTC Time: 101716.00, Latitude: 20.997417, Longitude: 105.886864[0m
[0;32mI (187399) Transmit UART: Encoded and sent data over UART.[0m
=== Reading Node number 4 ===
[0;32mI (190859) PMS7003: PM1.0: 12 µg/m³[0m
[0;32mI (190859) PMS7003: PM2.5: 18 µg/m³[0m
[0;32mI (190859) PMS7003: PM10: 19 µg/m³[0m
[0;32mI (190859) DHT22: Hum 33.1[0m
[0;32mI (190859) DHT22: Tmp 33.1[0m
[0;32mI (190869) MQ131: MQ131 - O3 Concentration: 631654296015678004493549568000.00 ppb[0m
[0;32mI (190869) MQ136: MQ136 - SO2 Concentration: 23.15 ppm[0m

[0;32mI (190879) MICS6814: MICS6814 - CO Concentration: 2466.00 ppm[0m
[0;32mI (190889) MICS6814: MICS6814 - NO2 Concentration: 3.62 ppm[0m

[0;32mI (190889) GPS: Received: $GPRMC,101721.00,A,2059.84604,N,10553.20886,E,1.556,,290624,,,A*7E
$GPVTG,,T,,M,1.556,N,2.882,K,A*24
$GPGGA,101721.00,2059.84604,N,10553.20886,E,1,04,2.96,12.3,M,-23.3,M,,*48
$GPGSA,A,3,15,18,23,24,,,,,,,,,5.23,2.96,4.31*07
$GPGSV,3,1,12,05,07,108,06,10,23,321,14,12,13,128,16,15,19,049,23*7D
$GPGSV,3,2,12,18,73,198,18,23,48,352,15,24,54,052,19,25,12,159,*73
$GPGSV,3,3,12,27,04,292,,28,08,209,,29,07,183,,32,29,269,08*72
$GPGLL,2059.84604,N,10553.20886,E,101721.00,A,A*6B
[0m
[0;32mI (190939) GPS: UTC Time: 101721.00, Latitude: 20.997435, Longitude: 105.886818[0m
[0;32mI (192399) Transmit UART: Encoded and sent data over UART.[0m
=== Reading Node number 4 ===
[0;32mI (195949) PMS7003: PM1.0: 12 µg/m³[0m
[0;32mI (195949) PMS7003: PM2.5: 17 µg/m³[0m
[0;32mI (195949) PMS7003: PM10: 18 µg/m³[0m
[0;32mI (195949) DHT22: Hum 33.1[0m
[0;32mI (195949) DHT22: Tmp 33.1[0m
[0;32mI (195959) MQ131: MQ131 - O3 Concentration: 631654296015678004493549568000.00 ppb[0m
[0;32mI (195959) MQ136: MQ136 - SO2 Concentration: 22.86 ppm[0m

[0;32mI (195969) MICS6814: MICS6814 - CO Concentration: 250.00 ppm[0m
[0;32mI (195979) MICS6814: MICS6814 - NO2 Concentration: 3.60 ppm[0m

[0;32mI (195979) GPS: Received: $GPRMC,101726.00,A,2059.84591,N,10553.21298,E,0.666,,290624,,,A*73
$GPVTG,,T,,M,0.666,N,1.233,K,A*26
$GPGGA,101726.00,2059.84591,N,10553.21298,E,1,05,1.94,14.4,M,-23.3,M,,*45
$GPGSA,A,3,32,15,18,23,24,,,,,,,,2.99,1.94,2.28*0F
$GPGSV,3,1,12,05,07,108,08,10,23,321,14,12,13,128,,15,19,049,24*73
$GPGSV,3,2,12,18,72,197,18,23,48,352,15,24,54,052,18,25,12,159,*7C
$GPGSV,3,3,12,27,04,292,,28,08,209,,29,07,183,,32,29,269,11*7A
$GPGLL,2059.84591,N,10553.21298,E,101726.00,A,A*67
[0m
[0;32mI (196029) GPS: UTC Time: 101726.00, Latitude: 20.997433, Longitude: 105.886887[0m
[0;31mE (196469) DHT: Sensor Timeout
[0m
[0;32mI (197399) Transmit UART: Encoded and sent data over UART.[0m
=== Reading Node number 4 ===
[0;32mI (201039) PMS7003: PM1.0: 13 µg/m³[0m
[0;32mI (201039) PMS7003: PM2.5: 17 µg/m³[0m
[0;32mI (201039) PMS7003: PM10: 20 µg/m³[0m
[0;32mI (201039) DHT22: Hum 33.1[0m
[0;32mI (201039) DHT22: Tmp 33.1[0m
[0;32mI (201049) MQ131: MQ131 - O3 Concentration: 631654296015678004493549568000.00 ppb[0m
[0;32mI (201049) MQ136: MQ136 - SO2 Concentration: 23.07 ppm[0m

[0;32mI (201059) MICS6814: MICS6814 - CO Concentration: 294.00 ppm[0m
[0;32mI (201069) MICS6814: MICS6814 - NO2 Concentration: 3.49 ppm[0m

[0;32mI (201069) GPS: Received: $GPRMC,101731.00,A,2059.84190,N,10553.21544,E,1.593,,290624,,,A*7E
$GPVTG,,T,,M,1.593,N,2.950,K,A*23
$GPGGA,101731.00,2059.84190,N,10553.21544,E,1,05,2.96,13.7,M,-23.3,M,,*45
$GPGSA,A,3,15,05,18,23,24,,,,,,,,5.22,2.96,4.31*03
$GPGSV,3,1,12,05,07,108,10,10,23,321,14,12,13,128,,15,19,049,23*7D
$GPGSV,3,2,12,18,72,197,20,23,48,353,17,24,53,051,18,25,13,158,*70
$GPGSV,3,3,12,27,04,292,,28,08,209,,29,07,183,,32,29,269,09*73
$GPGLL,2059.84190,N,10553.21544,E,101731.00,A,A*62
[0m
[0;32mI (201119) GPS: UTC Time: 101731.00, Latitude: 20.997366, Longitude: 105.886925[0m
[0;32mI (202399) Transmit UART: Encoded and sent data over UART.[0m
=== Reading Node number 4 ===
[0;32mI (206129) PMS7003: PM1.0: 12 µg/m³[0m
[0;32mI (206129) PMS7003: PM2.5: 16 µg/m³[0m
[0;32mI (206129) PMS7003: PM10: 18 µg/m³[0m
[0;32mI (206129) DHT22: Hum 33.0[0m
[0;32mI (206129) DHT22: Tmp 33.1[0m
[0;32mI (206139) MQ131: MQ131 - O3 Concentration: 631654296015678004493549568000.00 ppb[0m
[0;32mI (206139) MQ136: MQ136 - SO2 Concentration: 22.89 ppm[0m

[0;32mI (206149) MICS6814: MICS6814 - CO Concentration: 1.00 ppm[0m
[0;32mI (206159) MICS6814: MICS6814 - NO2 Concentration: 3.51 ppm[0m

[0;32mI (206159) GPS: Received: $GPRMC,101736.00,A,2059.84235,N,10553.21580,E,0.468,,290624,,,A*79
$GPVTG,,T,,M,0.468,N,0.867,K,A*20
$GPGGA,101736.00,2059.84235,N,10553.21580,E,1,05,1.93,14.4,M,-23.3,M,,*44
$GPGSA,A,3,32,15,18,23,24,,,,,,,,2.99,1.93,2.28*08
$GPGSV,3,1,12,05,07,108,,10,23,321,15,12,13,128,,15,19,049,24*7A
$GPGSV,3,2,12,18,72,197,18,23,48,353,16,24,53,051,17,25,13,158,*75
$GPGSV,3,3,12,27,04,291,,28,09,209,,29,06,183,,32,29,269,08*71
$GPGLL,2059.84235,N,10553.21580,E,101736.00,A,A*61
[0m
[0;32mI (206209) GPS: UTC Time: 101736.00, Latitude: 20.997372, Longitude: 105.886932[0m
[0;32mI (207399) Transmit UART: Encoded and sent data over UART.[0m
[0;31mE (208709) DHT: Sensor Timeout
[0m
=== Reading Node number 4 ===
[0;32mI (211219) PMS7003: PM1.0: 14 µg/m³[0m
[0;32mI (211219) PMS7003: PM2.5: 18 µg/m³[0m
[0;32mI (211219) PMS7003: PM10: 20 µg/m³[0m
[0;32mI (211219) DHT22: Hum 33.0[0m
[0;32mI (211219) DHT22: Tmp 33.1[0m
[0;32mI (211229) MQ131: MQ131 - O3 Concentration: 631654296015678004493549568000.00 ppb[0m
[0;32mI (211229) MQ136: MQ136 - SO2 Concentration: 22.68 ppm[0m

[0;32mI (211239) MICS6814: MICS6814 - CO Concentration: 2128.00 ppm[0m
[0;32mI (211249) MICS6814: MICS6814 - NO2 Concentration: 3.50 ppm[0m

[0;32mI (211249) GPS: Received: $GPRMC,101741.00,A,2059.84059,N,10553.21888,E,1.530,,290624,,,A*79
$GPVTG,,T,,M,1.530,N,2.834,K,A*29
$GPGGA,101741.00,2059.84059,N,10553.21888,E,1,05,1.93,15.3,M,-23.3,M,,*4F
$GPGSA,A,3,32,15,18,23,24,,,,,,,,2.99,1.93,2.28*08
$GPGSV,3,1,12,05,07,108,,10,23,321,14,12,13,128,,15,19,049,23*7C
$GPGSV,3,2,12,18,72,197,16,23,48,353,16,24,53,051,18,25,13,158,*74
$GPGSV,3,3,12,27,04,291,,28,09,209,,29,06,183,,32,29,270,11*71
$GPGLL,2059.84059,N,10553.21888,E,101741.00,A,A*6C
[0m
[0;32mI (211299) GPS: UTC Time: 101741.00, Latitude: 20.997343, Longitude: 105.886978[0m
[0;32mI (212399) Transmit UART: Encoded and sent data over UART.[0m
=== Reading Node number 4 ===
[0;32mI (216309) PMS7003: PM1.0: 14 µg/m³[0m
[0;32mI (216309) PMS7003: PM2.5: 17 µg/m³[0m
[0;32mI (216309) PMS7003: PM10: 19 µg/m³[0m
[0;32mI (216309) DHT22: Hum 33.0[0m
[0;32mI (216309) DHT22: Tmp 33.1[0m
[0;32mI (216319) MQ131: MQ131 - O3 Concentration: 631654296015678004493549568000.00 ppb[0m
[0;32mI (216319) MQ136: MQ136 - SO2 Concentration: 23.31 ppm[0m

[0;32mI (216329) MICS6814: MICS6814 - CO Concentration: 3941.00 ppm[0m
[0;32mI (216339) MICS6814: MICS6814 - NO2 Concentration: 3.62 ppm[0m

[0;32mI (216339) GPS: Received: 2059.84036,N,10553.21889,E,1,05,1.93,17.9,M,-23.3,M,,*48
$GPGSA,A,3,32,15,18,23,24,,,,,,,,2.99,1.93,2.28*08
$GPGSV,3,1,12,05,07,108,,10,23,321,14,12,13,128,,15,19,049,22*7D
$GPGSV,3,2,12,18,72,197,16,23,48,353,15,24,53,051,19,25,13,158,*76
$GPGSV,3,3,12,27,04,291,,28,09,209,,29,06,183,,32,29,270,08*79
$GPGLL,2059.84036,N,10553.21889,E,101746.00,A,A*63
$GPRMC,101747.00,A,2059.84027,N,10553.21865,E,0.731,,290624,,,A*77
$GPVTG,,T,,M,0.731,N,1.354,K,A*25
$GPGGA,101747.00,[0m
