ets Jul 29 2019 12:21:46

rst:0x1 (POWERON_RESET),boot:0x13 (SPI_FAST_FLASH_BOOT)
configsip: 0, SPIWP:0xee
clk_drv:0x00,q_drv:0x00,d_drv:0x00,cs0_drv:0x00,hd_drv:0x00,wp_drv:0x00
mode:DIO, clock div:2
load:0x3fff0030,len:7172
load:0x40078000,len:15540
load:0x40080400,len:4
ho 8 tail 4 room 4
load:0x40080404,len:3904
entry 0x40080640
[0;32mI (31) boot: ESP-IDF v5.2.1-dirty 2nd stage bootloader[0m
[0;32mI (31) boot: compile time Jun 28 2024 03:55:22[0m
[0;32mI (31) boot: Multicore bootloader[0m
[0;32mI (36) boot: chip revision: v3.1[0m
[0;32mI (40) boot.esp32: SPI Speed      : 40MHz[0m
[0;32mI (44) boot.esp32: SPI Mode       : DIO[0m
[0;32mI (49) boot.esp32: SPI Flash Size : 2MB[0m
[0;32mI (53) boot: Enabling RNG early entropy source...[0m
[0;32mI (59) boot: Partition Table:[0m
[0;32mI (62) boot: ## Label            Usage          Type ST Offset   Length[0m
[0;32mI (70) boot:  0 nvs              WiFi data        01 02 00009000 00006000[0m
[0;32mI (77) boot:  1 phy_init         RF data          01 01 0000f000 00001000[0m
[0;32mI (85) boot:  2 factory          factory app      00 00 00010000 00100000[0m
[0;32mI (92) boot: End of partition table[0m
[0;32mI (96) esp_image: segment 0: paddr=00010020 vaddr=3f400020 size=0d7e8h ( 55272) map[0m
[0;32mI (124) esp_image: segment 1: paddr=0001d810 vaddr=3ffb0000 size=02694h (  9876) load[0m
[0;32mI (128) esp_image: segment 2: paddr=0001feac vaddr=40080000 size=0016ch (   364) load[0m
[0;32mI (130) esp_image: segment 3: paddr=00020020 vaddr=400d0020 size=21afch (137980) map[0m
[0;32mI (185) esp_image: segment 4: paddr=00041b24 vaddr=4008016c size=0e930h ( 59696) load[0m
[0;32mI (216) boot: Loaded app from partition at offset 0x10000[0m
[0;32mI (216) boot: Disabling RNG early entropy source...[0m
[0;32mI (228) cpu_start: Multicore app[0m
[0;32mI (237) cpu_start: Pro cpu start user code[0m
[0;32mI (237) cpu_start: cpu freq: 160000000 Hz[0m
[0;32mI (237) cpu_start: Application information:[0m
[0;32mI (240) cpu_start: Project name:     NODE[0m
[0;32mI (244) cpu_start: App version:      1[0m
[0;32mI (249) cpu_start: Compile time:     Jun 28 2024 03:55:09[0m
[0;32mI (255) cpu_start: ELF file SHA256:  3a1b0ead6...[0m
[0;32mI (260) cpu_start: ESP-IDF:          v5.2.1-dirty[0m
[0;32mI (266) cpu_start: Min chip rev:     v0.0[0m
[0;32mI (270) cpu_start: Max chip rev:     v3.99 [0m
[0;32mI (275) cpu_start: Chip rev:         v3.1[0m
[0;32mI (280) heap_init: Initializing. RAM available for dynamic allocation:[0m
[0;32mI (287) heap_init: At 3FFAE6E0 len 00001920 (6 KiB): DRAM[0m
[0;32mI (293) heap_init: At 3FFB3590 len 0002CA70 (178 KiB): DRAM[0m
[0;32mI (299) heap_init: At 3FFE0440 len 00003AE0 (14 KiB): D/IRAM[0m
[0;32mI (306) heap_init: At 3FFE4350 len 0001BCB0 (111 KiB): D/IRAM[0m
[0;32mI (312) heap_init: At 4008EA9C len 00011564 (69 KiB): IRAM[0m
[0;32mI (320) spi_flash: detected chip: generic[0m
[0;32mI (323) spi_flash: flash io: dio[0m
[0;33mW (327) spi_flash: Detected size(4096k) larger than the size in the binary image header(2048k). Using the size in the binary image header.[0m
[0;33mW (340) ADC: legacy driver is deprecated, please migrate to `esp_adc/adc_oneshot.h`[0m
[0;32mI (349) main_task: Started on CPU0[0m
[0;32mI (359) main_task: Calling app_main()[0m
[0;32mI (359) gpio: GPIO[18]| InputEn: 1| OutputEn: 0| OpenDrain: 0| Pullup: 1| Pulldown: 0| Intr:0 [0m
[0;32mI (359) gpio: GPIO[19]| InputEn: 0| OutputEn: 1| OpenDrain: 0| Pullup: 1| Pulldown: 0| Intr:0 [0m
Sending message: Hiiiii!
[0;32mI (389) gpio: GPIO[4]| InputEn: 0| OutputEn: 0| OpenDrain: 0| Pullup: 1| Pulldown: 0| Intr:0 [0m
[0;32mI (389) gpio: GPIO[5]| InputEn: 0| OutputEn: 0| OpenDrain: 0| Pullup: 1| Pulldown: 0| Intr:0 [0m
[0;32mI (399) Transmit UART: Encoded and sent data over UART.[0m
=== Reading Node number 2 ===
[0;32mI (409) PMS7003: PM1.0: 15 µg/m³[0m
[0;32mI (409) PMS7003: PM2.5: 25 µg/m³[0m
[0;32mI (409) PMS7003: PM10: 40 µg/m³[0m
[0;32mI (419) DHT22: Hum 35.4[0m
[0;32mI (419) DHT22: Tmp 31.6[0m
[0;32mI (419) MQ131: MQ131 - O3 Concentration: 1.83 ppb[0m
[0;32mI (429) MQ136: MQ136 - SO2 Concentration: 24.40 ppm[0m

[0;32mI (429) MICS6814: MICS6814 - CO Concentration: 196.00 ppm[0m
[0;32mI (439) MICS6814: MICS6814 - NO2 Concentration: 0.66 ppm[0m

[0;32mI (449) GPS: Received: [0m
[0;32mI (449) GPS: UTC Time: , Latitude: 95.250046, Longitude: 20.099951[0m
[0;32mI (459) SSD1306: INTERFACE is i2c[0m
[0;32mI (459) SSD1306: CONFIG_SDA_GPIO=21[0m
[0;32mI (469) SSD1306: CONFIG_SCL_GPIO=22[0m
[0;32mI (469) SSD1306: CONFIG_RESET_GPIO=33[0m
[0;32mI (469) SSD1306: New i2c driver is used[0m
[0;32mI (479) gpio: GPIO[21]| InputEn: 1| OutputEn: 1| OpenDrain: 1| Pullup: 1| Pulldown: 0| Intr:0 [0m
[0;32mI (489) gpio: GPIO[22]| InputEn: 1| OutputEn: 1| OpenDrain: 1| Pullup: 1| Pulldown: 0| Intr:0 [0m
[0;32mI (499) gpio: GPIO[33]| InputEn: 0| OutputEn: 0| OpenDrain: 0| Pullup: 1| Pulldown: 0| Intr:0 [0m
[0;32mI (509) main_task: Returned from app_main()[0m
[0;32mI (559) SSD1306: Panel is 128x64[0m
[0;32mI (559) SSD1306: OLED configured successfully[0m
[0;32mI (5399) Transmit UART: Encoded and sent data over UART.[0m
=== Reading Node number 2 ===
[0;32mI (5459) PMS7003: PM1.0: 18 µg/m³[0m
[0;32mI (5459) PMS7003: PM2.5: 24 µg/m³[0m
[0;32mI (5459) PMS7003: PM10: 25 µg/m³[0m
[0;32mI (5459) DHT22: Hum 35.4[0m
[0;32mI (5459) DHT22: Tmp 31.6[0m
[0;32mI (5469) MQ131: MQ131 - O3 Concentration: 631654296015678004493549568000.00 ppb[0m
[0;32mI (5469) MQ136: MQ136 - SO2 Concentration: 24.84 ppm[0m

[0;32mI (5479) MICS6814: MICS6814 - CO Concentration: 1.00 ppm[0m
[0;32mI (5489) MICS6814: MICS6814 - NO2 Concentration: 0.82 ppm[0m

[0;32mI (5489) GPS: Received: $GPRMC,090410.00,A,2059.84290,N,10553.21202,E,0.764,,280624,,,A*7B
$GPVTG,,T,,M,0.764,N,1.415,K,A*27
$GPGGA,090410.00,2059.84290,N,10553.21202,E,1,06,1.12,30.2,M,-23.3,M,,*42
$GPGSA,A,3,05,23,29,13,24,15,,,,,,,2.50,1.12,2.23*0B
$GPGSV,3,1,12,05,21,075,29,10,06,294,,12,01,157,,13,16,037,23*7E
$GPGSV,3,2,12,15,44,023,28,18,63,332,16,20,06,096,,23,29,317,21*7A
$GPGSV,3,3,12,24,59,127,14,25,00,185,07,29,32,206,14,32,11,237,*71
$GPGLL,2059.84264,N,10553.21192,E,090411.00,A,A*6D
[0m
[0;32mI (5539) GPS: UTC Time: 090411.00, Latitude: 20.997377, Longitude: 105.886864[0m
[0;32mI (10399) Transmit UART: Encoded and sent data over UART.[0m
=== Reading Node number 2 ===
[0;32mI (10549) PMS7003: PM1.0: 17 µg/m³[0m
[0;32mI (10549) PMS7003: PM2.5: 23 µg/m³[0m
[0;32mI (10549) PMS7003: PM10: 23 µg/m³[0m
[0;32mI (10549) DHT22: Hum 35.4[0m
[0;32mI (10549) DHT22: Tmp 31.6[0m
[0;32mI (10559) MQ131: MQ131 - O3 Concentration: 631654296015678004493549568000.00 ppb[0m
[0;32mI (10559) MQ136: MQ136 - SO2 Concentration: 24.56 ppm[0m

[0;32mI (10569) MICS6814: MICS6814 - CO Concentration: 1251.00 ppm[0m
[0;32mI (10579) MICS6814: MICS6814 - NO2 Concentration: 0.71 ppm[0m

[0;32mI (10579) GPS: Received: $GPRMC,090415.00,A,2059.84488,N,10553.21311,E,0.515,,280624,,,A*76
$GPVTG,,T,,M,0.515,N,0.954,K,A*2A
$GPGGA,090415.00,2059.84488,N,10553.21311,E,1,06,1.12,30.3,M,-23.3,M,,*4A
$GPGSA,A,3,05,23,29,13,24,15,,,,,,,2.50,1.12,2.23*0B
$GPGSV,3,1,12,05,21,076,29,10,06,294,,12,01,157,,13,16,037,26*78
$GPGSV,3,2,12,15,44,023,28,18,63,332,15,20,06,096,,23,29,317,20*78
$GPGSV,3,3,12,24,59,127,17,25,00,185,06,29,32,206,16,32,11,237,*71
$GPGLL,2059.84545,N,10553.21333,E,090416.00,A,A*67
[0m
[0;32mI (10629) GPS: UTC Time: 090416.00, Latitude: 20.997425, Longitude: 105.886887[0m
[0;31mE (11629) DHT: CheckSum error
[0m
[0;32mI (15399) Transmit UART: Encoded and sent data over UART.[0m
=== Reading Node number 2 ===
[0;32mI (15639) PMS7003: PM1.0: 17 µg/m³[0m
[0;32mI (15639) PMS7003: PM2.5: 21 µg/m³[0m
[0;32mI (15639) PMS7003: PM10: 23 µg/m³[0m
[0;32mI (15639) DHT22: Hum 35.4[0m
[0;32mI (15639) DHT22: Tmp 31.6[0m
[0;32mI (15649) MQ131: MQ131 - O3 Concentration: 631654296015678004493549568000.00 ppb[0m
[0;32mI (15649) MQ136: MQ136 - SO2 Concentration: 24.64 ppm[0m

[0;32mI (15659) MICS6814: MICS6814 - CO Concentration: 1061.00 ppm[0m
[0;32mI (15669) MICS6814: MICS6814 - NO2 Concentration: 0.82 ppm[0m

[0;32mI (15669) GPS: Received: 2059.84698,N,10553.21403,E,1,06,1.12,30.8,M,-23.3,M,,*40
$GPGSA,A,3,05,23,29,13,24,15,,,,,,,2.50,1.12,2.23*0B
$GPGSV,3,1,12,05,21,076,28,10,06,294,,12,01,157,,13,15,037,25*79
$GPGSV,3,2,12,15,44,023,27,18,63,332,13,20,06,096,,23,29,317,19*7B
$GPGSV,3,3,12,24,59,127,15,25,00,185,,29,32,206,16,32,11,237,*75
$GPGLL,2059.84698,N,10553.21403,E,090420.00,A,A*65
$GPRMC,090422.00,A,2059.84802,N,10553.21414,E,1.612,,280624,,,A*7B
$GPVTG,,T,,M,1.612,N,2.985,K,A*21
$GPGGA,090422.00,[0m
[0;32mI (15719) GPS: UTC Time: 090417.00, Latitude: 20.997435, Longitude: 105.886894[0m
[0;32mI (20399) Transmit UART: Encoded and sent data over UART.[0m
=== Reading Node number 2 ===
[0;32mI (20729) PMS7003: PM1.0: 17 µg/m³[0m
[0;32mI (20729) PMS7003: PM2.5: 20 µg/m³[0m
[0;32mI (20729) PMS7003: PM10: 21 µg/m³[0m
[0;32mI (20729) DHT22: Hum 35.4[0m
[0;32mI (20729) DHT22: Tmp 31.6[0m
[0;32mI (20739) MQ131: MQ131 - O3 Concentration: 631654296015678004493549568000.00 ppb[0m
[0;32mI (20739) MQ136: MQ136 - SO2 Concentration: 24.37 ppm[0m

[0;32mI (20749) MICS6814: MICS6814 - CO Concentration: 2853.00 ppm[0m
[0;32mI (20759) MICS6814: MICS6814 - NO2 Concentration: 0.51 ppm[0m

[0;32mI (20759) GPS: Received: ,1,12,05,21,076,27,10,06,294,,12,01,157,,13,15,037,25*76
$GPGSV,3,2,12,15,44,024,27,18,64,332,12,20,06,096,,23,29,317,17*74
$GPGSV,3,3,12,24,59,127,15,25,00,185,,29,32,206,15,32,11,237,*76
$GPGLL,2059.84778,N,10553.21433,E,090425.00,A,A*6C
$GPRMC,090426.00,A,2059.84829,N,10553.21468,E,0.918,,280624,,,A*79
$GPVTG,,T,,M,0.918,N,1.701,K,A*24
$GPGGA,090426.00,2059.84829,N,10553.21468,E,1,06,1.12,32.4,M,-23.3,M,,*41
$GPGSA,A,3,05,23,29,13,24,15,,,,,,,2.49,1.12,2.23*03
$GPGSV,3[0m
[0;32mI (20809) GPS: UTC Time: 090417.00, Latitude: 20.997435, Longitude: 105.886894[0m
[0;32mI (25399) Transmit UART: Encoded and sent data over UART.[0m
=== Reading Node number 2 ===
[0;32mI (25819) PMS7003: PM1.0: 17 µg/m³[0m
[0;32mI (25819) PMS7003: PM2.5: 20 µg/m³[0m
[0;32mI (25819) PMS7003: PM10: 22 µg/m³[0m
[0;32mI (25819) DHT22: Hum 35.4[0m
[0;32mI (25819) DHT22: Tmp 31.6[0m
[0;32mI (25829) MQ131: MQ131 - O3 Concentration: 631654296015678004493549568000.00 ppb[0m
[0;32mI (25829) MQ136: MQ136 - SO2 Concentration: 24.48 ppm[0m

[0;32mI (25839) MICS6814: MICS6814 - CO Concentration: 1.00 ppm[0m
[0;32mI (25849) MICS6814: MICS6814 - NO2 Concentration: 0.70 ppm[0m

[0;32mI (25849) GPS: Received: 5*72
$GPGSV,3,3,12,24,59,127,13,25,00,185,,29,32,206,13,32,11,237,*76
$GPGLL,2059.84771,N,10553.21482,E,090430.00,A,A*6B
$GPRMC,090431.00,A,2059.84802,N,10553.21489,E,0.297,,280624,,,A*75
$GPVTG,,T,,M,0.297,N,0.549,K,A*27
$GPGGA,090431.00,2059.84802,N,10553.21489,E,1,06,1.12,32.6,M,-23.3,M,,*43
$GPGSA,A,3,05,23,29,13,24,15,,,,,,,2.49,1.12,2.22*02
$GPGSV,3,1,12,05,21,076,26,10,06,294,,12,01,157,,13,15,037,24*76
$GPGSV,3,2,12,15,44,024,26,18,64,332,,20,06,097,,23,29,318,14*[0m
[0;32mI (25899) GPS: UTC Time: 090417.00, Latitude: 20.997435, Longitude: 105.886894[0m
[0;32mI (30399) Transmit UART: Encoded and sent data over UART.[0m
=== Reading Node number 2 ===
[0;32mI (30909) PMS7003: PM1.0: 16 µg/m³[0m
[0;32mI (30909) PMS7003: PM2.5: 21 µg/m³[0m
[0;32mI (30909) PMS7003: PM10: 22 µg/m³[0m
[0;32mI (30909) DHT22: Hum 35.4[0m
[0;32mI (30909) DHT22: Tmp 31.6[0m
[0;32mI (30919) MQ131: MQ131 - O3 Concentration: 631654296015678004493549568000.00 ppb[0m
[0;32mI (30919) MQ136: MQ136 - SO2 Concentration: 24.45 ppm[0m

[0;32mI (30929) MICS6814: MICS6814 - CO Concentration: 2468.00 ppm[0m
[0;32mI (30939) MICS6814: MICS6814 - NO2 Concentration: 0.53 ppm[0m

[0;32mI (30939) GPS: Received: 7E
$GPGSV,3,3,12,24,60,126,14,25,01,184,,29,32,206,10,32,11,237,*79
$GPGLL,2059.84730,N,10553.21450,E,090435.00,A,A*64
$GPRMC,090436.00,A,2059.84710,N,10553.21429,E,0.616,,280624,,,A*79
$GPVTG,,T,,M,0.616,N,1.141,K,A*27
$GPGGA,090436.00,2059.84710,N,10553.21429,E,1,06,1.12,32.9,M,-23.3,M,,*4D
$GPGSA,A,3,05,23,29,13,24,15,,,,,,,2.49,1.12,2.22*02
$GPGSV,3,1,12,05,21,076,25,10,06,294,,12,01,157,,13,15,037,24*75
$GPGSV,3,2,12,15,44,024,25,18,64,332,,20,06,097,,23,29,318,12*7E
$GPGSV,3,3,12,24,60,126,13,25,01,184,,29,31,206,09,32,11,237,*75
$GPGLL,2059.84710,N,10553.21429,E,090436.00,A,A*6B[0m
[0;32mI (30999) GPS: UTC Time: 090417.00, Latitude: 20.997435, Longitude: 105.886894[0m
[0;32mI (35399) Transmit UART: Encoded and sent data over UART.[0m
=== Reading Node number 2 ===
[0;32mI (36009) PMS7003: PM1.0: 17 µg/m³[0m
[0;32mI (36009) PMS7003: PM2.5: 21 µg/m³[0m
[0;32mI (36009) PMS7003: PM10: 21 µg/m³[0m
[0;32mI (36009) DHT22: Hum 35.4[0m
[0;32mI (36009) DHT22: Tmp 31.6[0m
[0;32mI (36019) MQ131: MQ131 - O3 Concentration: 631654296015678004493549568000.00 ppb[0m
[0;32mI (36019) MQ136: MQ136 - SO2 Concentration: 24.37 ppm[0m

[0;32mI (36029) MICS6814: MICS6814 - CO Concentration: 1607.00 ppm[0m
[0;32mI (36039) MICS6814: MICS6814 - NO2 Concentration: 0.67 ppm[0m

[0;32mI (36039) GPS: Received: $GPRMC,090441.00,A,2059.84693,N,10553.21466,E,0.314,,280624,,,A*7F
$GPVTG,,T,,M,0.314,N,0.582,K,A*2A
$GPGGA,090441.00,2059.84693,N,10553.21466,E,1,06,1.74,32.1,M,-23.3,M,,*44
$GPGSA,A,3,05,23,29,13,24,15,,,,,,,2.82,1.74,2.22*05
$GPGSV,3,1,12,05,21,076,26,10,06,294,,12,01,157,,13,15,037,22*70
$GPGSV,3,2,12,15,44,024,27,18,64,332,,20,06,097,,23,29,318,14*7A
$GPGSV,3,3,12,24,60,126,15,25,01,184,,29,31,206,12,32,11,237,*79
$GPGLL,2059.84693,N,10553.21466,E,090441.00,A,A*6A
[0m
[0;32mI (36089) GPS: UTC Time: 090441.00, Latitude: 20.997448, Longitude: 105.886909[0m
[0;32mI (40399) Transmit UART: Encoded and sent data over UART.[0m
=== Reading Node number 2 ===
[0;32mI (41099) PMS7003: PM1.0: 17 µg/m³[0m
[0;32mI (41099) PMS7003: PM2.5: 21 µg/m³[0m
[0;32mI (41099) PMS7003: PM10: 21 µg/m³[0m
[0;32mI (41099) DHT22: Hum 35.4[0m
[0;32mI (41099) DHT22: Tmp 31.6[0m
[0;32mI (41109) MQ131: MQ131 - O3 Concentration: 631654296015678004493549568000.00 ppb[0m
[0;32mI (41109) MQ136: MQ136 - SO2 Concentration: 23.97 ppm[0m

[0;32mI (41119) MICS6814: MICS6814 - CO Concentration: 1.00 ppm[0m
[0;32mI (41129) MICS6814: MICS6814 - NO2 Concentration: 0.76 ppm[0m

[0;32mI (41129) GPS: Received: $GPRMC,090446.00,A,2059.85140,N,10553.21835,E,4.567,46.80,280624,,,A*58
$GPVTG,46.80,T,,M,4.567,N,8.459,K,A*07
$GPGGA,090446.00,2059.85140,N,10553.21835,E,1,06,1.12,31.8,M,-23.3,M,,*4B
$GPGSA,A,3,05,23,29,13,24,15,,,,,,,2.49,1.12,2.22*02
$GPGSV,3,1,12,05,21,076,25,10,06,294,,12,01,157,,13,15,037,21*70
$GPGSV,3,2,12,15,44,024,24,18,64,332,,20,06,097,,23,29,318,12*7F
$GPGSV,3,3,12,24,60,126,14,25,01,184,,29,31,206,09,32,11,237,*72
$GPGLL,2059.85140,N,10553.21835,E,090446.00,A,A*6F
[0m
[0;32mI (41179) GPS: UTC Time: 090446.00, Latitude: 20.997524, Longitude: 105.886971[0m
[0;31mE (43279) DHT: Sensor Timeout
[0m
[0;32mI (45399) Transmit UART: Encoded and sent data over UART.[0m
=== Reading Node number 2 ===
[0;32mI (46189) PMS7003: PM1.0: 16 µg/m³[0m
[0;32mI (46189) PMS7003: PM2.5: 19 µg/m³[0m
[0;32mI (46189) PMS7003: PM10: 19 µg/m³[0m
[0;32mI (46189) DHT22: Hum 35.3[0m
[0;32mI (46189) DHT22: Tmp 31.5[0m
[0;32mI (46199) MQ131: MQ131 - O3 Concentration: 631654296015678004493549568000.00 ppb[0m
[0;32mI (46199) MQ136: MQ136 - SO2 Concentration: 24.00 ppm[0m

[0;32mI (46209) MICS6814: MICS6814 - CO Concentration: 1.00 ppm[0m
[0;32mI (46219) MICS6814: MICS6814 - NO2 Concentration: 0.77 ppm[0m

[0;32mI (46219) GPS: Received: $GPRMC,090451.00,A,2059.85554,N,10553.22290,E,3.821,41.71,280624,,,A*58
$GPVTG,41.71,T,,M,3.821,N,7.077,K,A*01
$GPGGA,090451.00,2059.85554,N,10553.22290,E,1,05,1.74,31.6,M,-23.3,M,,*47
$GPGSA,A,3,05,29,13,24,15,,,,,,,,2.82,1.74,2.22*04
$GPGSV,3,1,12,05,21,076,24,10,06,294,,12,01,157,,13,15,037,22*72
$GPGSV,3,2,12,15,44,024,26,18,64,332,,20,06,097,,23,29,318,*7E
$GPGSV,3,3,12,24,60,126,14,25,01,184,,29,31,206,08,32,11,237,*73
$GPGLL,2059.85554,N,10553.22290,E,090451.00,A,A*6E
[0m
[0;32mI (46269) GPS: UTC Time: 090451.00, Latitude: 20.997593, Longitude: 105.887047[0m
[0;32mI (50399) Transmit UART: Encoded and sent data over UART.[0m
=== Reading Node number 2 ===
[0;32mI (51279) PMS7003: PM1.0: 16 µg/m³[0m
[0;32mI (51279) PMS7003: PM2.5: 19 µg/m³[0m
[0;32mI (51279) PMS7003: PM10: 19 µg/m³[0m
[0;32mI (51279) DHT22: Hum 35.4[0m
[0;32mI (51279) DHT22: Tmp 31.6[0m
[0;32mI (51289) MQ131: MQ131 - O3 Concentration: 631654296015678004493549568000.00 ppb[0m
[0;32mI (51289) MQ136: MQ136 - SO2 Concentration: 25.53 ppm[0m

[0;32mI (51299) MICS6814: MICS6814 - CO Concentration: 2820.00 ppm[0m
[0;32mI (51309) MICS6814: MICS6814 - NO2 Concentration: 0.46 ppm[0m

[0;32mI (51309) GPS: Received: $GPRMC,090456.00,A,2059.85117,N,10553.21899,E,1.380,,280624,,,A*73
$GPVTG,,T,,M,1.380,N,2.557,K,A*2C
$GPGGA,090456.00,2059.85117,N,10553.21899,E,1,05,1.74,30.3,M,-23.3,M,,*47
$GPGSA,A,3,05,29,13,24,15,,,,,,,,2.82,1.74,2.21*07
$GPGSV,3,1,12,05,21,076,26,10,06,294,,12,01,157,,13,15,037,25*77
$GPGSV,3,2,12,15,44,024,28,18,64,332,,20,06,097,,23,29,318,08*78
$GPGSV,3,3,12,24,60,126,18,25,01,184,,29,31,206,10,32,11,237,*76
$GPGLL,2059.85117,N,10553.21899,E,090456.00,A,A*6A
[0m
[0;32mI (51359) GPS: UTC Time: 090456.00, Latitude: 20.997520, Longitude: 105.886986[0m
[0;32mI (55399) Transmit UART: Encoded and sent data over UART.[0m
=== Reading Node number 2 ===
[0;32mI (56369) PMS7003: PM1.0: 16 µg/m³[0m
[0;32mI (56369) PMS7003: PM2.5: 20 µg/m³[0m
[0;32mI (56369) PMS7003: PM10: 20 µg/m³[0m
[0;32mI (56369) DHT22: Hum 35.4[0m
[0;32mI (56369) DHT22: Tmp 31.6[0m
[0;32mI (56379) MQ131: MQ131 - O3 Concentration: 631654296015678004493549568000.00 ppb[0m
[0;32mI (56379) MQ136: MQ136 - SO2 Concentration: 24.32 ppm[0m

[0;32mI (56389) MICS6814: MICS6814 - CO Concentration: 1.00 ppm[0m
[0;32mI (56399) MICS6814: MICS6814 - NO2 Concentration: 0.67 ppm[0m

[0;32mI (56409) GPS: Received: $GPRMC,090501.00,A,2059.84810,N,10553.21709,E,1.517,,280624,,,A*71
$GPVTG,,T,,M,1.517,N,2.810,K,A*2A
$GPGGA,090501.00,2059.84810,N,10553.21709,E,1,05,1.74,30.9,M,-23.3,M,,*47
$GPGSA,A,3,05,29,13,24,15,,,,,,,,2.82,1.74,2.21*07
$GPGSV,3,1,12,05,21,076,26,10,06,294,,12,01,157,,13,15,037,25*77
$GPGSV,3,2,12,15,44,024,27,18,64,332,,20,06,097,,23,29,318,08*77
$GPGSV,3,3,12,24,60,126,19,25,01,184,,29,31,206,10,32,11,237,*77
$GPGLL,2059.84810,N,10553.21709,E,090501.00,A,A*60
[0m
[0;32mI (56449) GPS: UTC Time: 090501.00, Latitude: 20.997469, Longitude: 105.886955[0m
[0;32mI (60399) Transmit UART: Encoded and sent data over UART.[0m
=== Reading Node number 2 ===
[0;32mI (61459) PMS7003: PM1.0: 16 µg/m³[0m
[0;32mI (61459) PMS7003: PM2.5: 20 µg/m³[0m
[0;32mI (61459) PMS7003: PM10: 20 µg/m³[0m
[0;32mI (61459) DHT22: Hum 35.4[0m
[0;32mI (61459) DHT22: Tmp 31.6[0m
[0;32mI (61469) MQ131: MQ131 - O3 Concentration: 631654296015678004493549568000.00 ppb[0m
[0;32mI (61469) MQ136: MQ136 - SO2 Concentration: 24.24 ppm[0m

[0;32mI (61479) MICS6814: MICS6814 - CO Concentration: 37.00 ppm[0m
[0;32mI (61489) MICS6814: MICS6814 - NO2 Concentration: 0.76 ppm[0m

[0;32mI (61489) GPS: Received: 2059.84676,N,10553.21492,E,1,06,1.74,30.3,M,-23.3,M,,*46
$GPGSA,A,3,05,23,29,13,24,15,,,,,,,2.81,1.74,2.21*05
$GPGSV,3,1,12,05,21,076,26,10,06,294,,12,01,157,,13,15,037,25*77
$GPGSV,3,2,12,15,44,024,28,18,64,332,,20,06,097,,23,29,318,19*78
$GPGSV,3,3,12,24,60,126,18,25,01,184,,29,31,206,09,32,11,237,*7E
$GPGLL,2059.84676,N,10553.21492,E,090506.00,A,A*68
$GPRMC,090507.00,A,2059.84671,N,10553.21481,E,0.942,,280624,,,A*70
$GPVTG,,T,,M,0.942,N,1.744,K,A*2A
$GPGGA,090507.00,[0m
[0;32mI (61539) GPS: UTC Time: 090505.00, Latitude: 20.997452, Longitude: 105.886917[0m
[0;31mE (61679) DHT: Sensor Timeout
[0m
[0;32mI (65399) Transmit UART: Encoded and sent data over UART.[0m
=== Reading Node number 2 ===
[0;32mI (66549) PMS7003: PM1.0: 16 µg/m³[0m
[0;32mI (66549) PMS7003: PM2.5: 21 µg/m³[0m
[0;32mI (66549) PMS7003: PM10: 21 µg/m³[0m
[0;32mI (66549) DHT22: Hum 35.4[0m
[0;32mI (66549) DHT22: Tmp 31.6[0m
[0;32mI (66559) MQ131: MQ131 - O3 Concentration: 631654296015678004493549568000.00 ppb[0m
[0;32mI (66559) MQ136: MQ136 - SO2 Concentration: 24.64 ppm[0m

[0;32mI (66569) MICS6814: MICS6814 - CO Concentration: 1499.00 ppm[0m
[0;32mI (66579) MICS6814: MICS6814 - NO2 Concentration: 0.84 ppm[0m

[0;32mI (66579) GPS: Received: 1,12,05,21,076,26,10,06,294,,12,01,157,,13,15,037,25*77
$GPGSV,3,2,12,15,44,024,28,18,64,332,,20,06,097,,23,29,318,08*78
$GPGSV,3,3,12,24,60,126,20,25,01,184,,29,31,206,08,32,11,237,*74
$GPGLL,2059.84666,N,10553.21446,E,090511.00,A,A*66
$GPRMC,090512.00,A,2059.84677,N,10553.21445,E,0.331,,280624,,,A*74
$GPVTG,,T,,M,0.331,N,0.613,K,A*26
$GPGGA,090512.00,2059.84677,N,10553.21445,E,1,05,7.15,29.1,M,-23.3,M,,*40
$GPGSA,A,3,05,29,13,24,15,,,,,,,,10.56,7.15,7.77*3A
$GPGSV,3,[0m
[0;32mI (66629) GPS: UTC Time: 090505.00, Latitude: 20.997452, Longitude: 105.886917[0m
[0;32mI (70399) Transmit UART: Encoded and sent data over UART.[0m
=== Reading Node number 2 ===
[0;32mI (71639) PMS7003: PM1.0: 16 µg/m³[0m
[0;32mI (71639) PMS7003: PM2.5: 21 µg/m³[0m
[0;32mI (71639) PMS7003: PM10: 21 µg/m³[0m
[0;32mI (71639) DHT22: Hum 35.4[0m
[0;32mI (71639) DHT22: Tmp 31.6[0m
[0;32mI (71649) MQ131: MQ131 - O3 Concentration: 631654296015678004493549568000.00 ppb[0m
[0;32mI (71649) MQ136: MQ136 - SO2 Concentration: 24.45 ppm[0m

[0;32mI (71659) MICS6814: MICS6814 - CO Concentration: 22.00 ppm[0m
[0;32mI (71669) MICS6814: MICS6814 - NO2 Concentration: 0.87 ppm[0m

[0;32mI (71669) GPS: Received: ,1,12,05,21,076,25,10,06,294,,12,01,157,,13,15,037,25*74
$GPGSV,3,2,12,15,44,024,27,18,64,332,,20,06,097,,23,29,318,09*76
$GPGSV,3,3,12,24,60,126,19,25,01,184,,29,31,206,08,32,11,237,*7E
$GPGLL,2059.84662,N,10553.21431,E,090516.00,A,A*65
$GPRMC,090517.00,A,2059.84651,N,10553.21414,E,0.460,,280624,,,A*72
$GPVTG,,T,,M,0.460,N,0.853,K,A*2F
$GPGGA,090517.00,2059.84651,N,10553.21414,E,1,06,1.12,28.1,M,-23.3,M,,*46
$GPGSA,A,3,05,23,29,13,24,15,,,,,,,2.47,1.12,2.20*0E
$GPGSV,3,1,12,05,21,076,24,10,06,294,,12,01,157,,13,15,037,25*75
$GPGSV,3,2,12,15,44,024,27,18,64,332,,20,06,097,,23,29,318,09*[0m
[0;32mI (71729) GPS: UTC Time: 090505.00, Latitude: 20.997452, Longitude: 105.886917[0m
[0;31mE (73949) DHT: Sensor Timeout
[0m
[0;32mI (75399) Transmit UART: Encoded and sent data over UART.[0m
=== Reading Node number 2 ===
[0;32mI (76739) PMS7003: PM1.0: 16 µg/m³[0m
[0;32mI (76739) PMS7003: PM2.5: 21 µg/m³[0m
[0;32mI (76739) PMS7003: PM10: 21 µg/m³[0m
[0;32mI (76739) DHT22: Hum 35.4[0m
[0;32mI (76739) DHT22: Tmp 31.5[0m
[0;32mI (76749) MQ131: MQ131 - O3 Concentration: 631654296015678004493549568000.00 ppb[0m
[0;32mI (76749) MQ136: MQ136 - SO2 Concentration: 24.84 ppm[0m

[0;32mI (76759) MICS6814: MICS6814 - CO Concentration: 16.00 ppm[0m
[0;32mI (76769) MICS6814: MICS6814 - NO2 Concentration: 0.67 ppm[0m

[0;32mI (76769) GPS: Received: 77
$GPGSV,3,3,12,24,60,126,19,25,01,184,,29,31,206,09,32,11,237,*7F
$GPGLL,2059.84658,N,10553.21620,E,090521.00,A,A*6A
$GPRMC,090522.00,A,2059.84645,N,10553.21638,E,0.908,,280624,,,A*7E
$GPVTG,,T,,M,0.908,N,1.681,K,A*2C
$GPGGA,090522.00,2059.84645,N,10553.21638,E,1,06,1.12,29.0,M,-23.3,M,,*49
$GPGSA,A,3,05,23,29,13,24,15,,,,,,,2.47,1.12,2.20*0E
$GPGSV,3,1,12,05,21,076,25,10,06,294,,12,01,157,,13,15,037,26*77
$GPGSV,3,2,12,15,44,024,28,18,64,332,,20,06,097,,23,29,318,08*78
$GPGSV,3,3,12,24,60,126,20,25,01,184,,29,31,206,09,32,11,237,*75
$GPGLL,2059.84645,N,10553.21638,E,090522.00,A,A*6C[0m
[0;32mI (76829) GPS: UTC Time: 090505.00, Latitude: 20.997452, Longitude: 105.886917[0m
[0;32mI (80399) Transmit UART: Encoded and sent data over UART.[0m
=== Reading Node number 2 ===
[0;32mI (81839) PMS7003: PM1.0: 17 µg/m³[0m
[0;32mI (81839) PMS7003: PM2.5: 23 µg/m³[0m
[0;32mI (81839) PMS7003: PM10: 23 µg/m³[0m
[0;32mI (81839) DHT22: Hum 35.4[0m
[0;32mI (81839) DHT22: Tmp 31.6[0m
[0;32mI (81849) MQ131: MQ131 - O3 Concentration: 631654296015678004493549568000.00 ppb[0m
[0;32mI (81859) MQ136: MQ136 - SO2 Concentration: 24.37 ppm[0m

[0;32mI (81859) MICS6814: MICS6814 - CO Concentration: 1.00 ppm[0m
[0;32mI (81869) MICS6814: MICS6814 - NO2 Concentration: 0.57 ppm[0m

[0;32mI (81879) GPS: Received: $GPRMC,090527.00,A,2059.84615,N,10553.21657,E,0.162,,280624,,,A*73
$GPVTG,,T,,M,0.162,N,0.300,K,A*25
$GPGGA,090527.00,2059.84615,N,10553.21657,E,1,05,1.74,29.1,M,-23.3,M,,*42
$GPGSA,A,3,05,29,13,24,15,,,,,,,,2.81,1.74,2.20*05
$GPGSV,3,1,12,05,21,076,24,10,06,294,,12,01,157,,13,15,037,25*75
$GPGSV,3,2,12,15,44,024,27,18,64,332,,20,06,097,,23,29,318,*7F
$GPGSV,3,3,12,24,60,126,18,25,01,184,,29,31,206,09,32,11,237,*7E
$GPGLL,2059.84615,N,10553.21657,E,090527.00,A,A*65
[0m
[0;32mI (81919) GPS: UTC Time: 090527.00, Latitude: 20.997437, Longitude: 105.886940[0m
[0;32mI (85399) Transmit UART: Encoded and sent data over UART.[0m
=== Reading Node number 2 ===
[0;32mI (86929) PMS7003: PM1.0: 18 µg/m³[0m
[0;32mI (86929) PMS7003: PM2.5: 24 µg/m³[0m
[0;32mI (86929) PMS7003: PM10: 24 µg/m³[0m
[0;32mI (86929) DHT22: Hum 35.4[0m
[0;32mI (86929) DHT22: Tmp 31.6[0m
[0;32mI (86939) MQ131: MQ131 - O3 Concentration: 631654296015678004493549568000.00 ppb[0m
[0;32mI (86939) MQ136: MQ136 - SO2 Concentration: 24.64 ppm[0m

[0;32mI (86949) MICS6814: MICS6814 - CO Concentration: 1322.00 ppm[0m
[0;32mI (86959) MICS6814: MICS6814 - NO2 Concentration: 0.54 ppm[0m

[0;32mI (86959) GPS: Received: $GPRMC,090532.00,A,2059.84560,N,10553.21621,E,0.290,,280624,,,A*79
$GPVTG,,T,,M,0.290,N,0.537,K,A*29
$GPGGA,090532.00,2059.84560,N,10553.21621,E,1,06,1.74,29.2,M,-23.3,M,,*46
$GPGSA,A,3,05,23,29,13,24,15,,,,,,,2.81,1.74,2.20*04
$GPGSV,3,1,12,05,21,076,23,10,06,294,,12,01,156,,13,15,037,26*70
$GPGSV,3,2,12,15,44,024,27,18,64,332,,20,06,097,,23,29,318,10*7E
$GPGSV,3,3,12,24,60,126,20,25,01,184,,29,31,206,10,32,11,237,*7D
$GPGLL,2059.84560,N,10553.21621,E,090532.00,A,A*61
[0m
[0;32mI (87009) GPS: UTC Time: 090532.00, Latitude: 20.997427, Longitude: 105.886940[0m
[0;32mI (90399) Transmit UART: Encoded and sent data over UART.[0m
=== Reading Node number 2 ===
[0;32mI (92019) PMS7003: PM1.0: 17 µg/m³[0m
[0;32mI (92019) PMS7003: PM2.5: 22 µg/m³[0m
[0;32mI (92019) PMS7003: PM10: 22 µg/m³[0m
[0;32mI (92019) DHT22: Hum 35.4[0m
[0;32mI (92019) DHT22: Tmp 31.6[0m
[0;32mI (92029) MQ131: MQ131 - O3 Concentration: 631654296015678004493549568000.00 ppb[0m
[0;32mI (92029) MQ136: MQ136 - SO2 Concentration: 24.43 ppm[0m

[0;32mI (92039) MICS6814: MICS6814 - CO Concentration: 30.00 ppm[0m
[0;32mI (92049) MICS6814: MICS6814 - NO2 Concentration: 0.69 ppm[0m

[0;32mI (92049) GPS: Received: $GPRMC,090537.00,A,2059.84497,N,10553.21746,E,0.798,,280624,,,A*78
$GPVTG,,T,,M,0.798,N,1.477,K,A*20
$GPGGA,090537.00,2059.84497,N,10553.21746,E,1,05,1.74,29.9,M,-23.3,M,,*42
$GPGSA,A,3,05,29,13,24,15,,,,,,,,2.80,1.74,2.19*0E
$GPGSV,3,1,12,05,21,076,22,10,06,294,,12,01,156,,13,15,037,26*71
$GPGSV,3,2,12,15,43,024,28,18,64,331,,20,06,097,,23,29,318,*74
$GPGSV,3,3,12,24,60,126,21,25,01,184,,29,31,206,10,32,11,237,*7C
$GPGLL,2059.84497,N,10553.21746,E,090537.00,A,A*6D
[0m
[0;32mI (92099) GPS: UTC Time: 090537.00, Latitude: 20.997416, Longitude: 105.886955[0m
[0;32mI (95399) Transmit UART: Encoded and sent data over UART.[0m
=== Reading Node number 2 ===
[0;32mI (97109) PMS7003: PM1.0: 17 µg/m³[0m
[0;32mI (97109) PMS7003: PM2.5: 22 µg/m³[0m
[0;32mI (97109) PMS7003: PM10: 23 µg/m³[0m
[0;32mI (97109) DHT22: Hum 35.4[0m
[0;32mI (97109) DHT22: Tmp 31.6[0m
[0;32mI (97119) MQ131: MQ131 - O3 Concentration: 631654296015678004493549568000.00 ppb[0m
[0;32mI (97119) MQ136: MQ136 - SO2 Concentration: 24.40 ppm[0m

[0;32mI (97129) MICS6814: MICS6814 - CO Concentration: 407.00 ppm[0m
[0;32mI (97139) MICS6814: MICS6814 - NO2 Concentration: 0.51 ppm[0m

[0;32mI (97139) GPS: Received: $GPRMC,090542.00,A,2059.84530,N,10553.21894,E,0.857,,280624,,,A*7A
$GPVTG,,T,,M,0.857,N,1.587,K,A*22
$GPGGA,090542.00,2059.84530,N,10553.21894,E,1,05,1.74,30.1,M,-23.3,M,,*4C
$GPGSA,A,3,05,29,13,24,15,,,,,,,,2.80,1.74,2.19*0E
$GPGSV,3,1,12,05,21,076,21,10,06,294,,12,01,156,,13,15,037,26*72
$GPGSV,3,2,12,15,43,024,28,18,64,331,,20,05,097,,23,29,318,*77
$GPGSV,3,3,12,24,60,125,20,25,01,184,,29,31,206,09,32,11,237,*76
$GPGLL,2059.84530,N,10553.21894,E,090542.00,A,A*63
[0m
[0;32mI (97189) GPS: UTC Time: 090542.00, Latitude: 20.997421, Longitude: 105.886986[0m
[0;32mI (100399) Transmit UART: Encoded and sent data over UART.[0m
=== Reading Node number 2 ===
[0;32mI (102199) PMS7003: PM1.0: 18 µg/m³[0m
[0;32mI (102199) PMS7003: PM2.5: 23 µg/m³[0m
[0;32mI (102199) PMS7003: PM10: 24 µg/m³[0m
[0;32mI (102199) DHT22: Hum 35.4[0m
[0;32mI (102199) DHT22: Tmp 31.6[0m
[0;32mI (102209) MQ131: MQ131 - O3 Concentration: 631654296015678004493549568000.00 ppb[0m
[0;32mI (102209) MQ136: MQ136 - SO2 Concentration: 24.64 ppm[0m

[0;32mI (102219) MICS6814: MICS6814 - CO Concentration: 45.00 ppm[0m
[0;32mI (102229) MICS6814: MICS6814 - NO2 Concentration: 0.74 ppm[0m

[0;32mI (102229) GPS: Received: $GPRMC,090547.00,A,2059.84461,N,10553.21776,E,0.504,,280624,,,A*72
$GPVTG,,T,,M,0.504,N,0.933,K,A*2B
$GPGGA,090547.00,2059.84461,N,10553.21776,E,1,05,1.74,28.7,M,-23.3,M,,*40
$GPGSA,A,3,05,29,13,24,15,,,,,,,,2.80,1.74,2.19*0E
$GPGSV,3,1,12,05,21,076,20,10,06,294,,12,01,156,,13,15,037,26*73
$GPGSV,3,2,12,15,43,024,28,18,64,331,,20,05,097,,23,29,318,*77
$GPGSV,3,3,12,24,60,125,21,25,01,184,,29,31,205,12,32,11,237,*7E
$GPGLL,2059.84461,N,10553.21776,E,090547.00,A,A*60
[0m
[0;32mI (102279) GPS: UTC Time: 090547.00, Latitude: 20.997410, Longitude: 105.886963[0m
[0;32mI (105399) Transmit UART: Encoded and sent data over UART.[0m
=== Reading Node number 2 ===
[0;32mI (107289) PMS7003: PM1.0: 16 µg/m³[0m
[0;32mI (107289) PMS7003: PM2.5: 22 µg/m³[0m
[0;32mI (107289) PMS7003: PM10: 23 µg/m³[0m
[0;32mI (107289) DHT22: Hum 35.4[0m
[0;32mI (107289) DHT22: Tmp 31.6[0m
[0;32mI (107299) MQ131: MQ131 - O3 Concentration: 631654296015678004493549568000.00 ppb[0m
[0;32mI (107299) MQ136: MQ136 - SO2 Concentration: 24.35 ppm[0m

[0;32mI (107309) MICS6814: MICS6814 - CO Concentration: 1.00 ppm[0m
[0;32mI (107319) MICS6814: MICS6814 - NO2 Concentration: 0.53 ppm[0m

[0;32mI (107319) GPS: Received: $GPRMC,090552.00,A,2059.84407,N,10553.21756,E,0.375,,280624,,,A*74
$GPVTG,,T,,M,0.375,N,0.695,K,A*28
$GPGGA,090552.00,2059.84407,N,10553.21756,E,1,05,1.75,27.5,M,-23.3,M,,*4A
$GPGSA,A,3,05,29,13,24,15,,,,,,,,2.80,1.75,2.19*0F
$GPGSV,3,1,12,05,21,076,20,10,06,294,,12,01,156,,13,15,037,26*73
$GPGSV,3,2,12,15,43,024,28,18,64,331,,20,05,097,,23,29,318,*77
$GPGSV,3,3,12,24,60,125,21,25,01,184,,29,31,205,10,32,11,238,*73
$GPGLL,2059.84407,N,10553.21756,E,090552.00,A,A*66
[0m
[0;32mI (107369) GPS: UTC Time: 090552.00, Latitude: 20.997400, Longitude: 105.886963[0m
[0;32mI (110399) Transmit UART: Encoded and sent data over UART.[0m
[0;31mE (111699) DHT: Sensor Timeout
[0m
=== Reading Node number 2 ===
[0;32mI (112379) PMS7003: PM1.0: 15 µg/m³[0m
[0;32mI (112379) PMS7003: PM2.5: 20 µg/m³[0m
[0;32mI (112379) PMS7003: PM10: 21 µg/m³[0m
[0;32mI (112379) DHT22: Hum 35.4[0m
[0;32mI (112379) DHT22: Tmp 31.6[0m
[0;32mI (112389) MQ131: MQ131 - O3 Concentration: 631654296015678004493549568000.00 ppb[0m
[0;32mI (112389) MQ136: MQ136 - SO2 Concentration: 24.56 ppm[0m

[0;32mI (112399) MICS6814: MICS6814 - CO Concentration: 261.00 ppm[0m
[0;32mI (112409) MICS6814: MICS6814 - NO2 Concentration: 0.61 ppm[0m

[0;32mI (112409) GPS: Received: 2059.84446,N,10553.21735,E,1,05,1.75,26.8,M,-23.3,M,,*43
$GPGSA,A,3,05,29,13,24,15,,,,,,,,2.80,1.75,2.19*0F
$GPGSV,3,1,12,05,21,076,21,10,06,294,,12,01,156,,13,15,037,26*72
$GPGSV,3,2,12,15,43,024,28,18,64,331,,20,05,097,,23,29,318,*77
$GPGSV,3,3,12,24,60,125,22,25,01,184,,29,31,205,13,32,11,238,*73
$GPGLL,2059.84446,N,10553.21735,E,090557.00,A,A*63
$GPRMC,090558.00,A,2059.84430,N,10553.21696,E,0.335,,280624,,,A*73
$GPVTG,,T,,M,0.335,N,0.620,K,A*22
$GPGGA,090558.00,[0m
[0;32mI (112459) GPS: UTC Time: 090553.00, Latitude: 20.997400, Longitude: 105.886963[0m
[0;32mI (115399) Transmit UART: Encoded and sent data over UART.[0m
=== Reading Node number 2 ===
[0;32mI (117469) PMS7003: PM1.0: 14 µg/m³[0m
[0;32mI (117469) PMS7003: PM2.5: 20 µg/m³[0m
[0;32mI (117469) PMS7003: PM10: 20 µg/m³[0m
[0;32mI (117469) DHT22: Hum 35.4[0m
[0;32mI (117469) DHT22: Tmp 31.6[0m
[0;32mI (117479) MQ131: MQ131 - O3 Concentration: 631654296015678004493549568000.00 ppb[0m
[0;32mI (117479) MQ136: MQ136 - SO2 Concentration: 23.97 ppm[0m

[0;32mI (117489) MICS6814: MICS6814 - CO Concentration: 49.00 ppm[0m
[0;32mI (117499) MICS6814: MICS6814 - NO2 Concentration: 0.92 ppm[0m

[0;32mI (117499) GPS: Received: ,12,05,21,076,20,10,06,294,,12,01,156,,13,15,037,26*73
$GPGSV,3,2,12,15,43,024,27,18,64,331,,20,05,097,,23,29,318,*78
$GPGSV,3,3,12,24,60,125,22,25,01,184,,29,31,205,14,32,11,238,*74
$GPGLL,2059.84486,N,10553.21535,E,090602.00,A,A*6E
$GPRMC,090603.00,A,2059.84503,N,10553.21564,E,0.811,,280624,,,A*7C
$GPVTG,,T,,M,0.811,N,1.501,K,A*2E
$GPGGA,090603.00,2059.84503,N,10553.21564,E,1,05,1.75,25.1,M,-23.3,M,,*4D
$GPGSA,A,3,05,29,13,24,15,,,,,,,,2.79,1.75,2.18*08
$GPGSV,3,1[0m
[0;32mI (117549) GPS: UTC Time: 090553.00, Latitude: 20.997400, Longitude: 105.886963[0m
[0;32mI (120399) Transmit UART: Encoded and sent data over UART.[0m
=== Reading Node number 2 ===
[0;32mI (122559) PMS7003: PM1.0: 15 µg/m³[0m
[0;32mI (122559) PMS7003: PM2.5: 20 µg/m³[0m
[0;32mI (122559) PMS7003: PM10: 21 µg/m³[0m
[0;32mI (122559) DHT22: Hum 35.4[0m
[0;32mI (122559) DHT22: Tmp 31.6[0m
[0;32mI (122569) MQ131: MQ131 - O3 Concentration: 631654296015678004493549568000.00 ppb[0m
[0;32mI (122569) MQ136: MQ136 - SO2 Concentration: 24.70 ppm[0m

[0;32mI (122579) MICS6814: MICS6814 - CO Concentration: 1921.00 ppm[0m
[0;32mI (122589) MICS6814: MICS6814 - NO2 Concentration: 0.82 ppm[0m

[0;32mI (122589) GPS: Received: $GPGSV,3,3,12,24,60,125,23,25,01,184,,29,31,205,14,32,11,238,*75
$GPGLL,2059.84502,N,10553.21614,E,090607.00,A,A*66
$GPRMC,090608.00,A,2059.84486,N,10553.21557,E,0.526,,280624,,,A*72
$GPVTG,,T,,M,0.526,N,0.974,K,A*28
$GPGGA,090608.00,2059.84486,N,10553.21557,E,1,05,1.75,24.3,M,-23.3,M,,*49
$GPGSA,A,3,05,29,13,24,15,,,,,,,,2.79,1.75,2.18*08
$GPGSV,3,1,12,05,21,076,21,10,06,294,,12,01,156,,13,15,037,26*72
$GPGSV,3,2,12,15,43,024,27,18,64,331,,20,05,097,,23,29,318,*78
[0m
[0;32mI (122639) GPS: UTC Time: 090553.00, Latitude: 20.997400, Longitude: 105.886963[0m
[0;31mE (123959) DHT: Sensor Timeout
[0m
[0;32mI (125399) Transmit UART: Encoded and sent data over UART.[0m
=== Reading Node number 2 ===
[0;32mI (127649) PMS7003: PM1.0: 17 µg/m³[0m
[0;32mI (127649) PMS7003: PM2.5: 22 µg/m³[0m
[0;32mI (127649) PMS7003: PM10: 24 µg/m³[0m
[0;32mI (127649) DHT22: Hum 35.4[0m
[0;32mI (127649) DHT22: Tmp 31.6[0m
[0;32mI (127659) MQ131: MQ131 - O3 Concentration: 631654296015678004493549568000.00 ppb[0m
[0;32mI (127659) MQ136: MQ136 - SO2 Concentration: 24.37 ppm[0m

[0;32mI (127669) MICS6814: MICS6814 - CO Concentration: 1.00 ppm[0m
[0;32mI (127679) MICS6814: MICS6814 - NO2 Concentration: 0.84 ppm[0m

[0;32mI (127679) GPS: Received: $GPRMC,090613.00,A,2059.84481,N,10553.21359,E,0.498,,280624,,,A*73
$GPVTG,,T,,M,0.498,N,0.923,K,A*2E
$GPGGA,090613.00,2059.84481,N,10553.21359,E,1,05,1.75,22.7,M,-23.3,M,,*4E
$GPGSA,A,3,05,29,13,24,15,,,,,,,,2.79,1.75,2.18*08
$GPGSV,3,1,12,05,21,076,21,10,06,294,,12,01,156,,13,15,037,25*71
$GPGSV,3,2,12,15,43,024,28,18,64,331,,20,05,097,,23,29,318,*77
$GPGSV,3,3,12,24,60,125,23,25,01,184,,29,31,205,16,32,11,238,*77
$GPGLL,2059.84481,N,10553.21359,E,090613.00,A,A*65
[0m
[0;32mI (127729) GPS: UTC Time: 090613.00, Latitude: 20.997414, Longitude: 105.886894[0m
[0;32mI (130399) Transmit UART: Encoded and sent data over UART.[0m
=== Reading Node number 2 ===
[0;32mI (132749) PMS7003: PM1.0: 18 µg/m³[0m
[0;32mI (132749) PMS7003: PM2.5: 22 µg/m³[0m
[0;32mI (132749) PMS7003: PM10: 25 µg/m³[0m
[0;32mI (132749) DHT22: Hum 35.4[0m
[0;32mI (132759) DHT22: Tmp 31.5[0m
[0;32mI (132759) MQ131: MQ131 - O3 Concentration: 631654296015678004493549568000.00 ppb[0m
[0;32mI (132769) MQ136: MQ136 - SO2 Concentration: 24.37 ppm[0m

[0;32mI (132769) MICS6814: MICS6814 - CO Concentration: 79.00 ppm[0m
[0;32mI (132779) MICS6814: MICS6814 - NO2 Concentration: 0.98 ppm[0m

[0;32mI (132789) GPS: Received: $GPRMC,090618.00,A,2059.84478,N,10553.21258,E,0.517,,280624,,,A*78
$GPVTG,,T,,M,0.517,N,0.958,K,A*24
$GPGGA,090618.00,2059.84478,N,10553.21258,E,1,05,1.75,21.4,M,-23.3,M,,*43
$GPGSA,A,3,05,29,13,24,15,,,,,,,,2.79,1.75,2.18*08
$GPGSV,3,1,12,05,21,076,20,10,06,294,,12,01,156,,13,15,037,25*70
$GPGSV,3,2,12,15,43,024,28,18,64,331,,20,05,097,,23,29,318,*77
$GPGSV,3,3,12,24,60,125,22,25,01,184,,29,31,205,16,32,11,238,*76
$GPGLL,2059.84478,N,10553.21258,E,090618.00,A,A*68
[0m
[0;32mI (132829) GPS: UTC Time: 090618.00, Latitude: 20.997414, Longitude: 105.886879[0m
[0;32mI (135399) Transmit UART: Encoded and sent data over UART.[0m
=== Reading Node number 2 ===
[0;32mI (137839) PMS7003: PM1.0: 18 µg/m³[0m
[0;32mI (137839) PMS7003: PM2.5: 23 µg/m³[0m
[0;32mI (137839) PMS7003: PM10: 25 µg/m³[0m
[0;32mI (137839) DHT22: Hum 35.4[0m
[0;32mI (137839) DHT22: Tmp 31.6[0m
[0;32mI (137849) MQ131: MQ131 - O3 Concentration: 631654296015678004493549568000.00 ppb[0m
[0;32mI (137849) MQ136: MQ136 - SO2 Concentration: 24.73 ppm[0m

[0;32mI (137859) MICS6814: MICS6814 - CO Concentration: 463.00 ppm[0m
[0;32mI (137869) MICS6814: MICS6814 - NO2 Concentration: 0.51 ppm[0m

[0;32mI (137869) GPS: Received: $GPRMC,090623.00,A,2059.84557,N,10553.21088,E,0.817,,280624,,,A*7E
$GPVTG,,T,,M,0.817,N,1.512,K,A*2A
$GPGGA,090623.00,2059.84557,N,10553.21088,E,1,05,1.75,20.4,M,-23.3,M,,*49
$GPGSA,A,3,05,29,13,24,15,,,,,,,,2.79,1.75,2.17*07
$GPGSV,3,1,12,05,21,076,20,10,06,294,,12,01,156,,13,15,037,25*70
$GPGSV,3,2,12,15,43,024,28,18,64,331,,20,05,097,,23,29,318,*77
$GPGSV,3,3,12,24,60,125,22,25,01,184,,29,31,205,18,32,11,238,*78
$GPGLL,2059.84557,N,10553.21088,E,090623.00,A,A*63
[0m
[0;32mI (137919) GPS: UTC Time: 090623.00, Latitude: 20.997427, Longitude: 105.886848[0m
[0;32mI (140399) Transmit UART: Encoded and sent data over UART.[0m
[0;31mE (142329) DHT: Sensor Timeout
[0m
=== Reading Node number 2 ===
[0;32mI (142929) PMS7003: PM1.0: 18 µg/m³[0m
[0;32mI (142929) PMS7003: PM2.5: 23 µg/m³[0m
[0;32mI (142929) PMS7003: PM10: 25 µg/m³[0m
[0;32mI (142929) DHT22: Hum 35.4[0m
[0;32mI (142929) DHT22: Tmp 31.6[0m
[0;32mI (142939) MQ131: MQ131 - O3 Concentration: 631654296015678004493549568000.00 ppb[0m
[0;32mI (142939) MQ136: MQ136 - SO2 Concentration: 24.32 ppm[0m

[0;32mI (142949) MICS6814: MICS6814 - CO Concentration: 1.00 ppm[0m
[0;32mI (142959) MICS6814: MICS6814 - NO2 Concentration: 0.66 ppm[0m

[0;32mI (142959) GPS: Received: $GPRMC,090628.00,A,2059.84544,N,10553.21065,E,0.551,,280624,,,A*7B
$GPVTG,,T,,M,0.551,N,1.020,K,A*21
$GPGGA,090628.00,2059.84544,N,10553.21065,E,1,05,1.75,20.3,M,-23.3,M,,*44
$GPGSA,A,3,05,29,13,24,15,,,,,,,,2.79,1.75,2.17*07
$GPGSV,3,1,12,05,21,076,19,10,06,294,,12,01,156,,13,15,037,26*79
$GPGSV,3,2,12,15,43,024,28,18,64,331,,20,05,097,,23,29,318,*77
$GPGSV,3,3,12,24,60,125,22,25,01,184,,29,31,205,18,32,11,238,*78
$GPGLL,2059.84544,N,10553.21065,E,090628.00,A,A*69
[0m
[0;32mI (143009) GPS: UTC Time: 090628.00, Latitude: 20.997423, Longitude: 105.886841[0m
[0;32mI (145399) Transmit UART: Encoded and sent data over UART.[0m
=== Reading Node number 2 ===
[0;32mI (148019) PMS7003: PM1.0: 19 µg/m³[0m
[0;32mI (148019) PMS7003: PM2.5: 23 µg/m³[0m
[0;32mI (148019) PMS7003: PM10: 25 µg/m³[0m
[0;32mI (148019) DHT22: Hum 35.4[0m
[0;32mI (148019) DHT22: Tmp 31.6[0m
[0;32mI (148029) MQ131: MQ131 - O3 Concentration: 631654296015678004493549568000.00 ppb[0m
[0;32mI (148029) MQ136: MQ136 - SO2 Concentration: 24.27 ppm[0m

[0;32mI (148039) MICS6814: MICS6814 - CO Concentration: 2203.00 ppm[0m
[0;32mI (148049) MICS6814: MICS6814 - NO2 Concentration: 0.81 ppm[0m

[0;32mI (148049) GPS: Received: $GPRMC,090633.00,A,2059.84486,N,10553.21155,E,0.465,,280624,,,A*7A
$GPVTG,,T,,M,0.465,N,0.861,K,A*2B
$GPGGA,090633.00,2059.84486,N,10553.21155,E,1,05,1.75,20.1,M,-23.3,M,,*41
$GPGSA,A,3,05,29,13,24,15,,,,,,,,2.78,1.75,2.17*06
$GPGSV,3,1,12,05,21,076,18,10,06,294,,12,01,156,,13,15,037,26*78
$GPGSV,3,2,12,15,43,024,28,18,64,331,18,20,05,097,,23,29,318,*7E
$GPGSV,3,3,12,24,60,125,21,25,01,184,,29,31,205,17,32,11,238,*74
$GPGLL,2059.84486,N,10553.21155,E,090633.00,A,A*6E
[0m
[0;32mI (148099) GPS: UTC Time: 090633.00, Latitude: 20.997414, Longitude: 105.886856[0m
[0;32mI (150399) Transmit UART: Encoded and sent data over UART.[0m
=== Reading Node number 2 ===
[0;32mI (153109) PMS7003: PM1.0: 19 µg/m³[0m
[0;32mI (153109) PMS7003: PM2.5: 25 µg/m³[0m
[0;32mI (153109) PMS7003: PM10: 26 µg/m³[0m
[0;32mI (153109) DHT22: Hum 35.4[0m
[0;32mI (153109) DHT22: Tmp 31.6[0m
[0;32mI (153119) MQ131: MQ131 - O3 Concentration: 631654296015678004493549568000.00 ppb[0m
[0;32mI (153119) MQ136: MQ136 - SO2 Concentration: 24.43 ppm[0m

[0;32mI (153129) MICS6814: MICS6814 - CO Concentration: 1.00 ppm[0m
[0;32mI (153139) MICS6814: MICS6814 - NO2 Concentration: 0.56 ppm[0m

[0;32mI (153139) GPS: Received: $GPRMC,090638.00,A,2059.84536,N,10553.21187,E,0.688,,280624,,,A*75
$GPVTG,,T,,M,0.688,N,1.274,K,A*25
$GPGGA,090638.00,2059.84536,N,10553.21187,E,1,05,1.75,19.3,M,-23.3,M,,*47
$GPGSA,A,3,05,29,13,24,15,,,,,,,,2.78,1.75,2.17*06
$GPGSV,3,1,12,05,21,077,17,10,06,294,,12,01,156,,13,15,037,27*77
$GPGSV,3,2,12,15,43,024,29,18,64,331,16,20,05,097,,23,29,318,*71
$GPGSV,3,3,12,24,60,125,24,25,01,184,,29,31,205,16,32,11,238,*70
$GPGLL,2059.84536,N,10553.21187,E,090638.00,A,A*60
[0m
[0;32mI (153189) GPS: UTC Time: 090638.00, Latitude: 20.997423, Longitude: 105.886864[0m
[0;32mI (155399) Transmit UART: Encoded and sent data over UART.[0m
=== Reading Node number 2 ===
[0;32mI (158199) PMS7003: PM1.0: 19 µg/m³[0m
[0;32mI (158199) PMS7003: PM2.5: 25 µg/m³[0m
[0;32mI (158199) PMS7003: PM10: 25 µg/m³[0m
[0;32mI (158199) DHT22: Hum 35.4[0m
[0;32mI (158199) DHT22: Tmp 31.6[0m
[0;32mI (158209) MQ131: MQ131 - O3 Concentration: 631654296015678004493549568000.00 ppb[0m
[0;32mI (158209) MQ136: MQ136 - SO2 Concentration: 24.43 ppm[0m

[0;32mI (158219) MICS6814: MICS6814 - CO Concentration: 1.00 ppm[0m
[0;32mI (158229) MICS6814: MICS6814 - NO2 Concentration: 0.58 ppm[0m

[0;32mI (158229) GPS: Received: 2059.84518,N,10553.21255,E,1,05,1.75,19.2,M,-23.3,M,,*4A
$GPGSA,A,3,05,29,13,24,15,,,,,,,,2.78,1.75,2.16*07
$GPGSV,3,1,12,05,21,077,15,10,06,295,,12,01,156,,13,15,037,27*74
$GPGSV,3,2,12,15,43,024,29,18,64,331,17,20,05,097,,23,29,318,*70
$GPGSV,3,3,12,24,60,125,23,25,01,184,,29,31,205,16,32,11,238,*77
$GPGLL,2059.84518,N,10553.21255,E,090643.00,A,A*6C
$GPRMC,090644.00,A,2059.84494,N,10553.21266,E,0.622,,280624,,,A*7B
$GPVTG,,T,,M,0.622,N,1.151,K,A*21
$GPGGA,090644.00,[0m
[0;32mI (158279) GPS: UTC Time: 090641.00, Latitude: 20.997419, Longitude: 105.886879[0m
[0;32mI (160399) Transmit UART: Encoded and sent data over UART.[0m
=== Reading Node number 2 ===
[0;32mI (163289) PMS7003: PM1.0: 20 µg/m³[0m
[0;32mI (163289) PMS7003: PM2.5: 25 µg/m³[0m
[0;32mI (163289) PMS7003: PM10: 25 µg/m³[0m
[0;32mI (163289) DHT22: Hum 35.4[0m
[0;32mI (163289) DHT22: Tmp 31.6[0m
[0;32mI (163299) MQ131: MQ131 - O3 Concentration: 631654296015678004493549568000.00 ppb[0m
[0;32mI (163299) MQ136: MQ136 - SO2 Concentration: 24.24 ppm[0m

[0;32mI (163309) MICS6814: MICS6814 - CO Concentration: 1862.00 ppm[0m
[0;32mI (163319) MICS6814: MICS6814 - NO2 Concentration: 0.68 ppm[0m

[0;32mI (163319) GPS: Received: 2,05,21,077,09,10,06,295,,12,01,156,,13,15,037,27*79
$GPGSV,3,2,12,15,43,024,28,18,65,331,17,20,05,097,,23,29,318,*70
$GPGSV,3,3,12,24,60,125,22,25,01,184,,29,31,205,13,32,11,238,*73
$GPGLL,2059.84532,N,10553.21145,E,090648.00,A,A*6D
$GPRMC,090649.00,A,2059.84516,N,10553.21145,E,0.184,,280624,,,A*74
$GPVTG,,T,,M,0.184,N,0.340,K,A*29
$GPGGA,090649.00,2059.84516,N,10553.21145,E,1,04,2.85,17.8,M,-23.3,M,,*45
$GPGSA,A,3,29,13,24,15,,,,,,,,,3.83,2.85,2.56*0F
$GPGSV,3,1,1[0m
[0;32mI (163369) GPS: UTC Time: 090641.00, Latitude: 20.997419, Longitude: 105.886879[0m
[0;32mI (165399) Transmit UART: Encoded and sent data over UART.[0m
=== Reading Node number 2 ===
[0;32mI (168379) PMS7003: PM1.0: 20 µg/m³[0m
[0;32mI (168379) PMS7003: PM2.5: 26 µg/m³[0m
[0;32mI (168379) PMS7003: PM10: 27 µg/m³[0m
[0;32mI (168379) DHT22: Hum 35.4[0m
[0;32mI (168379) DHT22: Tmp 31.6[0m
[0;32mI (168389) MQ131: MQ131 - O3 Concentration: 631654296015678004493549568000.00 ppb[0m
[0;32mI (168389) MQ136: MQ136 - SO2 Concentration: 24.59 ppm[0m

[0;32mI (168399) MICS6814: MICS6814 - CO Concentration: 1.00 ppm[0m
[0;32mI (168409) MICS6814: MICS6814 - NO2 Concentration: 0.57 ppm[0m

[0;32mI (168409) GPS: Received: ,12,05,21,077,10,10,06,295,,12,01,156,,13,15,037,27*71
$GPGSV,3,2,12,15,43,024,29,18,65,331,17,20,05,098,,23,30,319,*77
$GPGSV,3,3,12,24,60,124,24,25,01,184,,29,31,205,14,32,11,238,*73
$GPGLL,2059.84582,N,10553.21020,E,090653.00,A,A*6E
$GPRMC,090654.00,A,2059.84584,N,10553.20969,E,0.679,,280624,,,A*71
$GPVTG,,T,,M,0.679,N,1.257,K,A*2A
$GPGGA,090654.00,2059.84584,N,10553.20969,E,1,05,1.75,17.8,M,-23.3,M,,*48
$GPGSA,A,3,05,29,13,24,15,,,,,,,,2.78,1.75,2.16*07
$GPGSV,3,1,12,05,21,077,10,10,06,295,,12,01,156,,13,15,037,28*7E
$GPGSV,3,2,12,15,43,024,29,18,65,331,17,20,05,098,,23,30,319,*77[0m
[0;32mI (168469) GPS: UTC Time: 090641.00, Latitude: 20.997419, Longitude: 105.886879[0m
[0;32mI (170399) Transmit UART: Encoded and sent data over UART.[0m
=== Reading Node number 2 ===
[0;32mI (173479) PMS7003: PM1.0: 19 µg/m³[0m
[0;32mI (173479) PMS7003: PM2.5: 25 µg/m³[0m
[0;32mI (173479) PMS7003: PM10: 26 µg/m³[0m
[0;32mI (173479) DHT22: Hum 35.4[0m
[0;32mI (173479) DHT22: Tmp 31.6[0m
[0;32mI (173489) MQ131: MQ131 - O3 Concentration: 631654296015678004493549568000.00 ppb[0m
[0;32mI (173489) MQ136: MQ136 - SO2 Concentration: 24.27 ppm[0m

[0;32mI (173499) MICS6814: MICS6814 - CO Concentration: 109.00 ppm[0m
[0;32mI (173509) MICS6814: MICS6814 - NO2 Concentration: 0.94 ppm[0m

[0;32mI (173509) GPS: Received: 
$GPGSV,3,3,12,24,60,124,25,25,01,184,,29,30,205,14,32,11,238,*73
$GPGLL,2059.84530,N,10553.21030,E,090658.00,A,A*6D
$GPRMC,090659.00,A,2059.84516,N,10553.21069,E,0.710,,280624,,,A*71
$GPVTG,,T,,M,0.710,N,1.316,K,A*20
$GPGGA,090659.00,2059.84516,N,10553.21069,E,1,05,1.75,16.6,M,-23.3,M,,*49
$GPGSA,A,3,05,29,13,24,15,,,,,,,,2.78,1.75,2.16*07
$GPGSV,3,1,12,05,21,077,13,10,06,295,,12,01,156,,13,15,037,29*7C
$GPGSV,3,2,12,15,43,024,30,18,65,331,17,20,05,098,,23,30,319,*7F[0m
[0;32mI (173559) GPS: UTC Time: 090641.00, Latitude: 20.997419, Longitude: 105.886879[0m
[0;32mI (175409) Transmit UART: Encoded and sent data over UART.[0m
=== Reading Node number 2 ===
[0;32mI (178569) PMS7003: PM1.0: 18 µg/m³[0m
[0;32mI (178569) PMS7003: PM2.5: 26 µg/m³[0m
[0;32mI (178569) PMS7003: PM10: 28 µg/m³[0m
[0;32mI (178569) DHT22: Hum 35.5[0m
[0;32mI (178569) DHT22: Tmp 31.6[0m
[0;32mI (178579) MQ131: MQ131 - O3 Concentration: 631654296015678004493549568000.00 ppb[0m
[0;32mI (178579) MQ136: MQ136 - SO2 Concentration: 24.64 ppm[0m

[0;32mI (178589) MICS6814: MICS6814 - CO Concentration: 108.00 ppm[0m
[0;32mI (178599) MICS6814: MICS6814 - NO2 Concentration: 0.69 ppm[0m

[0;32mI (178599) GPS: Received: $GPRMC,090704.00,A,2059.84482,N,10553.21114,E,0.289,,280624,,,A*7A
$GPVTG,,T,,M,0.289,N,0.536,K,A*20
$GPGGA,090704.00,2059.84482,N,10553.21114,E,1,03,5.41,17.6,M,-23.3,M,,*43
$GPGSA,A,2,13,24,15,,,,,,,,,,5.50,5.41,1.00*02
$GPGSV,3,1,12,05,21,077,,10,06,295,,12,01,156,,13,15,037,28*7F
$GPGSV,3,2,12,15,43,024,29,18,65,331,13,20,05,098,,23,30,319,*73
$GPGSV,3,3,12,24,60,124,25,25,01,184,,29,30,205,08,32,12,238,*7D
$GPGLL,2059.84482,N,10553.21114,E,090704.00,A,A*6A
[0m
[0;32mI (178649) GPS: UTC Time: 090704.00, Latitude: 20.997414, Longitude: 105.886856[0m
[0;32mI (180409) Transmit UART: Encoded and sent data over UART.[0m
=== Reading Node number 2 ===
[0;32mI (183659) PMS7003: PM1.0: 18 µg/m³[0m
[0;32mI (183659) PMS7003: PM2.5: 26 µg/m³[0m
[0;32mI (183659) PMS7003: PM10: 27 µg/m³[0m
[0;32mI (183659) DHT22: Hum 35.5[0m
[0;32mI (183659) DHT22: Tmp 31.6[0m
[0;32mI (183669) MQ131: MQ131 - O3 Concentration: 631654296015678004493549568000.00 ppb[0m
[0;32mI (183669) MQ136: MQ136 - SO2 Concentration: 24.48 ppm[0m

[0;32mI (183679) MICS6814: MICS6814 - CO Concentration: 1146.00 ppm[0m
[0;32mI (183689) MICS6814: MICS6814 - NO2 Concentration: 0.78 ppm[0m

[0;32mI (183689) GPS: Received: $GPRMC,090709.00,A,2059.84455,N,10553.21191,E,0.869,,280624,,,A*74
$GPVTG,,T,,M,0.869,N,1.609,K,A*2A
$GPGGA,090709.00,2059.84455,N,10553.21191,E,1,04,2.87,17.4,M,-23.3,M,,*41
$GPGSA,A,3,29,13,24,15,,,,,,,,,3.84,2.87,2.55*09
$GPGSV,3,1,12,05,21,077,,10,06,295,,12,01,156,,13,15,037,28*7F
$GPGSV,3,2,12,15,43,024,30,18,65,331,15,20,05,098,,23,30,319,*7D
$GPGSV,3,3,12,24,60,124,25,25,01,184,,29,30,205,13,32,12,238,*77
$GPGLL,2059.84455,N,10553.21191,E,090709.00,A,A*60
[0m
[0;32mI (183739) GPS: UTC Time: 090709.00, Latitude: 20.997410, Longitude: 105.886864[0m
[0;32mI (185409) Transmit UART: Encoded and sent data over UART.[0m
=== Reading Node number 2 ===
[0;32mI (188749) PMS7003: PM1.0: 18 µg/m³[0m
[0;32mI (188749) PMS7003: PM2.5: 25 µg/m³[0m
[0;32mI (188749) PMS7003: PM10: 26 µg/m³[0m
[0;32mI (188749) DHT22: Hum 35.6[0m
[0;32mI (188749) DHT22: Tmp 31.6[0m
[0;32mI (188759) MQ131: MQ131 - O3 Concentration: 631654296015678004493549568000.00 ppb[0m
[0;32mI (188759) MQ136: MQ136 - SO2 Concentration: 24.24 ppm[0m

[0;32mI (188769) MICS6814: MICS6814 - CO Concentration: 77.00 ppm[0m
[0;32mI (188779) MICS6814: MICS6814 - NO2 Concentration: 0.82 ppm[0m

[0;32mI (188779) GPS: Received: $GPRMC,090714.00,A,2059.84469,N,10553.21304,E,0.961,,280624,,,A*70
$GPVTG,,T,,M,0.961,N,1.779,K,A*25
$GPGGA,090714.00,2059.84469,N,10553.21304,E,1,04,2.87,17.3,M,-23.3,M,,*4B
$GPGSA,A,3,29,13,24,15,,,,,,,,,3.84,2.87,2.55*09
$GPGSV,3,1,12,05,21,077,,10,06,295,,12,01,156,,13,15,037,28*7F
$GPGSV,3,2,12,15,43,024,29,18,65,331,14,20,05,098,,23,30,319,*74
$GPGSV,3,3,12,24,60,124,25,25,01,184,,29,30,205,11,32,12,238,*75
$GPGLL,2059.84469,N,10553.21304,E,090714.00,A,A*6D
[0m
[0;32mI (188829) GPS: UTC Time: 090714.00, Latitude: 20.997412, Longitude: 105.886887[0m
[0;32mI (190409) Transmit UART: Encoded and sent data over UART.[0m
[0;31mE (192369) DHT: Sensor Timeout
[0m
=== Reading Node number 2 ===
[0;32mI (193839) PMS7003: PM1.0: 18 µg/m³[0m
[0;32mI (193839) PMS7003: PM2.5: 23 µg/m³[0m
[0;32mI (193839) PMS7003: PM10: 24 µg/m³[0m
[0;32mI (193839) DHT22: Hum 35.6[0m
[0;32mI (193839) DHT22: Tmp 31.7[0m
[0;32mI (193849) MQ131: MQ131 - O3 Concentration: 631654296015678004493549568000.00 ppb[0m
[0;32mI (193849) MQ136: MQ136 - SO2 Concentration: 24.05 ppm[0m

[0;32mI (193859) MICS6814: MICS6814 - CO Concentration: 1679.00 ppm[0m
[0;32mI (193869) MICS6814: MICS6814 - NO2 Concentration: 0.68 ppm[0m

[0;32mI (193869) GPS: Received: $GPRMC,090719.00,A,2059.84459,N,10553.21390,E,0.641,,280624,,,A*7E
$GPVTG,,T,,M,0.641,N,1.186,K,A*2E
$GPGGA,090719.00,2059.84459,N,10553.21390,E,1,04,2.88,17.4,M,-23.3,M,,*40
$GPGSA,A,3,29,13,24,15,,,,,,,,,3.84,2.88,2.55*06
$GPGSV,3,1,12,05,21,077,,10,06,295,,12,01,156,,13,15,037,29*7E
$GPGSV,3,2,12,15,43,024,30,18,65,331,12,20,05,098,,23,30,319,*7A
$GPGSV,3,3,12,24,60,124,25,25,01,184,,29,30,205,11,32,12,238,*75
$GPGLL,2059.84459,N,10553.21390,E,090719.00,A,A*6E
[0m
[0;32mI (193919) GPS: UTC Time: 090719.00, Latitude: 20.997410, Longitude: 105.886902[0m
[0;32mI (195409) Transmit UART: Encoded and sent data over UART.[0m
=== Reading Node number 2 ===
[0;32mI (198929) PMS7003: PM1.0: 17 µg/m³[0m
[0;32mI (198929) PMS7003: PM2.5: 20 µg/m³[0m
[0;32mI (198929) PMS7003: PM10: 21 µg/m³[0m
[0;32mI (198929) DHT22: Hum 35.6[0m
[0;32mI (198929) DHT22: Tmp 31.8[0m
[0;32mI (198939) MQ131: MQ131 - O3 Concentration: 631654296015678004493549568000.00 ppb[0m
[0;32mI (198939) MQ136: MQ136 - SO2 Concentration: 24.10 ppm[0m

[0;32mI (198949) MICS6814: MICS6814 - CO Concentration: 85.00 ppm[0m
[0;32mI (198959) MICS6814: MICS6814 - NO2 Concentration: 0.83 ppm[0m

[0;32mI (198959) GPS: Received: $GPRMC,090724.00,A,2059.84495,N,10553.21500,E,0.864,,280624,,,A*76
$GPVTG,,T,,M,0.864,N,1.599,K,A*2D
$GPGGA,090724.00,2059.84495,N,10553.21500,E,1,04,2.88,17.4,M,-23.3,M,,*41
$GPGSA,A,3,29,13,24,15,,,,,,,,,3.84,2.88,2.54*07
$GPGSV,3,1,12,05,21,077,,10,06,295,,12,01,156,,13,15,037,28*7F
$GPGSV,3,2,12,15,43,024,31,18,65,331,11,20,05,098,,23,30,319,*78
$GPGSV,3,3,12,24,60,124,24,25,01,184,,29,30,205,08,32,12,238,*7C
$GPGLL,2059.84495,N,10553.21500,E,090724.00,A,A*6F
[0m
[0;32mI (199009) GPS: UTC Time: 090724.00, Latitude: 20.997416, Longitude: 105.886917[0m
[0;32mI (200409) Transmit UART: Encoded and sent data over UART.[0m
=== Reading Node number 2 ===
[0;32mI (204019) PMS7003: PM1.0: 18 µg/m³[0m
[0;32mI (204019) PMS7003: PM2.5: 21 µg/m³[0m
[0;32mI (204019) PMS7003: PM10: 22 µg/m³[0m
[0;32mI (204019) DHT22: Hum 35.7[0m
[0;32mI (204019) DHT22: Tmp 31.8[0m
[0;32mI (204029) MQ131: MQ131 - O3 Concentration: 631654296015678004493549568000.00 ppb[0m
[0;32mI (204029) MQ136: MQ136 - SO2 Concentration: 24.40 ppm[0m

[0;32mI (204039) MICS6814: MICS6814 - CO Concentration: 837.00 ppm[0m
[0;32mI (204049) MICS6814: MICS6814 - NO2 Concentration: 0.58 ppm[0m

[0;32mI (204049) GPS: Received: $GPRMC,090729.00,A,2059.84498,N,10553.21627,E,1.055,,280624,,,A*7B
$GPVTG,,T,,M,1.055,N,1.953,K,A*2C
$GPGGA,090729.00,2059.84498,N,10553.21627,E,1,04,2.88,17.4,M,-23.3,M,,*47
$GPGSA,A,3,29,13,24,15,,,,,,,,,3.84,2.88,2.54*07
$GPGSV,3,1,12,05,21,077,,10,06,295,,12,01,156,,13,15,037,28*7F
$GPGSV,3,2,12,15,43,024,31,18,65,331,09,20,05,098,,23,30,319,*71
$GPGSV,3,3,12,24,60,124,24,25,01,184,,29,30,205,09,32,12,238,*7D
$GPGLL,2059.84498,N,10553.21627,E,090729.00,A,A*69
[0m
[0;32mI (204099) GPS: UTC Time: 090729.00, Latitude: 20.997416, Longitude: 105.886940[0m
[0;31mE (204619) DHT: CheckSum error
[0m
[0;32mI (205409) Transmit UART: Encoded and sent data over UART.[0m
=== Reading Node number 2 ===
[0;32mI (209109) PMS7003: PM1.0: 19 µg/m³[0m
[0;32mI (209109) PMS7003: PM2.5: 22 µg/m³[0m
[0;32mI (209109) PMS7003: PM10: 23 µg/m³[0m
[0;32mI (209109) DHT22: Hum 35.7[0m
[0;32mI (209109) DHT22: Tmp 31.8[0m
[0;32mI (209119) MQ131: MQ131 - O3 Concentration: 631654296015678004493549568000.00 ppb[0m
[0;32mI (209119) MQ136: MQ136 - SO2 Concentration: 24.40 ppm[0m

[0;32mI (209129) MICS6814: MICS6814 - CO Concentration: 954.00 ppm[0m
[0;32mI (209139) MICS6814: MICS6814 - NO2 Concentration: 0.54 ppm[0m

[0;32mI (209139) GPS: Received: 2059.84496,N,10553.21783,E,1,04,2.89,17.6,M,-23.3,M,,*49
$GPGSA,A,3,29,13,24,15,,,,,,,,,3.85,2.89,2.54*07
$GPGSV,3,1,12,05,21,077,,10,06,295,,12,01,156,,13,15,037,29*7E
$GPGSV,3,2,12,15,43,024,31,18,65,331,,20,05,098,,23,30,319,*78
$GPGSV,3,3,12,24,60,124,24,25,01,184,,29,30,205,08,32,12,238,*7C
$GPGLL,2059.84496,N,10553.21783,E,090734.00,A,A*64
$GPRMC,090735.00,A,2059.84504,N,10553.21839,E,1.230,,280624,,,A*72
$GPVTG,,T,,M,1.230,N,2.277,K,A*23
$GPGGA,090735.00,[0m
[0;32mI (209189) GPS: UTC Time: 090730.00, Latitude: 20.997417, Longitude: 105.886940[0m
[0;32mI (210409) Transmit UART: Encoded and sent data over UART.[0m
[0;31mE (210769) DHT: Sensor Timeout
[0m
=== Reading Node number 2 ===
[0;32mI (214199) PMS7003: PM1.0: 19 µg/m³[0m
[0;32mI (214199) PMS7003: PM2.5: 23 µg/m³[0m
[0;32mI (214199) PMS7003: PM10: 25 µg/m³[0m
[0;32mI (214199) DHT22: Hum 35.7[0m
[0;32mI (214199) DHT22: Tmp 31.8[0m
[0;32mI (214209) MQ131: MQ131 - O3 Concentration: 631654296015678004493549568000.00 ppb[0m
[0;32mI (214209) MQ136: MQ136 - SO2 Concentration: 24.40 ppm[0m

[0;32mI (214219) MICS6814: MICS6814 - CO Concentration: 54.00 ppm[0m
[0;32mI (214229) MICS6814: MICS6814 - NO2 Concentration: 0.57 ppm[0m

[0;32mI (214229) GPS: Received: 2,05,21,077,,10,06,295,,12,01,156,,13,15,037,29*7E
$GPGSV,3,2,12,15,43,024,30,18,65,331,,20,05,098,,23,30,319,*79
$GPGSV,3,3,12,24,60,124,25,25,01,184,,29,30,205,12,32,12,238,*76
$GPGLL,2059.84486,N,10553.21916,E,090739.00,A,A*6A
$GPRMC,090740.00,A,2059.84480,N,10553.21884,E,0.466,,280624,,,A*7F
$GPVTG,,T,,M,0.466,N,0.862,K,A*2B
$GPGGA,090740.00,2059.84480,N,10553.21884,E,1,04,2.89,17.6,M,-23.3,M,,*45
$GPGSA,A,3,29,13,24,15,,,,,,,,,3.85,2.89,2.54*07
$GPGSV,3,1,1[0m
[0;32mI (214279) GPS: UTC Time: 090730.00, Latitude: 20.997417, Longitude: 105.886940[0m
[0;32mI (215409) Transmit UART: Encoded and sent data over UART.[0m
=== Reading Node number 2 ===
[0;32mI (219289) PMS7003: PM1.0: 18 µg/m³[0m
[0;32mI (219289) PMS7003: PM2.5: 24 µg/m³[0m
[0;32mI (219289) PMS7003: PM10: 27 µg/m³[0m
[0;32mI (219289) DHT22: Hum 35.7[0m
[0;32mI (219289) DHT22: Tmp 31.8[0m
[0;32mI (219299) MQ131: MQ131 - O3 Concentration: 631654296015678004493549568000.00 ppb[0m
[0;32mI (219299) MQ136: MQ136 - SO2 Concentration: 24.05 ppm[0m

[0;32mI (219309) MICS6814: MICS6814 - CO Concentration: 2109.00 ppm[0m
[0;32mI (219319) MICS6814: MICS6814 - NO2 Concentration: 0.67 ppm[0m

[0;32mI (219319) GPS: Received: 78
$GPGSV,3,3,12,24,60,124,26,25,01,184,,29,30,205,07,32,12,238,*71
$GPGLL,2059.84428,N,10553.21834,E,090744.00,A,A*65
$GPRMC,090745.00,A,2059.84423,N,10553.21818,E,0.203,,280624,,,A*73
$GPVTG,,T,,M,0.203,N,0.375,K,A*23
$GPGGA,090745.00,2059.84423,N,10553.21818,E,1,06,2.90,17.6,M,-23.3,M,,*46
$GPGSA,A,3,05,23,29,13,24,15,,,,,,,3.85,2.90,2.53*0C
$GPGSV,3,1,12,05,21,077,14,10,06,295,,12,01,156,,13,15,037,30*73
$GPGSV,3,2,12,15,43,024,32,18,65,331,,20,05,098,,23,30,319,13*[0m
