ets Jul 29 2019 12:21:46

rst:0x1 (POWERON_RESET),boot:0x13 (SPI_FAST_FLASH_BOOT)
configsip: 0, SPIWP:0xee
clk_drv:0x00,q_drv:0x00,d_drv:0x00,cs0_drv:0x00,hd_drv:0x00,wp_drv:0x00
mode:DIO, clock div:2
load:0x3fff0030,len:7172
load:0x40078000,len:15540
load:0x40080400,len:4
ho 8 tail 4 room 4
load:0x40080404,len:3904
entry 0x40080640
[0;32mI (31) boot: ESP-IDF v5.2.1-dirty 2nd stage bootloader[0m
[0;32mI (31) boot: compile time Jun 28 2024 03:55:22[0m
[0;32mI (31) boot: Multicore bootloader[0m
[0;32mI (36) boot: chip revision: v3.1[0m
[0;32mI (40) boot.esp32: SPI Speed      : 40MHz[0m
[0;32mI (44) boot.esp32: SPI Mode       : DIO[0m
[0;32mI (49) boot.esp32: SPI Flash Size : 2MB[0m
[0;32mI (53) boot: Enabling RNG early entropy source...[0m
[0;32mI (59) boot: Partition Table:[0m
[0;32mI (62) boot: ## Label            Usage          Type ST Offset   Length[0m
[0;32mI (70) boot:  0 nvs              WiFi data        01 02 00009000 00006000[0m
[0;32mI (77) boot:  1 phy_init         RF data          01 01 0000f000 00001000[0m
[0;32mI (85) boot:  2 factory          factory app      00 00 00010000 00100000[0m
[0;32mI (92) boot: End of partition table[0m
[0;32mI (96) esp_image: segment 0: paddr=00010020 vaddr=3f400020 size=0d898h ( 55448) map[0m
[0;32mI (124) esp_image: segment 1: paddr=0001d8c0 vaddr=3ffb0000 size=02694h (  9876) load[0m
[0;32mI (128) esp_image: segment 2: paddr=0001ff5c vaddr=40080000 size=000bch (   188) load[0m
[0;32mI (130) esp_image: segment 3: paddr=00020020 vaddr=400d0020 size=21d5ch (138588) map[0m
[0;32mI (186) esp_image: segment 4: paddr=00041d84 vaddr=400800bc size=0ea08h ( 59912) load[0m
[0;32mI (217) boot: Loaded app from partition at offset 0x10000[0m
[0;32mI (217) boot: Disabling RNG early entropy source...[0m
[0;32mI (228) cpu_start: Multicore app[0m
[0;32mI (237) cpu_start: Pro cpu start user code[0m
[0;32mI (237) cpu_start: cpu freq: 160000000 Hz[0m
[0;32mI (237) cpu_start: Application information:[0m
[0;32mI (240) cpu_start: Project name:     NODE[0m
[0;32mI (245) cpu_start: App version:      1[0m
[0;32mI (249) cpu_start: Compile time:     Jun 28 2024 03:55:09[0m
[0;32mI (255) cpu_start: ELF file SHA256:  6c189cbb6...[0m
[0;32mI (261) cpu_start: ESP-IDF:          v5.2.1-dirty[0m
[0;32mI (266) cpu_start: Min chip rev:     v0.0[0m
[0;32mI (271) cpu_start: Max chip rev:     v3.99 [0m
[0;32mI (275) cpu_start: Chip rev:         v3.1[0m
[0;32mI (280) heap_init: Initializing. RAM available for dynamic allocation:[0m
[0;32mI (288) heap_init: At 3FFAE6E0 len 00001920 (6 KiB): DRAM[0m
[0;32mI (293) heap_init: At 3FFB3690 len 0002C970 (178 KiB): DRAM[0m
[0;32mI (300) heap_init: At 3FFE0440 len 00003AE0 (14 KiB): D/IRAM[0m
[0;32mI (306) heap_init: At 3FFE4350 len 0001BCB0 (111 KiB): D/IRAM[0m
[0;32mI (313) heap_init: At 4008EAC4 len 0001153C (69 KiB): IRAM[0m
[0;32mI (320) spi_flash: detected chip: generic[0m
[0;32mI (323) spi_flash: flash io: dio[0m
[0;33mW (327) spi_flash: Detected size(4096k) larger than the size in the binary image header(2048k). Using the size in the binary image header.[0m
[0;33mW (340) ADC: legacy driver is deprecated, please migrate to `esp_adc/adc_oneshot.h`[0m
[0;32mI (349) main_task: Started on CPU0[0m
[0;32mI (359) main_task: Calling app_main()[0m
[0;32mI (359) gpio: GPIO[18]| InputEn: 1| OutputEn: 0| OpenDrain: 0| Pullup: 1| Pulldown: 0| Intr:0 [0m
[0;32mI (359) gpio: GPIO[19]| InputEn: 0| OutputEn: 1| OpenDrain: 0| Pullup: 1| Pulldown: 0| Intr:0 [0m
Sending message: Hiiiii!
[0;32mI (389) gpio: GPIO[4]| InputEn: 0| OutputEn: 0| OpenDrain: 0| Pullup: 1| Pulldown: 0| Intr:0 [0m
[0;32mI (389) gpio: GPIO[5]| InputEn: 0| OutputEn: 0| OpenDrain: 0| Pullup: 1| Pulldown: 0| Intr:0 [0m
[0;32mI (2399) Transmit UART: Encoded and sent data over UART.[0m
[0;32mI (2399) gpio: GPIO[2]| InputEn: 0| OutputEn: 0| OpenDrain: 0| Pullup: 1| Pulldown: 0| Intr:0 [0m
=== Reading Node number 5 ===
[0;32mI (2409) PMS7003: PM1.0: 15 µg/m³[0m
[0;32mI (2409) PMS7003: PM2.5: 25 µg/m³[0m
[0;32mI (2409) PMS7003: PM10: 40 µg/m³[0m
[0;32mI (2409) DHT22: Hum 34.9[0m
[0;32mI (2419) DHT22: Tmp 33.5[0m
[0;32mI (2419) MQ131: MQ131 - O3 Concentration: 39.34 ppb[0m
[0;32mI (2429) MQ136: MQ136 - SO2 Concentration: 25.25 ppm[0m

[0;32mI (2429) MICS6814: MICS6814 - CO Concentration: 1562.00 ppm[0m
[0;32mI (2439) MICS6814: MICS6814 - NO2 Concentration: 3.72 ppm[0m

[0;32mI (2439) GPS: Received: $GPRMC,084333.00,A,2059.83733,N,10553.22218,E,0.760,,290624,,,A*7E
$GPVTG,,T,,M,0.760,N,1.407,K,A*20
$GPGGA,084333.00,2059.83733,N,10553.22218,E,1,05,1.64,20.4,M,-23.3,M,,*47
$GPGSA,A,3,15,05,23,24,13,,,,,,,,3.43,1.64,3.02*00
$GPGSV,3,1,11,05,24,068,16,10,03,287,,11,02,135,08,12,00,163,19*7C
$GPGSV,3,2,11,13,22,035,21,15,51,018,09,20,09,090,,23,26,310,09*73
$GPGSV,3,3,11,24,54,139,18,25,00,191,,32,06,232,*46
$GPGLL,2059.83733,N,10553.22218,E,084333.00,A,A*6D
$GPRMC,084334.00,A,2059.83683,N,10553.22379,E,1.536,,290624,,,A*75
$GPVTG,,T,,M,1.536,N,2.846,K,A*2A
$GPGGA,084334.00,2059.83683,N,10553.22379,E,1,05,4.85,20.4,M,-23.3,M,,*46
$GPGSA,A,3,15,05,23,24,13,,,,,,,,12.98,4.85,12.04*0A
$GPGSV,3,1,11,05,24,068,19,10,03,287,,11,02,135,08,12,00,163,17*7D
$GPGSV,3,2,11,13,22,035,24,15,51,018,09,20,09,090,,23,26,310,09*76
$GPGSV,3,3,11,24,54,139,21,25,00,191,,32,06,232,*4C
$GPGLL,2059.83683,N,10553.22379,E,084334.00,A,A*66
[0m
[0;32mI (2529) GPS: UTC Time: 084333.00, Latitude: 20.997290, Longitude: 105.887039[0m
[0;32mI (2539) SSD1306: INTERFACE is i2c[0m
[0;32mI (2539) SSD1306: CONFIG_SDA_GPIO=21[0m
[0;32mI (2549) SSD1306: CONFIG_SCL_GPIO=22[0m
[0;32mI (2549) SSD1306: CONFIG_RESET_GPIO=33[0m
[0;32mI (2559) SSD1306: New i2c driver is used[0m
[0;32mI (2559) gpio: GPIO[21]| InputEn: 1| OutputEn: 1| OpenDrain: 1| Pullup: 1| Pulldown: 0| Intr:0 [0m
[0;32mI (2569) gpio: GPIO[22]| InputEn: 1| OutputEn: 1| OpenDrain: 1| Pullup: 1| Pulldown: 0| Intr:0 [0m
[0;32mI (2579) gpio: GPIO[33]| InputEn: 0| OutputEn: 0| OpenDrain: 0| Pullup: 1| Pulldown: 0| Intr:0 [0m
[0;32mI (2589) main_task: Returned from app_main()[0m
[0;32mI (2639) SSD1306: Panel is 128x64[0m
[0;32mI (2639) SSD1306: OLED configured successfully[0m
[0;32mI (2899) RX_TASK: Read 6 bytes: C000051F06C7[0m
[0;32mI (7399) Transmit UART: Encoded and sent data over UART.[0m
=== Reading Node number 5 ===
[0;32mI (7539) PMS7003: PM1.0: 16 µg/m³[0m
[0;32mI (7539) PMS7003: PM2.5: 22 µg/m³[0m
[0;32mI (7539) PMS7003: PM10: 23 µg/m³[0m
[0;32mI (7539) DHT22: Hum 34.9[0m
[0;32mI (7539) DHT22: Tmp 33.5[0m
[0;32mI (7549) MQ131: MQ131 - O3 Concentration: 631654296015678004493549568000.00 ppb[0m
[0;32mI (7549) MQ136: MQ136 - SO2 Concentration: 24.97 ppm[0m

[0;32mI (7559) MICS6814: MICS6814 - CO Concentration: 1.00 ppm[0m
[0;32mI (7569) MICS6814: MICS6814 - NO2 Concentration: 4.02 ppm[0m

[0;32mI (7569) GPS: Received: $GPRMC,084339.00,A,2059.83558,N,10553.23084,E,3.588,99.41,290624,,,A*51
$GPVTG,99.41,T,,M,3.588,N,6.644,K,A*0E
$GPGGA,084339.00,2059.83558,N,10553.23084,E,1,05,4.86,20.5,M,-23.3,M,,*4C
$GPGSA,A,3,15,05,23,24,13,,,,,,,,12.98,4.86,12.04*09
$GPGSV,3,1,11,05,24,068,20,10,03,287,,11,02,135,,12,00,163,08*71
$GPGSV,3,2,11,13,22,035,26,15,51,018,16,20,09,090,,23,26,310,09*7A
$GPGSV,3,3,11,24,54,139,24,25,00,191,,32,06,232,*49
$GPGLL,2059.83558,N,10553.23084,E,084339.00,A,A*6E
[0m
[0;32mI (7619) GPS: UTC Time: 084339.00, Latitude: 20.997259, Longitude: 105.887184[0m
[0;32mI (12399) Transmit UART: Encoded and sent data over UART.[0m
=== Reading Node number 5 ===
[0;32mI (12629) PMS7003: PM1.0: 16 µg/m³[0m
[0;32mI (12629) PMS7003: PM2.5: 22 µg/m³[0m
[0;32mI (12629) PMS7003: PM10: 23 µg/m³[0m
[0;32mI (12629) DHT22: Hum 34.8[0m
[0;32mI (12629) DHT22: Tmp 33.5[0m
[0;32mI (12639) MQ131: MQ131 - O3 Concentration: 631654296015678004493549568000.00 ppb[0m
[0;32mI (12639) MQ136: MQ136 - SO2 Concentration: 26.09 ppm[0m

[0;32mI (12649) MICS6814: MICS6814 - CO Concentration: 1.00 ppm[0m
[0;32mI (12659) MICS6814: MICS6814 - NO2 Concentration: 3.12 ppm[0m

[0;32mI (12659) GPS: Received: $GPRMC,084344.00,A,2059.83566,N,10553.23400,E,2.712,96.79,290624,,,A*5A
$GPVTG,96.79,T,,M,2.712,N,5.023,K,A*0E
$GPGGA,084344.00,2059.83566,N,10553.23400,E,1,04,6.29,21.1,M,-23.3,M,,*40
$GPGSA,A,3,15,05,24,13,,,,,,,,,10.57,6.29,8.50*34
$GPGSV,3,1,11,05,24,068,20,10,03,287,,11,02,135,,12,00,163,*79
$GPGSV,3,2,11,13,22,035,25,15,51,018,12,20,09,090,,23,26,310,06*72
$GPGSV,3,3,11,24,54,139,23,25,00,191,,32,06,232,*4E
$GPGLL,2059.83566,N,10553.23400,E,084344.00,A,A*61
[0m
[0;32mI (12709) GPS: UTC Time: 084344.00, Latitude: 20.997261, Longitude: 105.887230[0m
[0;32mI (17399) Transmit UART: Encoded and sent data over UART.[0m
[0;31mE (17719) DHT: Sensor Timeout
[0m
=== Reading Node number 5 ===
[0;32mI (17719) PMS7003: PM1.0: 15 µg/m³[0m
[0;32mI (17719) PMS7003: PM2.5: 21 µg/m³[0m
[0;32mI (17729) PMS7003: PM10: 21 µg/m³[0m
[0;32mI (17729) DHT22: Hum 34.8[0m
[0;32mI (17739) DHT22: Tmp 33.5[0m
[0;32mI (17739) MQ131: MQ131 - O3 Concentration: 631654296015678004493549568000.00 ppb[0m
[0;32mI (17749) MQ136: MQ136 - SO2 Concentration: 26.46 ppm[0m

[0;32mI (17749) MICS6814: MICS6814 - CO Concentration: 3999.00 ppm[0m
[0;32mI (17759) MICS6814: MICS6814 - NO2 Concentration: 3.11 ppm[0m

[0;32mI (17769) GPS: Received: $GPRMC,084349.00,A,2059.83596,N,10553.23405,E,1.632,,290624,,,A*72
$GPVTG,,T,,M,1.632,N,3.022,K,A*26
$GPGGA,084349.00,2059.83596,N,10553.23405,E,1,04,6.29,21.5,M,-23.3,M,,*43
$GPGSA,A,3,15,05,24,13,,,,,,,,,10.57,6.29,8.49*3C
$GPGSV,3,1,11,05,24,068,16,10,03,288,,11,02,135,,12,00,163,*73
$GPGSV,3,2,11,13,22,035,25,15,51,018,12,20,09,090,,23,26,310,*74
$GPGSV,3,3,11,24,54,139,26,25,00,191,,32,06,232,20*49
$GPGLL,2059.83596,N,10553.23405,E,084349.00,A,A*66
[0m
[0;32mI (17809) GPS: UTC Time: 084349.00, Latitude: 20.997267, Longitude: 105.887238[0m
[0;32mI (22399) Transmit UART: Encoded and sent data over UART.[0m
=== Reading Node number 5 ===
[0;32mI (22819) PMS7003: PM1.0: 15 µg/m³[0m
[0;32mI (22819) PMS7003: PM2.5: 19 µg/m³[0m
[0;32mI (22819) PMS7003: PM10: 20 µg/m³[0m
[0;32mI (22829) DHT22: Hum 34.8[0m
[0;32mI (22829) DHT22: Tmp 33.5[0m
[0;32mI (22829) MQ131: MQ131 - O3 Concentration: 631654296015678004493549568000.00 ppb[0m
[0;32mI (22839) MQ136: MQ136 - SO2 Concentration: 26.63 ppm[0m

[0;32mI (22849) MICS6814: MICS6814 - CO Concentration: 146.00 ppm[0m
[0;32mI (22849) MICS6814: MICS6814 - NO2 Concentration: 2.89 ppm[0m

[0;32mI (22859) GPS: Received: $GPRMC,084354.00,A,2059.83690,N,10553.23411,E,1.416,,290624,,,A*7A
$GPVTG,,T,,M,1.416,N,2.622,K,A*25
$GPGGA,084354.00,2059.83690,N,10553.23411,E,1,04,6.29,21.7,M,-23.3,M,,*4D
$GPGSA,A,3,15,05,24,13,,,,,,,,,10.56,6.29,8.48*3C
$GPGSV,3,1,11,05,24,068,18,10,03,288,,11,02,135,,12,00,163,*7D
$GPGSV,3,2,11,13,22,035,24,15,50,018,10,20,09,090,,23,26,310,*76
$GPGSV,3,3,11,24,54,139,26,25,00,191,,32,06,232,15*4F
$GPGLL,2059.83690,N,10553.23411,E,084354.00,A,A*6A
[0m
[0;32mI (22899) GPS: UTC Time: 084354.00, Latitude: 20.997282, Longitude: 105.887238[0m
[0;32mI (27399) Transmit UART: Encoded and sent data over UART.[0m
=== Reading Node number 5 ===
[0;32mI (27909) PMS7003: PM1.0: 14 µg/m³[0m
[0;32mI (27909) PMS7003: PM2.5: 18 µg/m³[0m
[0;32mI (27909) PMS7003: PM10: 19 µg/m³[0m
[0;32mI (27909) DHT22: Hum 34.8[0m
[0;32mI (27909) DHT22: Tmp 33.5[0m
[0;32mI (27919) MQ131: MQ131 - O3 Concentration: 631654296015678004493549568000.00 ppb[0m
[0;32mI (27919) MQ136: MQ136 - SO2 Concentration: 26.66 ppm[0m

[0;32mI (27929) MICS6814: MICS6814 - CO Concentration: 1.00 ppm[0m
[0;32mI (27939) MICS6814: MICS6814 - NO2 Concentration: 3.03 ppm[0m

[0;32mI (27939) GPS: Received: $GPRMC,084359.00,A,2059.83785,N,10553.22899,E,0.896,,290624,,,A*7A
$GPVTG,,T,,M,0.896,N,1.660,K,A*25
$GPGGA,084359.00,2059.83785,N,10553.22899,E,1,05,6.29,21.8,M,-23.3,M,,*46
$GPGSA,A,3,15,05,23,24,13,,,,,,,,10.56,6.29,8.48*3D
$GPGSV,3,1,11,05,24,068,17,10,03,288,,11,02,135,,12,00,163,*72
$GPGSV,3,2,11,13,22,035,23,15,50,018,09,20,09,090,18,23,26,310,12*73
$GPGSV,3,3,11,24,54,139,25,25,00,191,,32,06,232,09*41
$GPGLL,2059.83785,N,10553.22899,E,084359.00,A,A*6F
[0m
[0;32mI (27989) GPS: UTC Time: 084359.00, Latitude: 20.997297, Longitude: 105.887154[0m
[0;32mI (32419) Transmit UART: Encoded and sent data over UART.[0m
=== Reading Node number 5 ===
[0;32mI (32999) PMS7003: PM1.0: 13 µg/m³[0m
[0;32mI (32999) PMS7003: PM2.5: 19 µg/m³[0m
[0;32mI (32999) PMS7003: PM10: 19 µg/m³[0m
[0;32mI (32999) DHT22: Hum 34.8[0m
[0;32mI (32999) DHT22: Tmp 33.5[0m
[0;32mI (33009) MQ131: MQ131 - O3 Concentration: 631654296015678004493549568000.00 ppb[0m
[0;32mI (33009) MQ136: MQ136 - SO2 Concentration: 26.34 ppm[0m

[0;32mI (33019) MICS6814: MICS6814 - CO Concentration: 1.00 ppm[0m
[0;32mI (33029) MICS6814: MICS6814 - NO2 Concentration: 3.17 ppm[0m

[0;32mI (33029) GPS: Received: 2059.83864,N,10553.22558,E,1,04,6.29,22.2,M,-23.3,M,,*41
$GPGSA,A,3,15,05,24,13,,,,,,,,,10.55,6.29,8.47*30
$GPGSV,3,1,11,05,24,068,20,10,03,288,,11,02,135,,12,00,163,*76
$GPGSV,3,2,11,13,22,035,22,15,50,018,15,20,09,090,16,23,26,311,07*74
$GPGSV,3,3,11,24,54,139,24,25,00,190,08,32,06,232,*40
$GPGLL,2059.83864,N,10553.22558,E,084404.00,A,A*60
$GPRMC,084405.00,A,2059.83887,N,10553.22496,E,0.579,,290624,,,A*76
$GPVTG,,T,,M,0.579,N,1.072,K,A*2C
$GPGGA,084405.00, GPRMC,084404.00,A,2059.83864,N,10553.22558,E,0.484,,290624,,,A*7A
$GPVTG,,T,,M,0.484,N,0.897,K,A*2D
$GPGGA,084404.00,[0m
[0;32mI (33089) GPS: UTC Time: 084403.00, Latitude: 20.997307, Longitude: 105.887077[0m
[0;32mI (37419) Transmit UART: Encoded and sent data over UART.[0m
=== Reading Node number 5 ===
[0;32mI (38099) PMS7003: PM1.0: 14 µg/m³[0m
[0;32mI (38099) PMS7003: PM2.5: 19 µg/m³[0m
[0;32mI (38099) PMS7003: PM10: 20 µg/m³[0m
[0;32mI (38099) DHT22: Hum 34.8[0m
[0;32mI (38099) DHT22: Tmp 33.5[0m
[0;32mI (38109) MQ131: MQ131 - O3 Concentration: 631654296015678004493549568000.00 ppb[0m
[0;32mI (38109) MQ136: MQ136 - SO2 Concentration: 26.71 ppm[0m

[0;32mI (38119) MICS6814: MICS6814 - CO Concentration: 3046.00 ppm[0m
[0;32mI (38129) MICS6814: MICS6814 - NO2 Concentration: 2.95 ppm[0m

[0;32mI (38129) GPS: Received: 2059.83871,N,10553.22468,E,1,05,1.65,22.6,M,-23.3,M,,*40
$GPGSA,A,3,15,05,23,24,13,,,,,,,,3.44,1.65,3.02*06
$GPGSV,3,1,11,05,24,068,22,10,03,288,,11,02,135,03,12,00,163,*77
$GPGSV,3,2,11,13,22,035,23,15,50,018,14,20,09,090,19,23,26,311,11*7C
$GPGSV,3,3,11,24,54,139,24,25,00,190,07,32,06,232,*4F
$GPGLL,2059.83871,N,10553.22468,E,084409.00,A,A*6B
$GPRMC,084410.00,A,2059.83877,N,10553.22266,E,1.620,,290624,,,A*7A
$GPVTG,,T,,M,1.620,N,3.000,K,A*25
$GPGGA,084410.00,2059.83877,N,10553.22266,E,1,05,1.65,22.6,M,-23.3,M,,*46
$GPGSA,A,3,15,05,23,24,13,,,,,,,,3.44,1.65,3.02*06
$GPGSV,3,1 9.83683,N,10553.22379,E,1,05,4.85,20.4,M,-23.3,M,,*46
$GPGSA,A,3,15,05,23,24,13,,,,,,,,12.98,4.85,12.04*0A
$GPGSV,3,1,11,05,24,068,19,10,03,287,,11,02,135,08,12,00,163,17*7D
$GPGSV,3,2,11,13,22,035,24,15,51,018,09,20,09,090,,23,26,310,09*76
$GPGSV,3,3,11,24,54,139,21,25,00,191,,32,06,232,*4C
$GPGLL,2059.83683,N,10553.22379,E,084334.00,A,A*66
[0m
[0;32mI (38219) GPS: UTC Time: 084403.00, Latitude: 20.997307, Longitude: 105.887077[0m
[0;32mI (42419) Transmit UART: Encoded and sent data over UART.[0m
=== Reading Node number 5 ===
[0;32mI (43229) PMS7003: PM1.0: 15 µg/m³[0m
[0;32mI (43229) PMS7003: PM2.5: 19 µg/m³[0m
[0;32mI (43229) PMS7003: PM10: 19 µg/m³[0m
[0;32mI (43239) DHT22: Hum 34.8[0m
[0;32mI (43239) DHT22: Tmp 33.5[0m
[0;32mI (43239) MQ131: MQ131 - O3 Concentration: 631654296015678004493549568000.00 ppb[0m
[0;32mI (43249) MQ136: MQ136 - SO2 Concentration: 26.63 ppm[0m

[0;32mI (43259) MICS6814: MICS6814 - CO Concentration: 1.00 ppm[0m
[0;32mI (43259) MICS6814: MICS6814 - NO2 Concentration: 2.99 ppm[0m

[0;32mI (43269) GPS: Received: 
$GPGSV,3,1,11,05,24,068,16,10,03,288,,11,02,135,,12,00,163,*73
$GPGSV,3,2,11,13,22,035,24,15,50,018,22,20,09,090,18,23,26,311,08*77
$GPGSV,3,3,11,24,54,139,25,25,00,190,,32,06,232,*49
$GPGLL,2059.84005,N,10553.21768,E,084414.00,A,A*6B
$GPRMC,084415.00,A,2059.84039,N,10553.21570,E,4.460,292.28,290624,,,A*67
$GPVTG,292.28,T,,M,4.460,N,8.259,K,A*3E
$GPGGA,084415.00,2059.84039,N,10553.21570,E,1,05,1.65,22.5,M,-23.3,M,,*46
$GPGSA,A,3,15,05,23,24,13,,,,,,,,3.44,1.65,3.02*06[0m
[0;32mI (43319) GPS: UTC Time: 084403.00, Latitude: 20.997307, Longitude: 105.887077[0m
[0;31mE (44249) DHT: Sensor Timeout
[0m
[0;32mI (47419) Transmit UART: Encoded and sent data over UART.[0m
=== Reading Node number 5 ===
[0;32mI (48319) PMS7003: PM1.0: 15 µg/m³[0m
[0;32mI (48319) PMS7003: PM2.5: 20 µg/m³[0m
[0;32mI (48319) PMS7003: PM10: 20 µg/m³[0m
[0;32mI (48319) DHT22: Hum 34.8[0m
[0;32mI (48319) DHT22: Tmp 33.5[0m
[0;32mI (48329) MQ131: MQ131 - O3 Concentration: 631654296015678004493549568000.00 ppb[0m
[0;32mI (48329) MQ136: MQ136 - SO2 Concentration: 26.00 ppm[0m

[0;32mI (48339) MICS6814: MICS6814 - CO Concentration: 763.00 ppm[0m
[0;32mI (48349) MICS6814: MICS6814 - NO2 Concentration: 3.78 ppm[0m

[0;32mI (48349) GPS: Received: 3,26,311,08*71
$GPGSV,3,3,11,24,54,139,25,25,00,190,,32,06,232,*49
$GPGLL,2059.84111,N,10553.21178,E,084419.00,A,A*65
$GPRMC,084420.00,A,2059.84113,N,10553.21061,E,3.797,280.29,290624,,,A*63
$GPVTG,280.29,T,,M,3.797,N,7.032,K,A*30
$GPGGA,084420.00,2059.84113,N,10553.21061,E,1,05,1.66,21.9,M,-23.3,M,,*40
$GPGSA,A,3,15,05,23,24,13,,,,,,,,3.45,1.66,3.02*04
$GPGSV,3,1,11,05,24,068,17,10,03,288,,11,02,135,,12,00,163,*72
$GPGSV,3,2,11,13,22,035,22,15,50,018,23,20,09,090,17,2[0m
[0;32mI (48399) GPS: UTC Time: 084403.00, Latitude: 20.997307, Longitude: 105.887077[0m
[0;32mI (52419) Transmit UART: Encoded and sent data over UART.[0m
=== Reading Node number 5 ===
[0;32mI (53409) PMS7003: PM1.0: 16 µg/m³[0m
[0;32mI (53409) PMS7003: PM2.5: 20 µg/m³[0m
[0;32mI (53409) PMS7003: PM10: 20 µg/m³[0m
[0;32mI (53409) DHT22: Hum 34.8[0m
[0;32mI (53409) DHT22: Tmp 33.4[0m
[0;32mI (53419) MQ131: MQ131 - O3 Concentration: 631654296015678004493549568000.00 ppb[0m
[0;32mI (53419) MQ136: MQ136 - SO2 Concentration: 26.66 ppm[0m

[0;32mI (53429) MICS6814: MICS6814 - CO Concentration: 1.00 ppm[0m
[0;32mI (53439) MICS6814: MICS6814 - NO2 Concentration: 3.21 ppm[0m

[0;32mI (53439) GPS: Received: $GPRMC,084425.00,A,2059.84164,N,10553.20876,E,2.317,,290624,,,A*7B
$GPVTG,,T,,M,2.317,N,4.291,K,A*2A
$GPGGA,084425.00,2059.84164,N,10553.20876,E,1,05,6.30,21.2,M,-23.3,M,,*45
$GPGSA,A,3,15,05,23,24,13,,,,,,,,10.53,6.30,8.44*3C
$GPGSV,3,1,11,05,24,068,18,10,03,288,,11,02,135,,12,00,163,*7D
$GPGSV,3,2,11,13,22,035,23,15,50,018,25,20,09,090,16,23,26,311,08*79
$GPGSV,3,3,11,24,54,139,26,25,00,190,,32,06,232,*4A
$GPGLL,2059.84164,N,10553.20876,E,084425.00,A,A*6E
[0m
[0;32mI (53489) GPS: UTC Time: 084425.00, Latitude: 20.997360, Longitude: 105.886810[0m
[0;32mI (57419) Transmit UART: Encoded and sent data over UART.[0m
=== Reading Node number 5 ===
[0;32mI (58499) PMS7003: PM1.0: 14 µg/m³[0m
[0;32mI (58499) PMS7003: PM2.5: 18 µg/m³[0m
[0;32mI (58499) PMS7003: PM10: 18 µg/m³[0m
[0;32mI (58499) DHT22: Hum 34.8[0m
[0;32mI (58499) DHT22: Tmp 33.4[0m
[0;32mI (58509) MQ131: MQ131 - O3 Concentration: 631654296015678004493549568000.00 ppb[0m
[0;32mI (58509) MQ136: MQ136 - SO2 Concentration: 27.12 ppm[0m

[0;32mI (58519) MICS6814: MICS6814 - CO Concentration: 1.00 ppm[0m
[0;32mI (58529) MICS6814: MICS6814 - NO2 Concentration: 3.07 ppm[0m

[0;32mI (58529) GPS: Received: $GPRMC,084429.00,A,2059.84169,N,10553.20956,E,0.812,,290624,,,A*75
$GPVTG,,T,,M,0.812,N,1.504,K,A*28
$GPGGA,084429.00,2059.84169,N,10553.20956,E,1,05,6.30,21.0,M,-23.3,M,,*45
$GPGSA,A,3,15,05,23,24,13,,,,,,,,10.53,6.30,8.44*3C
$GPGSV,3,1,11,05,24,068,20,10,03,288,,11,02,135,08,12,00,163,*7E
$GPGSV,3,2,11,13,22,035,22,15,50,018,25,20,09,090,16,23,26,311,09*79
$GPGSV,3,3,11,24,54,139,26,25,00,190,,32,06,232,*4A
$GPGLL,2059.84150,N,10553.20971,E,084430.00,A,A*6B
[0m
[0;32mI (58579) GPS: UTC Time: 084430.00, Latitude: 20.997358, Longitude: 105.886826[0m
[0;32mI (62419) Transmit UART: Encoded and sent data over UART.[0m
=== Reading Node number 5 ===
[0;32mI (63589) PMS7003: PM1.0: 15 µg/m³[0m
[0;32mI (63589) PMS7003: PM2.5: 19 µg/m³[0m
[0;32mI (63589) PMS7003: PM10: 19 µg/m³[0m
[0;32mI (63589) DHT22: Hum 34.8[0m
[0;32mI (63589) DHT22: Tmp 33.4[0m
[0;32mI (63599) MQ131: MQ131 - O3 Concentration: 631654296015678004493549568000.00 ppb[0m
[0;32mI (63599) MQ136: MQ136 - SO2 Concentration: 26.74 ppm[0m

[0;32mI (63609) MICS6814: MICS6814 - CO Concentration: 132.00 ppm[0m
[0;32mI (63619) MICS6814: MICS6814 - NO2 Concentration: 3.05 ppm[0m

[0;32mI (63619) GPS: Received: $GPRMC,084434.00,A,2059.84166,N,10553.21121,E,0.608,,290624,,,A*7A
$GPVTG,,T,,M,0.608,N,1.126,K,A*29
$GPGGA,084434.00,2059.84166,N,10553.21121,E,1,05,1.66,20.9,M,-23.3,M,,*43
$GPGSA,A,3,15,05,23,24,13,,,,,,,,3.45,1.66,3.02*04
$GPGSV,3,1,11,05,24,068,20,10,03,288,,11,02,135,,12,00,163,*76
$GPGSV,3,2,11,13,22,035,22,15,50,018,24,20,09,090,15,23,26,311,09*7B
$GPGSV,3,3,11,24,54,139,25,25,00,190,,32,06,232,*49
$GPGLL,2059.84155,N,10553.21118,E,084435.00,A,A*6D
[0m
[0;32mI (63669) GPS: UTC Time: 084435.00, Latitude: 20.997358, Longitude: 105.886856[0m
[0;32mI (67419) Transmit UART: Encoded and sent data over UART.[0m
[0;31mE (67739) DHT: Sensor Timeout
[0m
=== Reading Node number 5 ===
[0;32mI (68679) PMS7003: PM1.0: 14 µg/m³[0m
[0;32mI (68679) PMS7003: PM2.5: 17 µg/m³[0m
[0;32mI (68679) PMS7003: PM10: 17 µg/m³[0m
[0;32mI (68679) DHT22: Hum 34.8[0m
[0;32mI (68679) DHT22: Tmp 33.4[0m
[0;32mI (68689) MQ131: MQ131 - O3 Concentration: 631654296015678004493549568000.00 ppb[0m
[0;32mI (68689) MQ136: MQ136 - SO2 Concentration: 27.50 ppm[0m

[0;32mI (68699) MICS6814: MICS6814 - CO Concentration: 3999.00 ppm[0m
[0;32mI (68709) MICS6814: MICS6814 - NO2 Concentration: 2.74 ppm[0m

[0;32mI (68709) GPS: Received: $GPRMC,084439.00,A,2059.84149,N,10553.21540,E,2.607,2.81,290624,,,A*61
$GPVTG,2.81,T,,M,2.607,N,4.828,K,A*33
$GPGGA,084439.00,2059.84149,N,10553.21540,E,1,05,1.66,21.1,M,-23.3,M,,*49
$GPGSA,A,3,15,05,23,24,13,,,,,,,,3.45,1.66,3.03*05
$GPGSV,3,1,11,05,24,068,21,10,03,288,,11,02,135,,12,00,163,*77
$GPGSV,3,2,11,13,22,035,23,15,50,018,25,20,09,090,17,23,26,311,09*79
$GPGSV,3,3,11,24,54,139,25,25,00,190,,32,06,232,*49
$GPGLL,2059.84149,N,10553.21540,E,084439.00,A,A*65
[0m
[0;32mI (68759) GPS: UTC Time: 084439.00, Latitude: 20.997358, Longitude: 105.886925[0m
[0;32mI (72419) Transmit UART: Encoded and sent data over UART.[0m
=== Reading Node number 5 ===
[0;32mI (73769) PMS7003: PM1.0: 14 µg/m³[0m
[0;32mI (73769) PMS7003: PM2.5: 17 µg/m³[0m
[0;32mI (73769) PMS7003: PM10: 17 µg/m³[0m
[0;32mI (73769) DHT22: Hum 34.8[0m
[0;32mI (73769) DHT22: Tmp 33.4[0m
[0;32mI (73779) MQ131: MQ131 - O3 Concentration: 631654296015678004493549568000.00 ppb[0m
[0;32mI (73779) MQ136: MQ136 - SO2 Concentration: 24.97 ppm[0m

[0;32mI (73789) MICS6814: MICS6814 - CO Concentration: 154.00 ppm[0m
[0;32mI (73799) MICS6814: MICS6814 - NO2 Concentration: 4.38 ppm[0m

[0;32mI (73799) GPS: Received: $GPRMC,084444.00,A,2059.84123,N,10553.21582,E,1.067,,290624,,,A*7F
$GPVTG,,T,,M,1.067,N,1.977,K,A*2B
$GPGGA,084444.00,2059.84123,N,10553.21582,E,1,04,6.30,21.2,M,-23.3,M,,*47
$GPGSA,A,3,15,05,24,13,,,,,,,,,10.52,6.30,8.42*3A
$GPGSV,3,1,11,05,24,068,20,10,03,288,,11,02,135,,12,00,163,*76
$GPGSV,3,2,11,13,22,035,22,15,50,018,24,20,09,090,14,23,26,311,*73
$GPGSV,3,3,11,24,54,139,23,25,00,190,,32,06,232,*4F
$GPGLL,2059.84123,N,10553.21582,E,084444.00,A,A*6D
[0m
[0;32mI (73849) GPS: UTC Time: 084444.00, Latitude: 20.997355, Longitude: 105.886932[0m
[0;32mI (77419) Transmit UART: Encoded and sent data over UART.[0m
=== Reading Node number 5 ===
[0;32mI (78859) PMS7003: PM1.0: 14 µg/m³[0m
[0;32mI (78859) PMS7003: PM2.5: 18 µg/m³[0m
[0;32mI (78859) PMS7003: PM10: 18 µg/m³[0m
[0;32mI (78859) DHT22: Hum 34.8[0m
[0;32mI (78859) DHT22: Tmp 33.4[0m
[0;32mI (78869) MQ131: MQ131 - O3 Concentration: 631654296015678004493549568000.00 ppb[0m
[0;32mI (78869) MQ136: MQ136 - SO2 Concentration: 25.44 ppm[0m

[0;32mI (78879) MICS6814: MICS6814 - CO Concentration: 1.00 ppm[0m
[0;32mI (78889) MICS6814: MICS6814 - NO2 Concentration: 4.31 ppm[0m

[0;32mI (78889) GPS: Received: $GPRMC,084449.00,A,2059.84095,N,10553.21497,E,0.261,,290624,,,A*7E
$GPVTG,,T,,M,0.261,N,0.483,K,A*29
$GPGGA,084449.00,2059.84095,N,10553.21497,E,1,04,6.30,21.2,M,-23.3,M,,*43
$GPGSA,A,3,15,05,24,13,,,,,,,,,10.51,6.30,8.42*39
$GPGSV,3,1,11,05,24,068,19,10,03,288,,11,02,135,,12,00,163,*7C
$GPGSV,3,2,11,13,22,035,21,15,50,018,22,20,09,090,,23,26,311,*73
$GPGSV,3,3,11,24,54,139,22,25,00,190,,32,06,232,*4E
$GPGLL,2059.84095,N,10553.21497,E,084449.00,A,A*69
[0m
[0;32mI (78939) GPS: UTC Time: 084449.00, Latitude: 20.997349, Longitude: 105.886917[0m
[0;32mI (82419) Transmit UART: Encoded and sent data over UART.[0m
=== Reading Node number 5 ===
[0;32mI (83939) PMS7003: PM1.0: 15 µg/m³[0m
[0;32mI (83939) PMS7003: PM2.5: 19 µg/m³[0m
[0;32mI (83939) PMS7003: PM10: 19 µg/m³[0m
[0;32mI (83939) DHT22: Hum 34.8[0m
[0;32mI (83939) DHT22: Tmp 33.4[0m
[0;32mI (83949) MQ131: MQ131 - O3 Concentration: 631654296015678004493549568000.00 ppb[0m
[0;32mI (83949) MQ136: MQ136 - SO2 Concentration: 27.12 ppm[0m

[0;32mI (83959) MICS6814: MICS6814 - CO Concentration: 1.00 ppm[0m
[0;32mI (83969) MICS6814: MICS6814 - NO2 Concentration: 3.25 ppm[0m

[0;32mI (83969) GPS: Received: 2059.84137,N,10553.21485,E,1,05,6.30,21.1,M,-23.3,M,,*47
$GPGSA,A,3,15,05,23,24,13,,,,,,,,10.51,6.30,8.41*3B
$GPGSV,3,1,11,05,24,069,21,10,03,288,,11,02,135,13,12,00,163,*74
$GPGSV,3,2,11,13,22,035,21,15,50,018,24,20,09,090,,23,26,311,10*74
$GPGSV,3,3,11,24,54,139,24,25,00,190,,32,06,232,*48
$GPGLL,2059.84137,N,10553.21485,E,084454.00,A,A*6F
$GPRMC,084455.00,A,2059.84120,N,10553.21488,E,0.169,,290624,,,A*79
$GPVTG,,T,,M,0.169,N,0.313,K,A*2C
$GPGGA,084455.00,[0m
[0;32mI (84019) GPS: UTC Time: 084451.00, Latitude: 20.997353, Longitude: 105.886909[0m
[0;31mE (86129) DHT: Sensor Timeout
[0m
[0;32mI (87419) Transmit UART: Encoded and sent data over UART.[0m
=== Reading Node number 5 ===
[0;32mI (89029) PMS7003: PM1.0: 15 µg/m³[0m
[0;32mI (89029) PMS7003: PM2.5: 19 µg/m³[0m
[0;32mI (89029) PMS7003: PM10: 19 µg/m³[0m
[0;32mI (89029) DHT22: Hum 34.8[0m
[0;32mI (89029) DHT22: Tmp 33.4[0m
[0;32mI (89039) MQ131: MQ131 - O3 Concentration: 631654296015678004493549568000.00 ppb[0m
[0;32mI (89039) MQ136: MQ136 - SO2 Concentration: 26.26 ppm[0m

[0;32mI (89049) MICS6814: MICS6814 - CO Concentration: 110.00 ppm[0m
[0;32mI (89059) MICS6814: MICS6814 - NO2 Concentration: 3.57 ppm[0m

[0;32mI (89059) GPS: Received: 1,11,05,24,069,23,10,03,288,,11,02,135,,12,00,163,*74
$GPGSV,3,2,11,13,22,035,23,15,50,018,24,20,09,090,,23,26,311,10*76
$GPGSV,3,3,11,24,54,139,25,25,00,190,,32,06,232,*49
$GPGLL,2059.84102,N,10553.21596,E,084459.00,A,A*67
$GPRMC,084500.00,A,2059.84085,N,10553.21581,E,0.288,,290624,,,A*72
$GPVTG,,T,,M,0.288,N,0.534,K,A*23
$GPGGA,084500.00,2059.84085,N,10553.21581,E,1,04,6.31,22.2,M,-23.3,M,,*4A
$GPGSA,A,3,15,05,24,13,,,,,,,,,10.51,6.31,8.40*3A
$GPGSV,3,1,[0m
[0;32mI (89109) GPS: UTC Time: 084451.00, Latitude: 20.997353, Longitude: 105.886909[0m
[0;32mI (92419) Transmit UART: Encoded and sent data over UART.[0m
=== Reading Node number 5 ===
[0;32mI (94119) PMS7003: PM1.0: 15 µg/m³[0m
[0;32mI (94119) PMS7003: PM2.5: 19 µg/m³[0m
[0;32mI (94119) PMS7003: PM10: 19 µg/m³[0m
[0;32mI (94119) DHT22: Hum 34.7[0m
[0;32mI (94119) DHT22: Tmp 33.4[0m
[0;32mI (94129) MQ131: MQ131 - O3 Concentration: 631654296015678004493549568000.00 ppb[0m
[0;32mI (94129) MQ136: MQ136 - SO2 Concentration: 27.06 ppm[0m

[0;32mI (94139) MICS6814: MICS6814 - CO Concentration: 1.00 ppm[0m
[0;32mI (94149) MICS6814: MICS6814 - NO2 Concentration: 3.09 ppm[0m

[0;32mI (94149) GPS: Received: GPGSV,3,3,11,24,54,139,24,25,00,190,,32,06,232,*48
$GPGLL,2059.84046,N,10553.21554,E,084504.00,A,A*61
$GPRMC,084505.00,A,2059.84053,N,10553.21539,E,0.131,,290624,,,A*7E
$GPVTG,,T,,M,0.131,N,0.242,K,A*24
$GPGGA,084505.00,2059.84053,N,10553.21539,E,1,04,6.31,22.3,M,-23.3,M,,*46
$GPGSA,A,3,15,05,24,13,,,,,,,,,10.50,6.31,8.40*3B
$GPGSV,3,1,11,05,24,069,20,10,03,288,,11,02,135,,12,00,162,*76
$GPGSV,3,2,11,13,21,035,20,15,50,018,22,20,09,090,,23,26,311,*71
$[0m
[0;32mI (94199) GPS: UTC Time: 084451.00, Latitude: 20.997353, Longitude: 105.886909[0m
[0;32mI (97419) Transmit UART: Encoded and sent data over UART.[0m
[0;31mE (98369) DHT: Sensor Timeout
[0m
=== Reading Node number 5 ===
[0;32mI (99199) PMS7003: PM1.0: 16 µg/m³[0m
[0;32mI (99199) PMS7003: PM2.5: 18 µg/m³[0m
[0;32mI (99199) PMS7003: PM10: 19 µg/m³[0m
[0;32mI (99199) DHT22: Hum 34.7[0m
[0;32mI (99199) DHT22: Tmp 33.4[0m
[0;32mI (99209) MQ131: MQ131 - O3 Concentration: 631654296015678004493549568000.00 ppb[0m
[0;32mI (99209) MQ136: MQ136 - SO2 Concentration: 25.97 ppm[0m

[0;32mI (99219) MICS6814: MICS6814 - CO Concentration: 26.00 ppm[0m
[0;32mI (99229) MICS6814: MICS6814 - NO2 Concentration: 3.13 ppm[0m

[0;32mI (99229) GPS: Received: 4
$GPGSV,3,3,11,24,54,139,25,25,00,190,,32,06,232,08*41
$GPGLL,2059.84046,N,10553.21686,E,084509.00,A,A*60
$GPRMC,084510.00,A,2059.84036,N,10553.21811,E,1.101,,290624,,,A*7C
$GPVTG,,T,,M,1.101,N,2.039,K,A*2A
$GPGGA,084510.00,2059.84036,N,10553.21811,E,1,04,6.31,22.7,M,-23.3,M,,*42
$GPGSA,A,3,15,05,24,13,,,,,,,,,10.50,6.31,8.39*35
$GPGSV,3,1,11,05,24,069,21,10,03,288,,11,02,135,07,12,00,162,*70
$GPGSV,3,2,11,13,21,035,22,15,50,018,20,20,09,091,16,23,26,311,*77
$GPGSV,3,3,11,24,54,139,24,25,00,190,,32,06,232,07*4F
$GPGLL,2059.84036,N,10553.21811,E,084510.00,A,A*6F
[0m
[0;32mI (99289) GPS: UTC Time: 084451.00, Latitude: 20.997353, Longitude: 105.886909[0m
[0;32mI (102419) Transmit UART: Encoded and sent data over UART.[0m
=== Reading Node number 5 ===
[0;32mI (104299) PMS7003: PM1.0: 17 µg/m³[0m
[0;32mI (104299) PMS7003: PM2.5: 19 µg/m³[0m
[0;32mI (104299) PMS7003: PM10: 20 µg/m³[0m
[0;32mI (104299) DHT22: Hum 34.8[0m
[0;32mI (104299) DHT22: Tmp 33.4[0m
[0;32mI (104309) MQ131: MQ131 - O3 Concentration: 631654296015678004493549568000.00 ppb[0m
[0;32mI (104309) MQ136: MQ136 - SO2 Concentration: 25.72 ppm[0m

[0;32mI (104319) MICS6814: MICS6814 - CO Concentration: 1.00 ppm[0m
[0;32mI (104329) MICS6814: MICS6814 - NO2 Concentration: 3.71 ppm[0m

[0;32mI (104329) GPS: Received: $GPRMC,084515.00,A,2059.84000,N,10553.21947,E,0.851,,290624,,,A*73
$GPVTG,,T,,M,0.851,N,1.576,K,A*2A
$GPGGA,084515.00,2059.84000,N,10553.21947,E,1,04,6.31,22.9,M,-23.3,M,,*4E
$GPGSA,A,3,15,05,24,13,,,,,,,,,10.49,6.31,8.39*3D
$GPGSV,3,1,11,05,24,069,21,10,03,288,,11,02,135,,12,00,162,*77
$GPGSV,3,2,11,13,21,035,24,15,50,018,17,20,09,091,15,23,26,311,*76
$GPGSV,3,3,11,24,55,138,25,25,00,190,,32,06,232,09*40
$GPGLL,2059.84000,N,10553.21947,E,084515.00,A,A*6D
[0m
[0;32mI (104379) GPS: UTC Time: 084515.00, Latitude: 20.997334, Longitude: 105.886993[0m
[0;32mI (107419) Transmit UART: Encoded and sent data over UART.[0m
=== Reading Node number 5 ===
[0;32mI (109389) PMS7003: PM1.0: 16 µg/m³[0m
[0;32mI (109389) PMS7003: PM2.5: 22 µg/m³[0m
[0;32mI (109389) PMS7003: PM10: 23 µg/m³[0m
[0;32mI (109389) DHT22: Hum 34.7[0m
[0;32mI (109389) DHT22: Tmp 33.4[0m
[0;32mI (109399) MQ131: MQ131 - O3 Concentration: 631654296015678004493549568000.00 ppb[0m
[0;32mI (109399) MQ136: MQ136 - SO2 Concentration: 26.34 ppm[0m

[0;32mI (109409) MICS6814: MICS6814 - CO Concentration: 3057.00 ppm[0m
[0;32mI (109419) MICS6814: MICS6814 - NO2 Concentration: 3.72 ppm[0m

[0;32mI (109419) GPS: Received: $GPRMC,084520.00,A,2059.83731,N,10553.22549,E,2.949,,290624,,,A*7C
$GPVTG,,T,,M,2.949,N,5.462,K,A*20
$GPGGA,084520.00,2059.83731,N,10553.22549,E,1,04,6.31,22.1,M,-23.3,M,,*43
$GPGSA,A,3,15,05,24,13,,,,,,,,,10.49,6.31,8.38*3C
$GPGSV,3,1,11,05,24,069,21,10,03,288,,11,02,135,15,12,00,162,*73
$GPGSV,3,2,11,13,21,035,22,15,50,018,10,20,09,091,13,23,26,311,*71
$GPGSV,3,3,11,24,55,138,22,25,00,190,,32,07,233,*4E
$GPGLL,2059.83731,N,10553.22549,E,084520.00,A,A*68
[0m
[0;32mI (109469) GPS: UTC Time: 084520.00, Latitude: 20.997288, Longitude: 105.887093[0m
[0;32mI (112419) Transmit UART: Encoded and sent data over UART.[0m
[0;31mE (113689) DHT: Sensor Timeout
[0m
=== Reading Node number 5 ===
[0;32mI (114479) PMS7003: PM1.0: 15 µg/m³[0m
[0;32mI (114479) PMS7003: PM2.5: 22 µg/m³[0m
[0;32mI (114479) PMS7003: PM10: 23 µg/m³[0m
[0;32mI (114479) DHT22: Hum 34.8[0m
[0;32mI (114479) DHT22: Tmp 33.4[0m
[0;32mI (114489) MQ131: MQ131 - O3 Concentration: 631654296015678004493549568000.00 ppb[0m
[0;32mI (114489) MQ136: MQ136 - SO2 Concentration: 26.54 ppm[0m

[0;32mI (114499) MICS6814: MICS6814 - CO Concentration: 1.00 ppm[0m
[0;32mI (114509) MICS6814: MICS6814 - NO2 Concentration: 3.30 ppm[0m

[0;32mI (114509) GPS: Received: $GPRMC,084525.00,A,2059.83755,N,10553.22333,E,0.480,,290624,,,A*7A
$GPVTG,,T,,M,0.480,N,0.889,K,A*26
$GPGGA,084525.00,2059.83755,N,10553.22333,E,1,04,6.31,21.6,M,-23.3,M,,*4B
$GPGSA,A,3,15,05,24,13,,,,,,,,,10.49,6.31,8.37*33
$GPGSV,3,1,11,05,24,069,22,10,03,288,,11,02,135,,12,00,162,*74
$GPGSV,3,2,11,13,21,035,22,15,50,018,11,20,09,091,16,23,26,311,*75
$GPGSV,3,3,11,24,55,138,23,25,00,190,,32,07,233,*4F
$GPGLL,2059.83755,N,10553.22333,E,084525.00,A,A*64
[0m
[0;32mI (114559) GPS: UTC Time: 084525.00, Latitude: 20.997292, Longitude: 105.887054[0m
[0;32mI (117419) Transmit UART: Encoded and sent data over UART.[0m
=== Reading Node number 5 ===
[0;32mI (119569) PMS7003: PM1.0: 15 µg/m³[0m
[0;32mI (119569) PMS7003: PM2.5: 22 µg/m³[0m
[0;32mI (119569) PMS7003: PM10: 22 µg/m³[0m
[0;32mI (119569) DHT22: Hum 34.8[0m
[0;32mI (119569) DHT22: Tmp 33.4[0m
[0;32mI (119579) MQ131: MQ131 - O3 Concentration: 631654296015678004493549568000.00 ppb[0m
[0;32mI (119579) MQ136: MQ136 - SO2 Concentration: 25.53 ppm[0m

[0;32mI (119589) MICS6814: MICS6814 - CO Concentration: 1.00 ppm[0m
[0;32mI (119599) MICS6814: MICS6814 - NO2 Concentration: 3.89 ppm[0m

[0;32mI (119599) GPS: Received: $GPRMC,084530.00,A,2059.83752,N,10553.21798,E,1.439,,290624,,,A*7C
$GPVTG,,T,,M,1.439,N,2.665,K,A*2B
$GPGGA,084530.00,2059.83752,N,10553.21798,E,1,05,6.31,21.5,M,-23.3,M,,*4C
$GPGSA,A,3,15,05,23,24,13,,,,,,,,10.48,6.31,8.37*33
$GPGSV,3,1,11,05,24,069,21,10,03,288,,11,02,135,,12,00,162,11*77
$GPGSV,3,2,11,13,21,035,21,15,50,018,10,20,09,091,15,23,26,311,12*77
$GPGSV,3,3,11,24,55,138,23,25,00,190,,32,07,233,*4F
$GPGLL,2059.83752,N,10553.21798,E,084530.00,A,A*61
[0m
[0;32mI (119649) GPS: UTC Time: 084530.00, Latitude: 20.997292, Longitude: 105.886963[0m
[0;32mI (122419) Transmit UART: Encoded and sent data over UART.[0m
=== Reading Node number 5 ===
[0;32mI (124659) PMS7003: PM1.0: 15 µg/m³[0m
[0;32mI (124659) PMS7003: PM2.5: 20 µg/m³[0m
[0;32mI (124659) PMS7003: PM10: 20 µg/m³[0m
[0;32mI (124659) DHT22: Hum 34.8[0m
[0;32mI (124659) DHT22: Tmp 33.4[0m
[0;32mI (124669) MQ131: MQ131 - O3 Concentration: 631654296015678004493549568000.00 ppb[0m
[0;32mI (124669) MQ136: MQ136 - SO2 Concentration: 26.48 ppm[0m

[0;32mI (124679) MICS6814: MICS6814 - CO Concentration: 1.00 ppm[0m
[0;32mI (124689) MICS6814: MICS6814 - NO2 Concentration: 3.26 ppm[0m

[0;32mI (124689) GPS: Received: $GPRMC,084535.00,A,2059.83793,N,10553.21738,E,0.607,,290624,,,A*70
$GPVTG,,T,,M,0.607,N,1.125,K,A*25
$GPGGA,084535.00,2059.83793,N,10553.21738,E,1,04,6.31,21.7,M,-23.3,M,,*4D
$GPGSA,A,3,15,05,24,13,,,,,,,,,10.48,6.31,8.36*33
$GPGSV,3,1,11,05,24,069,23,10,03,288,17,11,02,135,,12,00,162,*73
$GPGSV,3,2,11,13,21,035,22,15,50,018,13,20,09,091,16,23,26,311,*77
$GPGSV,3,3,11,24,55,138,22,25,00,190,,32,07,233,*4E
$GPGLL,2059.83793,N,10553.21738,E,084535.00,A,A*63
[0m
[0;32mI (124739) GPS: UTC Time: 084535.00, Latitude: 20.997299, Longitude: 105.886955[0m
[0;32mI (127419) Transmit UART: Encoded and sent data over UART.[0m
=== Reading Node number 5 ===
[0;32mI (129749) PMS7003: PM1.0: 16 µg/m³[0m
[0;32mI (129749) PMS7003: PM2.5: 21 µg/m³[0m
[0;32mI (129749) PMS7003: PM10: 21 µg/m³[0m
[0;32mI (129749) DHT22: Hum 34.8[0m
[0;32mI (129749) DHT22: Tmp 33.4[0m
[0;32mI (129759) MQ131: MQ131 - O3 Concentration: 631654296015678004493549568000.00 ppb[0m
[0;32mI (129759) MQ136: MQ136 - SO2 Concentration: 26.94 ppm[0m

[0;32mI (129769) MICS6814: MICS6814 - CO Concentration: 2498.00 ppm[0m
[0;32mI (129779) MICS6814: MICS6814 - NO2 Concentration: 3.76 ppm[0m

[0;32mI (129779) GPS: Received: $GPRMC,084540.00,A,2059.83920,N,10553.21497,E,1.412,,290624,,,A*75
$GPVTG,,T,,M,1.412,N,2.616,K,A*26
$GPGGA,084540.00,2059.83920,N,10553.21497,E,1,04,6.32,21.9,M,-23.3,M,,*42
$GPGSA,A,3,15,05,24,13,,,,,,,,,10.48,6.32,8.36*30
$GPGSV,3,1,11,05,24,069,23,10,03,288,,11,02,135,,12,00,162,*75
$GPGSV,3,2,11,13,21,035,24,15,50,018,10,20,09,091,16,23,26,311,07*75
$GPGSV,3,3,11,24,55,138,25,25,00,190,,32,07,233,*49
$GPGLL,2059.83920,N,10553.21497,E,084540.00,A,A*61
$GPRMC,084541.00,A,2059.83957,N,10553.21423,E,1.566,,290624,,,A*79
$GPVTG,,T,,M,1.566,N,2.900,K,A*2C
$GPGGA,084541.00,[0m
[0;32mI (129839) GPS: UTC Time: 084540.00, Latitude: 20.997320, Longitude: 105.886917[0m
[0;32mI (132419) Transmit UART: Encoded and sent data over UART.[0m
=== Reading Node number 5 ===
[0;32mI (134849) PMS7003: PM1.0: 16 µg/m³[0m
[0;32mI (134849) PMS7003: PM2.5: 20 µg/m³[0m
[0;32mI (134849) PMS7003: PM10: 21 µg/m³[0m
[0;32mI (134849) DHT22: Hum 34.8[0m
[0;32mI (134849) DHT22: Tmp 33.4[0m
[0;32mI (134859) MQ131: MQ131 - O3 Concentration: 631654296015678004493549568000.00 ppb[0m
[0;32mI (134859) MQ136: MQ136 - SO2 Concentration: 26.63 ppm[0m

[0;32mI (134869) MICS6814: MICS6814 - CO Concentration: 1.00 ppm[0m
[0;32mI (134879) MICS6814: MICS6814 - NO2 Concentration: 3.00 ppm[0m

[0;32mI (134879) GPS: Received: 2059.84155,N,10553.20998,E,1,04,6.32,22.9,M,-23.3,M,,*4A
$GPGSA,A,3,15,05,24,13,,,,,,,,,10.47,6.32,8.35*3C
$GPGSV,3,1,11,05,24,069,21,10,03,288,,11,02,135,,12,00,162,*77
$GPGSV,3,2,11,13,21,035,22,15,50,018,17,20,09,091,12,23,26,311,06*71
$GPGSV,3,3,11,24,55,138,24,25,00,190,,32,07,233,*48
$GPGLL,2059.84155,N,10553.20998,E,084545.00,A,A*6A
$GPRMC,084546.00,A,2059.84163,N,10553.20968,E,2.121,,290624,,,A*71
$GPVTG,,T,,M,2.121,N,3.928,K,A*23
$GPGGA,084546.00,[0m
[0;32mI (134929) GPS: UTC Time: 084540.00, Latitude: 20.997320, Longitude: 105.886917[0m
[0;32mI (137419) Transmit UART: Encoded and sent data over UART.[0m
[0;31mE (139209) DHT: Sensor Timeout
[0m
=== Reading Node number 5 ===
[0;32mI (139939) PMS7003: PM1.0: 14 µg/m³[0m
[0;32mI (139939) PMS7003: PM2.5: 18 µg/m³[0m
[0;32mI (139939) PMS7003: PM10: 19 µg/m³[0m
[0;32mI (139939) DHT22: Hum 34.8[0m
[0;32mI (139939) DHT22: Tmp 33.4[0m
[0;32mI (139949) MQ131: MQ131 - O3 Concentration: 631654296015678004493549568000.00 ppb[0m
[0;32mI (139949) MQ136: MQ136 - SO2 Concentration: 26.63 ppm[0m

[0;32mI (139959) MICS6814: MICS6814 - CO Concentration: 3999.00 ppm[0m
[0;32mI (139969) MICS6814: MICS6814 - NO2 Concentration: 3.46 ppm[0m

[0;32mI (139969) GPS: Received: 1,11,05,24,069,21,10,03,288,,11,02,135,,12,00,162,*77
$GPGSV,3,2,11,13,21,035,22,15,50,018,22,20,09,091,09,23,26,311,07*7C
$GPGSV,3,3,11,24,55,138,24,25,00,190,,32,07,233,*48
$GPGLL,2059.84223,N,10553.20868,E,084550.00,A,A*62
$GPRMC,084551.00,A,2059.84224,N,10553.20862,E,1.159,,290624,,,A*70
$GPVTG,,T,,M,1.159,N,2.147,K,A*2F
$GPGGA,084551.00,2059.84224,N,10553.20862,E,1,04,6.32,23.4,M,-23.3,M,,*42
$GPGSA,A,3,15,05,24,13,,,,,,,,,10.47,6.32,8.35*3C
$GPGSV,3,1,[0m
[0;32mI (140019) GPS: UTC Time: 084540.00, Latitude: 20.997320, Longitude: 105.886917[0m
[0;32mI (142419) Transmit UART: Encoded and sent data over UART.[0m
=== Reading Node number 5 ===
[0;32mI (145029) PMS7003: PM1.0: 16 µg/m³[0m
[0;32mI (145029) PMS7003: PM2.5: 24 µg/m³[0m
[0;32mI (145029) PMS7003: PM10: 24 µg/m³[0m
[0;32mI (145029) DHT22: Hum 34.8[0m
[0;32mI (145029) DHT22: Tmp 33.4[0m
[0;32mI (145039) MQ131: MQ131 - O3 Concentration: 631654296015678004493549568000.00 ppb[0m
[0;32mI (145039) MQ136: MQ136 - SO2 Concentration: 26.69 ppm[0m

[0;32mI (145049) MICS6814: MICS6814 - CO Concentration: 1.00 ppm[0m
[0;32mI (145059) MICS6814: MICS6814 - NO2 Concentration: 3.52 ppm[0m

[0;32mI (145059) GPS: Received: 4
$GPGSV,3,3,11,24,55,138,24,25,00,190,,32,07,233,*48
$GPGLL,2059.84178,N,10553.20824,E,084555.00,A,A*62
$GPRMC,084556.00,A,2059.84264,N,10553.22095,E,0.323,,290624,,,A*7F
$GPVTG,,T,,M,0.323,N,0.598,K,A*25
$GPGGA,084556.00,2059.84264,N,10553.22095,E,1,05,1.69,38.6,M,-23.3,M,,*43
$GPGSA,A,3,15,05,23,24,13,,,,,,,,3.47,1.69,3.03*08
$GPGSV,3,1,11,05,24,069,21,10,03,288,,11,02,135,10,12,00,162,*76
$GPGSV,3,2,11,13,21,035,24,15,50,018,24,20,09,091,,23,26,311,07*[0m
[0;32mI (145109) GPS: UTC Time: 084540.00, Latitude: 20.997320, Longitude: 105.886917[0m
[0;32mI (147419) Transmit UART: Encoded and sent data over UART.[0m
=== Reading Node number 5 ===
[0;32mI (150119) PMS7003: PM1.0: 15 µg/m³[0m
[0;32mI (150119) PMS7003: PM2.5: 25 µg/m³[0m
[0;32mI (150119) PMS7003: PM10: 26 µg/m³[0m
[0;32mI (150119) DHT22: Hum 34.8[0m
[0;32mI (150119) DHT22: Tmp 33.4[0m
[0;32mI (150129) MQ131: MQ131 - O3 Concentration: 631654296015678004493549568000.00 ppb[0m
[0;32mI (150129) MQ136: MQ136 - SO2 Concentration: 26.63 ppm[0m

[0;32mI (150139) MICS6814: MICS6814 - CO Concentration: 3999.00 ppm[0m
[0;32mI (150149) MICS6814: MICS6814 - NO2 Concentration: 3.42 ppm[0m

[0;32mI (150149) GPS: Received: $GPRMC,084601.00,A,2059.84344,N,10553.23184,E,1.031,,290624,,,A*7C
$GPVTG,,T,,M,1.031,N,1.909,K,A*21
$GPGGA,084601.00,2059.84344,N,10553.23184,E,1,05,6.32,50.8,M,-23.3,M,,*48
$GPGSA,A,3,15,05,23,24,13,,,,,,,,10.46,6.32,8.33*3A
$GPGSV,3,1,11,05,24,069,19,10,03,288,17,11,02,135,,12,00,162,*7A
$GPGSV,3,2,11,13,21,035,22,15,50,018,24,20,09,091,,23,26,311,07*73
$GPGSV,3,3,11,24,55,138,24,25,00,190,,32,07,233,*48
$GPGLL,2059.84344,N,10553.23184,E,084601.00,A,A*6D
[0m
[0;32mI (150199) GPS: UTC Time: 084601.00, Latitude: 20.997391, Longitude: 105.887199[0m
[0;32mI (152429) Transmit UART: Encoded and sent data over UART.[0m
=== Reading Node number 5 ===
[0;32mI (155209) PMS7003: PM1.0: 15 µg/m³[0m
[0;32mI (155209) PMS7003: PM2.5: 24 µg/m³[0m
[0;32mI (155209) PMS7003: PM10: 25 µg/m³[0m
[0;32mI (155209) DHT22: Hum 34.8[0m
[0;32mI (155209) DHT22: Tmp 33.4[0m
[0;32mI (155219) MQ131: MQ131 - O3 Concentration: 631654296015678004493549568000.00 ppb[0m
[0;32mI (155219) MQ136: MQ136 - SO2 Concentration: 27.15 ppm[0m

[0;32mI (155229) MICS6814: MICS6814 - CO Concentration: 70.00 ppm[0m
[0;32mI (155239) MICS6814: MICS6814 - NO2 Concentration: 2.85 ppm[0m

[0;32mI (155239) GPS: Received: $GPRMC,084606.00,A,2059.84376,N,10553.23239,E,0.752,,290624,,,A*7C
$GPVTG,,T,,M,0.752,N,1.393,K,A*2B
$GPGGA,084606.00,2059.84376,N,10553.23239,E,1,04,6.32,52.7,M,-23.3,M,,*47
$GPGSA,A,3,15,05,24,13,,,,,,,,,10.46,6.32,8.33*3B
$GPGSV,3,1,11,05,23,069,19,10,03,288,08,11,02,135,,12,00,162,*73
$GPGSV,3,2,11,13,21,035,22,15,50,018,25,20,09,091,,23,26,311,*75
$GPGSV,3,3,11,24,55,138,26,25,00,190,,32,07,233,*4A
$GPGLL,2059.84376,N,10553.23239,E,084606.00,A,A*6E
[0m
[0;32mI (155289) GPS: UTC Time: 084606.00, Latitude: 20.997396, Longitude: 105.887207[0m
[0;32mI (157429) Transmit UART: Encoded and sent data over UART.[0m
=== Reading Node number 5 ===
[0;32mI (160299) PMS7003: PM1.0: 14 µg/m³[0m
[0;32mI (160299) PMS7003: PM2.5: 20 µg/m³[0m
[0;32mI (160299) PMS7003: PM10: 21 µg/m³[0m
[0;32mI (160299) DHT22: Hum 34.8[0m
[0;32mI (160299) DHT22: Tmp 33.4[0m
[0;32mI (160309) MQ131: MQ131 - O3 Concentration: 631654296015678004493549568000.00 ppb[0m
[0;32mI (160309) MQ136: MQ136 - SO2 Concentration: 27.12 ppm[0m

[0;32mI (160319) MICS6814: MICS6814 - CO Concentration: 1.00 ppm[0m
[0;32mI (160329) MICS6814: MICS6814 - NO2 Concentration: 3.29 ppm[0m

[0;32mI (160329) GPS: Received: $GPRMC,084611.00,A,2059.84420,N,10553.23201,E,0.305,,290624,,,A*73
$GPVTG,,T,,M,0.305,N,0.566,K,A*20
$GPGGA,084611.00,2059.84420,N,10553.23201,E,1,04,6.33,54.3,M,-23.3,M,,*4D
$GPGSA,A,3,15,05,24,13,,,,,,,,,10.46,6.33,8.32*3B
$GPGSV,3,1,11,05,23,069,21,10,03,289,07,11,01,136,,12,00,162,*76
$GPGSV,3,2,11,13,21,035,21,15,50,018,26,20,09,091,,23,26,311,*75
$GPGSV,3,3,11,24,55,138,26,25,00,190,,32,07,233,*4A
$GPGLL,2059.84420,N,10553.23201,E,084611.00,A,A*67
[0m
[0;32mI (160379) GPS: UTC Time: 084611.00, Latitude: 20.997404, Longitude: 105.887199[0m
[0;32mI (162429) Transmit UART: Encoded and sent data over UART.[0m
=== Reading Node number 5 ===
[0;32mI (165389) PMS7003: PM1.0: 16 µg/m³[0m
[0;32mI (165389) PMS7003: PM2.5: 21 µg/m³[0m
[0;32mI (165389) PMS7003: PM10: 22 µg/m³[0m
[0;32mI (165389) DHT22: Hum 34.7[0m
[0;32mI (165389) DHT22: Tmp 33.4[0m
[0;32mI (165399) MQ131: MQ131 - O3 Concentration: 631654296015678004493549568000.00 ppb[0m
[0;32mI (165399) MQ136: MQ136 - SO2 Concentration: 26.94 ppm[0m

[0;32mI (165409) MICS6814: MICS6814 - CO Concentration: 1217.00 ppm[0m
[0;32mI (165419) MICS6814: MICS6814 - NO2 Concentration: 3.31 ppm[0m

[0;32mI (165419) GPS: Received: $GPRMC,084616.00,A,2059.84402,N,10553.22807,E,1.157,,290624,,,A*7D
$GPVTG,,T,,M,1.157,N,2.143,K,A*25
$GPGGA,084616.00,2059.84402,N,10553.22807,E,1,05,1.70,46.5,M,-23.3,M,,*43
$GPGSA,A,3,15,05,23,24,13,,,,,,,,3.48,1.70,3.04*08
$GPGSV,3,1,11,05,23,069,21,10,03,289,07,11,01,136,14,12,00,162,*73
$GPGSV,3,2,11,13,21,036,21,15,49,019,25,20,09,091,,23,26,311,17*7A
$GPGSV,3,3,11,24,55,138,25,25,00,190,,32,07,233,*49
$GPGLL,2059.84402,N,10553.22807,E,084616.00,A,A*6D
[0m
[0;32mI (165469) GPS: UTC Time: 084616.00, Latitude: 20.997400, Longitude: 105.887131[0m
[0;31mE (166779) DHT: Sensor Timeout
[0m
[0;32mI (167429) Transmit UART: Encoded and sent data over UART.[0m
=== Reading Node number 5 ===
[0;32mI (170479) PMS7003: PM1.0: 14 µg/m³[0m
[0;32mI (170479) PMS7003: PM2.5: 18 µg/m³[0m
[0;32mI (170479) PMS7003: PM10: 19 µg/m³[0m
[0;32mI (170479) DHT22: Hum 34.7[0m
[0;32mI (170479) DHT22: Tmp 33.5[0m
[0;32mI (170489) MQ131: MQ131 - O3 Concentration: 631654296015678004493549568000.00 ppb[0m
[0;32mI (170489) MQ136: MQ136 - SO2 Concentration: 26.17 ppm[0m

[0;32mI (170499) MICS6814: MICS6814 - CO Concentration: 2985.00 ppm[0m
[0;32mI (170509) MICS6814: MICS6814 - NO2 Concentration: 3.92 ppm[0m

[0;32mI (170509) GPS: Received: $GPRMC,084621.00,A,2059.84273,N,10553.21594,E,0.695,,290624,,,A*75
$GPVTG,,T,,M,0.695,N,1.288,K,A*2A
$GPGGA,084621.00,2059.84273,N,10553.21594,E,1,05,1.70,31.1,M,-23.3,M,,*47
$GPGSA,A,3,15,05,23,24,13,,,,,,,,3.48,1.70,3.04*08
$GPGSV,3,1,11,05,23,069,20,10,03,289,07,11,01,136,09,12,00,162,*7E
$GPGSV,3,2,11,13,21,036,22,15,49,019,27,20,08,091,,23,26,311,17*7A
$GPGSV,3,3,11,24,55,138,26,25,00,190,18,32,07,233,*43
$GPGLL,2059.84273,N,10553.21594,E,084621.00,A,A*6D
[0m
[0;32mI (170559) GPS: UTC Time: 084621.00, Latitude: 20.997379, Longitude: 105.886932[0m
[0;32mI (172429) Transmit UART: Encoded and sent data over UART.[0m
=== Reading Node number 5 ===
[0;32mI (175569) PMS7003: PM1.0: 14 µg/m³[0m
[0;32mI (175569) PMS7003: PM2.5: 20 µg/m³[0m
[0;32mI (175569) PMS7003: PM10: 21 µg/m³[0m
[0;32mI (175569) DHT22: Hum 34.7[0m
[0;32mI (175569) DHT22: Tmp 33.4[0m
[0;32mI (175579) MQ131: MQ131 - O3 Concentration: 631654296015678004493549568000.00 ppb[0m
[0;32mI (175579) MQ136: MQ136 - SO2 Concentration: 26.51 ppm[0m

[0;32mI (175589) MICS6814: MICS6814 - CO Concentration: 110.00 ppm[0m
[0;32mI (175599) MICS6814: MICS6814 - NO2 Concentration: 3.54 ppm[0m

[0;32mI (175599) GPS: Received: $GPRMC,084626.00,A,2059.84177,N,10553.21264,E,0.450,,290624,,,A*76
$GPVTG,,T,,M,0.450,N,0.833,K,A*2A
$GPGGA,084626.00,2059.84177,N,10553.21264,E,1,05,1.70,25.7,M,-23.3,M,,*4C
$GPGSA,A,3,15,05,23,24,13,,,,,,,,3.48,1.70,3.04*08
$GPGSV,3,1,11,05,23,069,18,10,03,289,07,11,01,136,08,12,00,162,*74
$GPGSV,3,2,11,13,21,036,20,15,49,019,27,20,08,091,,23,26,312,19*75
$GPGSV,3,3,11,24,55,137,24,25,00,189,,32,07,233,19*47
$GPGLL,2059.84177,N,10553.21264,E,084626.00,A,A*65
[0m
[0;32mI (175649) GPS: UTC Time: 084626.00, Latitude: 20.997362, Longitude: 105.886879[0m
[0;32mI (177429) Transmit UART: Encoded and sent data over UART.[0m
[0;31mE (179039) DHT: Sensor Timeout
[0m
=== Reading Node number 5 ===
[0;32mI (180659) PMS7003: PM1.0: 14 µg/m³[0m
[0;32mI (180659) PMS7003: PM2.5: 20 µg/m³[0m
[0;32mI (180659) PMS7003: PM10: 20 µg/m³[0m
[0;32mI (180659) DHT22: Hum 34.7[0m
[0;32mI (180659) DHT22: Tmp 33.4[0m
[0;32mI (180669) MQ131: MQ131 - O3 Concentration: 631654296015678004493549568000.00 ppb[0m
[0;32mI (180669) MQ136: MQ136 - SO2 Concentration: 27.38 ppm[0m

[0;32mI (180679) MICS6814: MICS6814 - CO Concentration: 1.00 ppm[0m
[0;32mI (180689) MICS6814: MICS6814 - NO2 Concentration: 2.90 ppm[0m

[0;32mI (180689) GPS: Received: 2059.84074,N,10553.21033,E,1,05,1.70,21.7,M,-23.3,M,,*4C
$GPGSA,A,3,15,05,23,24,13,,,,,,,,3.48,1.70,3.04*08
$GPGSV,3,1,11,05,23,069,18,10,03,289,07,11,01,136,,12,00,162,*7C
$GPGSV,3,2,11,13,21,036,20,15,49,019,27,20,08,091,,23,26,312,18*74
$GPGSV,3,3,11,24,55,137,24,25,00,189,,32,07,233,09*46
$GPGLL,2059.84074,N,10553.21033,E,084631.00,A,A*61
$GPRMC,084632.00,A,2059.84011,N,10553.20945,E,1.477,,290624,,,A*7F
$GPVTG,,T,,M,1.477,N,2.736,K,A*26
$GPGGA,084632.00,[0m
[0;32mI (180739) GPS: UTC Time: 084628.00, Latitude: 20.997356, Longitude: 105.886864[0m
[0;32mI (182429) Transmit UART: Encoded and sent data over UART.[0m
=== Reading Node number 5 ===
[0;32mI (185749) PMS7003: PM1.0: 14 µg/m³[0m
[0;32mI (185749) PMS7003: PM2.5: 21 µg/m³[0m
[0;32mI (185749) PMS7003: PM10: 21 µg/m³[0m
[0;32mI (185749) DHT22: Hum 34.7[0m
[0;32mI (185749) DHT22: Tmp 33.4[0m
[0;32mI (185759) MQ131: MQ131 - O3 Concentration: 631654296015678004493549568000.00 ppb[0m
[0;32mI (185759) MQ136: MQ136 - SO2 Concentration: 27.44 ppm[0m

[0;32mI (185769) MICS6814: MICS6814 - CO Concentration: 63.00 ppm[0m
[0;32mI (185779) MICS6814: MICS6814 - NO2 Concentration: 3.01 ppm[0m

[0;32mI (185779) GPS: Received: ,11,05,23,069,17,10,03,289,08,11,01,136,,12,00,162,*7C
$GPGSV,3,2,11,13,21,036,19,15,49,019,25,20,08,091,,23,26,312,17*73
$GPGSV,3,3,11,24,55,137,22,25,00,189,,32,07,233,09*40
$GPGLL,2059.83978,N,10553.20916,E,084636.00,A,A*6B
$GPRMC,084637.00,A,2059.83993,N,10553.20973,E,0.297,,290624,,,A*72
$GPVTG,,T,,M,0.297,N,0.550,K,A*2F
$GPGGA,084637.00,2059.83993,N,10553.20973,E,1,05,1.70,19.9,M,-23.3,M,,*44
$GPGSA,A,3,15,05,23,24,13,,,,,,,,3.48,1.70,3.04*08
$GPGSV,3,1[0m
[0;32mI (185829) GPS: UTC Time: 084628.00, Latitude: 20.997356, Longitude: 105.886864[0m
[0;32mI (187429) Transmit UART: Encoded and sent data over UART.[0m
=== Reading Node number 5 ===
[0;32mI (190839) PMS7003: PM1.0: 15 µg/m³[0m
[0;32mI (190839) PMS7003: PM2.5: 21 µg/m³[0m
[0;32mI (190839) PMS7003: PM10: 22 µg/m³[0m
[0;32mI (190839) DHT22: Hum 34.7[0m
[0;32mI (190839) DHT22: Tmp 33.4[0m
[0;32mI (190849) MQ131: MQ131 - O3 Concentration: 631654296015678004493549568000.00 ppb[0m
[0;32mI (190849) MQ136: MQ136 - SO2 Concentration: 27.24 ppm[0m

[0;32mI (190859) MICS6814: MICS6814 - CO Concentration: 3999.00 ppm[0m
[0;32mI (190869) MICS6814: MICS6814 - NO2 Concentration: 2.94 ppm[0m

[0;32mI (190869) GPS: Received: 70
$GPGSV,3,3,11,24,55,137,22,25,00,189,,32,07,233,07*4E
$GPGLL,2059.83995,N,10553.21043,E,084641.00,A,A*60
$GPRMC,084642.00,A,2059.83990,N,10553.21063,E,0.526,,290624,,,A*77
$GPVTG,,T,,M,0.526,N,0.975,K,A*29
$GPGGA,084642.00,2059.83990,N,10553.21063,E,1,05,1.71,19.1,M,-23.3,M,,*45
$GPGSA,A,3,15,05,23,24,13,,,,,,,,3.49,1.71,3.04*08
$GPGSV,3,1,11,05,23,069,18,10,03,289,06,11,01,136,,12,00,162,*7D
$GPGSV,3,2,11,13,21,036,19,15,49,019,24,20,08,091,,23,26,312,14*[0m
[0;32mI (190919) GPS: UTC Time: 084628.00, Latitude: 20.997356, Longitude: 105.886864[0m
[0;31mE (191339) DHT: Sensor Timeout
[0m
[0;32mI (192429) Transmit UART: Encoded and sent data over UART.[0m
=== Reading Node number 5 ===
[0;32mI (195929) PMS7003: PM1.0: 16 µg/m³[0m
[0;32mI (195929) PMS7003: PM2.5: 21 µg/m³[0m
[0;32mI (195929) PMS7003: PM10: 24 µg/m³[0m
[0;32mI (195929) DHT22: Hum 34.7[0m
[0;32mI (195929) DHT22: Tmp 33.4[0m
[0;32mI (195939) MQ131: MQ131 - O3 Concentration: 631654296015678004493549568000.00 ppb[0m
[0;32mI (195939) MQ136: MQ136 - SO2 Concentration: 27.59 ppm[0m

[0;32mI (195949) MICS6814: MICS6814 - CO Concentration: 63.00 ppm[0m
[0;32mI (195959) MICS6814: MICS6814 - NO2 Concentration: 2.98 ppm[0m

[0;32mI (195959) GPS: Received: $GPRMC,084647.00,A,2059.83979,N,10553.20981,E,0.734,,290624,,,A*70
$GPVTG,,T,,M,0.734,N,1.360,K,A*27
$GPGGA,084647.00,2059.83979,N,10553.20981,E,1,05,1.71,16.9,M,-23.3,M,,*44
$GPGSA,A,3,15,05,23,24,13,,,,,,,,3.49,1.71,3.04*08
$GPGSV,3,1,11,05,23,069,18,10,03,289,,11,01,136,,12,00,162,*7B
$GPGSV,3,2,11,13,21,036,16,15,49,019,22,20,08,091,,23,26,312,10*7C
$GPGSV,3,3,11,24,55,137,22,25,00,189,,32,07,233,*49
$GPGLL,2059.83979,N,10553.20981,E,084647.00,A,A*62
[0m
[0;32mI (196009) GPS: UTC Time: 084647.00, Latitude: 20.997330, Longitude: 105.886833[0m
[0;32mI (197429) Transmit UART: Encoded and sent data over UART.[0m
=== Reading Node number 5 ===
[0;32mI (201019) PMS7003: PM1.0: 15 µg/m³[0m
[0;32mI (201019) PMS7003: PM2.5: 19 µg/m³[0m
[0;32mI (201019) PMS7003: PM10: 22 µg/m³[0m
[0;32mI (201019) DHT22: Hum 34.7[0m
[0;32mI (201019) DHT22: Tmp 33.4[0m
[0;32mI (201029) MQ131: MQ131 - O3 Concentration: 631654296015678004493549568000.00 ppb[0m
[0;32mI (201029) MQ136: MQ136 - SO2 Concentration: 27.26 ppm[0m

[0;32mI (201039) MICS6814: MICS6814 - CO Concentration: 1.00 ppm[0m
[0;32mI (201049) MICS6814: MICS6814 - NO2 Concentration: 2.94 ppm[0m

[0;32mI (201049) GPS: Received: $GPRMC,084652.00,A,2059.83997,N,10553.20865,E,0.389,,290624,,,A*7D
$GPVTG,,T,,M,0.389,N,0.721,K,A*25
$GPGGA,084652.00,2059.83997,N,10553.20865,E,1,05,1.71,15.0,M,-23.3,M,,*41
$GPGSA,A,3,15,05,23,24,13,,,,,,,,3.49,1.71,3.04*08
$GPGSV,3,1,11,05,23,069,17,10,03,289,,11,01,136,14,12,00,162,*71
$GPGSV,3,2,11,13,21,036,18,15,49,019,23,20,08,091,,23,26,312,12*71
$GPGSV,3,3,11,24,55,137,21,25,00,189,,32,07,233,*4A
$GPGLL,2059.83997,N,10553.20865,E,084652.00,A,A*6D
[0m
[0;32mI (201099) GPS: UTC Time: 084652.00, Latitude: 20.997334, Longitude: 105.886810[0m
[0;32mI (202439) Transmit UART: Encoded and sent data over UART.[0m
[0;31mE (203589) DHT: Sensor Timeout
[0m
=== Reading Node number 5 ===
[0;32mI (206109) PMS7003: PM1.0: 14 µg/m³[0m
[0;32mI (206109) PMS7003: PM2.5: 19 µg/m³[0m
[0;32mI (206109) PMS7003: PM10: 26 µg/m³[0m
[0;32mI (206109) DHT22: Hum 34.7[0m
[0;32mI (206109) DHT22: Tmp 33.4[0m
[0;32mI (206119) MQ131: MQ131 - O3 Concentration: 631654296015678004493549568000.00 ppb[0m
[0;32mI (206119) MQ136: MQ136 - SO2 Concentration: 27.94 ppm[0m

[0;32mI (206129) MICS6814: MICS6814 - CO Concentration: 2287.00 ppm[0m
[0;32mI (206139) MICS6814: MICS6814 - NO2 Concentration: 2.82 ppm[0m

[0;32mI (206139) GPS: Received: $GPRMC,084657.00,A,2059.83899,N,10553.20865,E,0.278,,290624,,,A*78
$GPVTG,,T,,M,0.278,N,0.514,K,A*2E
$GPGGA,084657.00,2059.83899,N,10553.20865,E,1,05,1.71,14.4,M,-23.3,M,,*4E
$GPGSA,A,3,15,05,23,24,13,,,,,,,,3.49,1.71,3.04*08
$GPGSV,3,1,11,05,23,069,20,10,03,289,,11,01,136,08,12,00,162,*78
$GPGSV,3,2,11,13,21,036,21,15,49,019,23,20,08,091,,23,26,312,13*7A
$GPGSV,3,3,11,24,55,137,24,25,00,189,,32,07,233,*4F
$GPGLL,2059.83899,N,10553.20865,E,084657.00,A,A*67
[0m
[0;32mI (206189) GPS: UTC Time: 084657.00, Latitude: 20.997316, Longitude: 105.886810[0m
[0;32mI (207439) Transmit UART: Encoded and sent data over UART.[0m
=== Reading Node number 5 ===
[0;32mI (211199) PMS7003: PM1.0: 15 µg/m³[0m
[0;32mI (211199) PMS7003: PM2.5: 19 µg/m³[0m
[0;32mI (211199) PMS7003: PM10: 27 µg/m³[0m
[0;32mI (211199) DHT22: Hum 34.7[0m
[0;32mI (211199) DHT22: Tmp 33.4[0m
[0;32mI (211209) MQ131: MQ131 - O3 Concentration: 631654296015678004493549568000.00 ppb[0m
[0;32mI (211209) MQ136: MQ136 - SO2 Concentration: 27.76 ppm[0m

[0;32mI (211219) MICS6814: MICS6814 - CO Concentration: 2435.00 ppm[0m
[0;32mI (211229) MICS6814: MICS6814 - NO2 Concentration: 2.85 ppm[0m

[0;32mI (211229) GPS: Received: $GPRMC,084702.00,A,2059.83819,N,10553.20784,E,0.360,,290624,,,A*79
$GPVTG,,T,,M,0.360,N,0.667,K,A*21
$GPGGA,084702.00,2059.83819,N,10553.20784,E,1,05,1.71,13.1,M,-23.3,M,,*45
$GPGSA,A,3,15,05,23,24,13,,,,,,,,3.49,1.71,3.04*08
$GPGSV,3,1,11,05,23,069,21,10,03,289,,11,01,136,06,12,00,162,*77
$GPGSV,3,2,11,13,21,036,19,15,49,019,22,20,08,091,,23,26,312,13*70
$GPGSV,3,3,11,24,55,137,25,25,00,189,,32,07,233,*4E
$GPGLL,2059.83819,N,10553.20784,E,084702.00,A,A*6E
[0m
[0;32mI (211279) GPS: UTC Time: 084702.00, Latitude: 20.997303, Longitude: 105.886795[0m
[0;32mI (212439) Transmit UART: Encoded and sent data over UART.[0m
=== Reading Node number 5 ===
[0;32mI (216289) PMS7003: PM1.0: 16 µg/m³[0m
[0;32mI (216289) PMS7003: PM2.5: 19 µg/m³[0m
[0;32mI (216289) PMS7003: PM10: 26 µg/m³[0m
[0;32mI (216289) DHT22: Hum 34.8[0m
[0;32mI (216289) DHT22: Tmp 33.4[0m
[0;32mI (216299) MQ131: MQ131 - O3 Concentration: 631654296015678004493549568000.00 ppb[0m
[0;32mI (216299) MQ136: MQ136 - SO2 Concentration: 27.00 ppm[0m

[0;32mI (216309) MICS6814: MICS6814 - CO Concentration: 31.00 ppm[0m
[0;32mI (216319) MICS6814: MICS6814 - NO2 Concentration: 3.37 ppm[0m

[0;32mI (216319) GPS: Received: $GPRMC,084707.00,A,2059.83799,N,10553.20665,E,1.009,,290624,,,A*78
$GPVTG,,T,,M,1.009,N,1.869,K,A*2D
$GPGGA,084707.00,2059.83799,N,10553.20665,E,1,05,1.71,11.3,M,-23.3,M,,*49
$GPGSA,A,3,15,05,23,24,13,,,,,,,,3.49,1.71,3.04*08
$GPGSV,3,1,11,05,23,069,21,10,03,289,,11,01,136,06,12,00,162,*77
$GPGSV,3,2,11,13,21,036,18,15,49,019,21,20,08,091,,23,26,312,12*73
$GPGSV,3,3,11,24,55,137,26,25,00,189,,32,07,233,*4D
$GPGLL,2059.83799,N,10553.20665,E,084707.00,A,A*62
[0m
[0;32mI (216369) GPS: UTC Time: 084707.00, Latitude: 20.997299, Longitude: 105.886780[0m
[0;32mI (217439) Transmit UART: Encoded and sent data over UART.[0m
