ets Jul 29 2019 12:21:46

rst:0x1 (POWERON_RESET),boot:0x13 (SPI_FAST_FLASH_BOOT)
configsip: 0, SPIWP:0xee
clk_drv:0x00,q_drv:0x00,d_drv:0x00,cs0_drv:0x00,hd_drv:0x00,wp_drv:0x00
mode:DIO, clock div:2
load:0x3fff0030,len:7172
load:0x40078000,len:15540
load:0x40080400,len:4
ho 8 tail 4 room 4
load:0x40080404,len:3904
entry 0x40080640
[0;32mI (31) boot: ESP-IDF v5.2.1-dirty 2nd stage bootloader[0m
[0;32mI (31) boot: compile time Jun 28 2024 03:55:22[0m
[0;32mI (31) boot: Multicore bootloader[0m
[0;32mI (36) boot: chip revision: v3.1[0m
[0;32mI (40) boot.esp32: SPI Speed      : 40MHz[0m
[0;32mI (44) boot.esp32: SPI Mode       : DIO[0m
[0;32mI (49) boot.esp32: SPI Flash Size : 2MB[0m
[0;32mI (53) boot: Enabling RNG early entropy source...[0m
[0;32mI (59) boot: Partition Table:[0m
[0;32mI (62) boot: ## Label            Usage          Type ST Offset   Length[0m
[0;32mI (70) boot:  0 nvs              WiFi data        01 02 00009000 00006000[0m
[0;32mI (77) boot:  1 phy_init         RF data          01 01 0000f000 00001000[0m
[0;32mI (85) boot:  2 factory          factory app      00 00 00010000 00100000[0m
[0;32mI (92) boot: End of partition table[0m
[0;32mI (96) esp_image: segment 0: paddr=00010020 vaddr=3f400020 size=0d898h ( 55448) map[0m
[0;32mI (124) esp_image: segment 1: paddr=0001d8c0 vaddr=3ffb0000 size=02694h (  9876) load[0m
[0;32mI (128) esp_image: segment 2: paddr=0001ff5c vaddr=40080000 size=000bch (   188) load[0m
[0;32mI (130) esp_image: segment 3: paddr=00020020 vaddr=400d0020 size=21d5ch (138588) map[0m
[0;32mI (186) esp_image: segment 4: paddr=00041d84 vaddr=400800bc size=0ea08h ( 59912) load[0m
[0;32mI (217) boot: Loaded app from partition at offset 0x10000[0m
[0;32mI (217) boot: Disabling RNG early entropy source...[0m
[0;32mI (228) cpu_start: Multicore app[0m
[0;32mI (237) cpu_start: Pro cpu start user code[0m
[0;32mI (237) cpu_start: cpu freq: 160000000 Hz[0m
[0;32mI (237) cpu_start: Application information:[0m
[0;32mI (240) cpu_start: Project name:     NODE[0m
[0;32mI (245) cpu_start: App version:      1[0m
[0;32mI (249) cpu_start: Compile time:     Jun 28 2024 03:55:09[0m
[0;32mI (255) cpu_start: ELF file SHA256:  ab1e76a59...[0m
[0;32mI (261) cpu_start: ESP-IDF:          v5.2.1-dirty[0m
[0;32mI (266) cpu_start: Min chip rev:     v0.0[0m
[0;32mI (271) cpu_start: Max chip rev:     v3.99 [0m
[0;32mI (275) cpu_start: Chip rev:         v3.1[0m
[0;32mI (280) heap_init: Initializing. RAM available for dynamic allocation:[0m
[0;32mI (288) heap_init: At 3FFAE6E0 len 00001920 (6 KiB): DRAM[0m
[0;32mI (293) heap_init: At 3FFB3690 len 0002C970 (178 KiB): DRAM[0m
[0;32mI (300) heap_init: At 3FFE0440 len 00003AE0 (14 KiB): D/IRAM[0m
[0;32mI (306) heap_init: At 3FFE4350 len 0001BCB0 (111 KiB): D/IRAM[0m
[0;32mI (313) heap_init: At 4008EAC4 len 0001153C (69 KiB): IRAM[0m
[0;32mI (320) spi_flash: detected chip: generic[0m
[0;32mI (323) spi_flash: flash io: dio[0m
[0;33mW (327) spi_flash: Detected size(4096k) larger than the size in the binary image header(2048k). Using the size in the binary image header.[0m
[0;33mW (340) ADC: legacy driver is deprecated, please migrate to `esp_adc/adc_oneshot.h`[0m
[0;32mI (349) main_task: Started on CPU0[0m
[0;32mI (359) main_task: Calling app_main()[0m
[0;32mI (359) gpio: GPIO[18]| InputEn: 1| OutputEn: 0| OpenDrain: 0| Pullup: 1| Pulldown: 0| Intr:0 [0m
[0;32mI (359) gpio: GPIO[19]| InputEn: 0| OutputEn: 1| OpenDrain: 0| Pullup: 1| Pulldown: 0| Intr:0 [0m
Sending message: Hiiiii!
[0;32mI (389) gpio: GPIO[4]| InputEn: 0| OutputEn: 0| OpenDrain: 0| Pullup: 1| Pulldown: 0| Intr:0 [0m
[0;32mI (389) gpio: GPIO[5]| InputEn: 0| OutputEn: 0| OpenDrain: 0| Pullup: 1| Pulldown: 0| Intr:0 [0m
[0;32mI (2399) Transmit UART: Encoded and sent data over UART.[0m
[0;32mI (2399) gpio: GPIO[2]| InputEn: 0| OutputEn: 0| OpenDrain: 0| Pullup: 1| Pulldown: 0| Intr:0 [0m
=== Reading Node number 5 ===
[0;32mI (2409) PMS7003: PM1.0: 15 µg/m³[0m
[0;32mI (2409) PMS7003: PM2.5: 25 µg/m³[0m
[0;32mI (2409) PMS7003: PM10: 40 µg/m³[0m
[0;32mI (2409) DHT22: Hum 33.7[0m
[0;32mI (2419) DHT22: Tmp 33.1[0m
[0;32mI (2419) MQ131: MQ131 - O3 Concentration: 27.54 ppb[0m
[0;32mI (2429) MQ136: MQ136 - SO2 Concentration: 25.11 ppm[0m

[0;32mI (2429) MICS6814: MICS6814 - CO Concentration: 80.00 ppm[0m
[0;32mI (2439) MICS6814: MICS6814 - NO2 Concentration: 3.31 ppm[0m

[0;32mI (2439) GPS: Received: $GPRMC,092800.00,A,2059.82617,N,10553.20417,E,1.905,,290624,,,A*73
$GPVTG,,T,,M,1.905,N,3.529,K,A*23
$GPGGA,092800.00,2059.82617,N,10553.20417,E,1,05,2.64,-27.6,M,-23.3,M,,*6D
$GPGSA,A,3,15,05,18,23,24,,,,,,,,3.83,2.64,2.78*08
$GPGSV,4,1,13,05,17,088,15,10,11,304,18,12,04,147,,13,06,041,*72
$GPGSV,4,2,13,15,34,032,20,18,77,318,21,20,00,107,,23,35,330,18*77
$GPGSV,4,3,13,24,64,097,24,25,03,175,,27,01,311,,29,21,197,*77
$GPGSV,4,4,13,32,19,247,11*43
$GPGLL,2059.82617,N,10553.20417,E,092800.00,A,A*6C
$GPRMC,092801.00,A,2059.82641,N,10553.20461,E,1.713,,290624,,,A*79
$GPVTG,,T,,M,1.713,N,3.173,K,A*21
$GPGGA,092801.00,2059.82641,N,10553.20461,E,1,06,2.64,-27.3,M,-23.3,M,,*68
$GPGSA,A,3,15,05,18,23,24,13,,,,,,,3.83,2.64,2.78*0A
$GPGSV,4,1,13,05,17,088,15,10,11,304,19,12,04,147,,13,06,041,17*75
$GPGSV,4,2,13,15,34,032,21,18,77,318,22,20,00,107,,23,35,330,18*75
$GPGSV,4,3,13,24,64,097,24,25,03,175,,27,01,311,,29,21,197,*77
$GPGSV,4,4,13,32,19,247,11*43
$GPGLL,2059.82641,N,10553.20461,E,092801.00,A,A*092800.00[0m
[0;32mI (2539) GPS: UTC Time: 092800.00, Latitude: 20.997103, Longitude: 105.886734[0m
[0;32mI (2549) SSD1306: INTERFACE is i2c[0m
[0;32mI (2549) SSD1306: CONFIG_SDA_GPIO=21[0m
[0;32mI (2559) SSD1306: CONFIG_SCL_GPIO=22[0m
[0;32mI (2559) SSD1306: CONFIG_RESET_GPIO=33[0m
[0;32mI (2559) SSD1306: New i2c driver is used[0m
[0;32mI (2569) gpio: GPIO[21]| InputEn: 1| OutputEn: 1| OpenDrain: 1| Pullup: 1| Pulldown: 0| Intr:0 [0m
[0;32mI (2579) gpio: GPIO[22]| InputEn: 1| OutputEn: 1| OpenDrain: 1| Pullup: 1| Pulldown: 0| Intr:0 [0m
[0;32mI (2589) gpio: GPIO[33]| InputEn: 0| OutputEn: 0| OpenDrain: 0| Pullup: 1| Pulldown: 0| Intr:0 [0m
[0;32mI (2599) main_task: Returned from app_main()[0m
[0;32mI (2649) SSD1306: Panel is 128x64[0m
[0;32mI (2649) SSD1306: OLED configured successfully[0m
[0;32mI (2899) RX_TASK: Read 6 bytes: C000051F06C7[0m
[0;31mE (4439) DHT: Sensor Timeout
[0m
[0;32mI (7399) Transmit UART: Encoded and sent data over UART.[0m
=== Reading Node number 5 ===
[0;32mI (7549) PMS7003: PM1.0: 14 µg/m³[0m
[0;32mI (7549) PMS7003: PM2.5: 17 µg/m³[0m
[0;32mI (7549) PMS7003: PM10: 17 µg/m³[0m
[0;32mI (7549) DHT22: Hum 33.6[0m
[0;32mI (7549) DHT22: Tmp 33.1[0m
[0;32mI (7559) MQ131: MQ131 - O3 Concentration: 631654296015678004493549568000.00 ppb[0m
[0;32mI (7559) MQ136: MQ136 - SO2 Concentration: 25.25 ppm[0m

[0;32mI (7569) MICS6814: MICS6814 - CO Concentration: 2829.00 ppm[0m
[0;32mI (7579) MICS6814: MICS6814 - NO2 Concentration: 3.33 ppm[0m

[0;32mI (7579) GPS: Received: $GPRMC,092806.00,A,2059.82809,N,10553.20575,E,0.281,,290624,,,A*77
$GPVTG,,T,,M,0.281,N,0.521,K,A*2E
$GPGGA,092806.00,2059.82809,N,10553.20575,E,1,06,2.64,-23.8,M,-23.3,M,,*66
$GPGSA,A,3,15,05,18,23,24,13,,,,,,,3.83,2.64,2.78*0A
$GPGSV,4,1,13,05,17,088,15,10,11,304,17,12,04,147,,13,06,041,13*7F
$GPGSV,4,2,13,15,34,032,22,18,77,318,23,20,00,107,,23,35,330,18*77
$GPGSV,4,3,13,24,64,097,23,25,03,175,,27,01,311,,29,21,197,*70
$GPGSV,4,4,13,32,19,247,12*40
$GPGLL,2059.82809,N,10553.20575,E,092806.00,A,A*6E
[0m
[0;32mI (7629) GPS: UTC Time: 092806.00, Latitude: 20.997135, Longitude: 105.886765[0m
[0;32mI (12399) Transmit UART: Encoded and sent data over UART.[0m
=== Reading Node number 5 ===
[0;32mI (12639) PMS7003: PM1.0: 14 µg/m³[0m
[0;32mI (12639) PMS7003: PM2.5: 16 µg/m³[0m
[0;32mI (12639) PMS7003: PM10: 16 µg/m³[0m
[0;32mI (12639) DHT22: Hum 33.6[0m
[0;32mI (12639) DHT22: Tmp 33.1[0m
[0;32mI (12649) MQ131: MQ131 - O3 Concentration: 631654296015678004493549568000.00 ppb[0m
[0;32mI (12649) MQ136: MQ136 - SO2 Concentration: 24.84 ppm[0m

[0;32mI (12659) MICS6814: MICS6814 - CO Concentration: 3999.00 ppm[0m
[0;32mI (12669) MICS6814: MICS6814 - NO2 Concentration: 3.93 ppm[0m

[0;32mI (12669) GPS: Received: $GPRMC,092811.00,A,2059.83036,N,10553.20429,E,1.498,,290624,,,A*73
$GPVTG,,T,,M,1.498,N,2.775,K,A*20
$GPGGA,092811.00,2059.83036,N,10553.20429,E,1,06,2.59,-19.0,M,-23.3,M,,*62
$GPGSA,A,3,15,05,18,23,24,13,,,,,,,3.70,2.59,2.65*04
$GPGSV,4,1,13,05,17,088,13,10,11,304,19,12,04,147,,13,06,041,07*72
$GPGSV,4,2,13,15,34,032,23,18,77,318,24,20,00,107,,23,35,330,20*7A
$GPGSV,4,3,13,24,64,097,25,25,03,175,,27,01,311,,29,21,197,*76
$GPGSV,4,4,13,32,19,247,09*4A
$GPGLL,2059.83036,N,10553.20429,E,092811.00,A,A*65
[0m
[0;32mI (12719) GPS: UTC Time: 092811.00, Latitude: 20.997173, Longitude: 105.886742[0m
[0;32mI (17399) Transmit UART: Encoded and sent data over UART.[0m
=== Reading Node number 5 ===
[0;32mI (17729) PMS7003: PM1.0: 15 µg/m³[0m
[0;32mI (17729) PMS7003: PM2.5: 17 µg/m³[0m
[0;32mI (17729) PMS7003: PM10: 17 µg/m³[0m
[0;32mI (17729) DHT22: Hum 33.6[0m
[0;32mI (17729) DHT22: Tmp 33.1[0m
[0;32mI (17739) MQ131: MQ131 - O3 Concentration: 631654296015678004493549568000.00 ppb[0m
[0;32mI (17739) MQ136: MQ136 - SO2 Concentration: 24.81 ppm[0m

[0;32mI (17749) MICS6814: MICS6814 - CO Concentration: 3999.00 ppm[0m
[0;32mI (17759) MICS6814: MICS6814 - NO2 Concentration: 3.27 ppm[0m

[0;32mI (17759) GPS: Received: $GPRMC,092816.00,A,2059.83368,N,10553.20445,E,1.318,,290624,,,A*79
$GPVTG,,T,,M,1.318,N,2.441,K,A*2B
$GPGGA,092816.00,2059.83368,N,10553.20445,E,1,06,2.59,-14.2,M,-23.3,M,,*68
$GPGSA,A,3,15,05,18,23,24,13,,,,,,,3.70,2.59,2.65*04
$GPGSV,4,1,13,05,17,088,13,10,11,304,18,12,04,147,,13,06,041,12*77
$GPGSV,4,2,13,15,34,032,22,18,77,318,23,20,00,107,,23,35,330,20*7C
$GPGSV,4,3,13,24,64,097,23,25,03,175,,27,01,311,,29,21,197,*70
$GPGSV,4,4,13,32,19,247,14*46
$GPGLL,2059.83368,N,10553.20445,E,092816.00,A,A*60
[0m
[0;32mI (17809) GPS: UTC Time: 092816.00, Latitude: 20.997229, Longitude: 105.886742[0m
[0;32mI (22399) Transmit UART: Encoded and sent data over UART.[0m
[0;31mE (22819) DHT: Sensor Timeout
[0m
=== Reading Node number 5 ===
[0;32mI (22819) PMS7003: PM1.0: 12 µg/m³[0m
[0;32mI (22819) PMS7003: PM2.5: 14 µg/m³[0m
[0;32mI (22819) PMS7003: PM10: 15 µg/m³[0m
[0;32mI (22829) DHT22: Hum 33.6[0m
[0;32mI (22829) DHT22: Tmp 33.1[0m
[0;32mI (22839) MQ131: MQ131 - O3 Concentration: 631654296015678004493549568000.00 ppb[0m
[0;32mI (22839) MQ136: MQ136 - SO2 Concentration: 25.36 ppm[0m

[0;32mI (22849) MICS6814: MICS6814 - CO Concentration: 1.00 ppm[0m
[0;32mI (22859) MICS6814: MICS6814 - NO2 Concentration: 3.17 ppm[0m

[0;32mI (22859) GPS: Received: $GPRMC,092821.00,A,2059.83282,N,10553.20537,E,0.558,,290624,,,A*7F
$GPVTG,,T,,M,0.558,N,1.034,K,A*2D
$GPGGA,092821.00,2059.83282,N,10553.20537,E,1,06,2.59,-11.0,M,-23.3,M,,*6A
$GPGSA,A,3,15,05,18,23,24,13,,,,,,,3.70,2.59,2.65*04
$GPGSV,4,1,13,05,17,088,09,10,11,304,18,12,04,147,,13,06,041,09*76
$GPGSV,4,2,13,15,34,032,22,18,77,318,23,20,00,107,,23,35,330,20*7C
$GPGSV,4,3,13,24,64,097,23,25,03,175,,27,01,311,,29,21,197,09*79
$GPGSV,4,4,13,32,19,247,10*42
$GPGLL,2059.83282,N,10553.20537,E,092821.00,A,A*65
[0m
[0;32mI (22909) GPS: UTC Time: 092821.00, Latitude: 20.997213, Longitude: 105.886757[0m
[0;32mI (27399) Transmit UART: Encoded and sent data over UART.[0m
=== Reading Node number 5 ===
[0;32mI (27919) PMS7003: PM1.0: 11 µg/m³[0m
[0;32mI (27919) PMS7003: PM2.5: 13 µg/m³[0m
[0;32mI (27919) PMS7003: PM10: 15 µg/m³[0m
[0;32mI (27929) DHT22: Hum 33.5[0m
[0;32mI (27929) DHT22: Tmp 33.1[0m
[0;32mI (27929) MQ131: MQ131 - O3 Concentration: 631654296015678004493549568000.00 ppb[0m
[0;32mI (27939) MQ136: MQ136 - SO2 Concentration: 24.89 ppm[0m

[0;32mI (27949) MICS6814: MICS6814 - CO Concentration: 29.00 ppm[0m
[0;32mI (27949) MICS6814: MICS6814 - NO2 Concentration: 3.32 ppm[0m

[0;32mI (27959) GPS: Received: $GPRMC,092826.00,A,2059.83240,N,10553.20714,E,0.523,,290624,,,A*79
$GPVTG,,T,,M,0.523,N,0.969,K,A*21
$GPGGA,092826.00,2059.83240,N,10553.20714,E,1,06,3.62,-8.3,M,-23.3,M,,*52
$GPGSA,A,3,15,05,18,23,24,13,,,,,,,5.27,3.62,3.83*00
$GPGSV,4,1,13,05,17,088,07,10,11,304,17,12,04,147,,13,06,041,11*7E
$GPGSV,4,2,13,15,34,032,25,18,77,318,23,20,00,107,,23,35,330,20*7B
$GPGSV,4,3,13,24,64,097,25,25,03,175,,27,01,311,,29,21,197,09*7F
$GPGSV,4,4,13,32,19,247,16*44
$GPGLL,2059.83240,N,10553.20714,E,092826.00,A,A*6F
[0m
[0;32mI (28009) GPS: UTC Time: 092826.00, Latitude: 20.997206, Longitude: 105.886787[0m
[0;32mI (32399) Transmit UART: Encoded and sent data over UART.[0m
=== Reading Node number 5 ===
[0;32mI (33019) PMS7003: PM1.0: 11 µg/m³[0m
[0;32mI (33019) PMS7003: PM2.5: 14 µg/m³[0m
[0;32mI (33019) PMS7003: PM10: 15 µg/m³[0m
[0;32mI (33029) DHT22: Hum 33.5[0m
[0;32mI (33029) DHT22: Tmp 33.1[0m
[0;32mI (33029) MQ131: MQ131 - O3 Concentration: 631654296015678004493549568000.00 ppb[0m
[0;32mI (33039) MQ136: MQ136 - SO2 Concentration: 25.00 ppm[0m

[0;32mI (33049) MICS6814: MICS6814 - CO Concentration: 17.00 ppm[0m
[0;32mI (33049) MICS6814: MICS6814 - NO2 Concentration: 3.31 ppm[0m

[0;32mI (33059) GPS: Received: 2059.83263,N,10553.20818,E,1,05,5.99,-5.2,M,-23.3,M,,*5B
$GPGSA,A,3,15,05,18,23,24,,,,,,,,11.34,5.99,9.63*33
$GPGSV,4,1,13,05,17,088,07,10,11,304,19,12,04,147,,13,06,041,08*78
$GPGSV,4,2,13,15,34,032,25,18,77,318,22,20,00,107,,23,35,330,20*7A
$GPGSV,4,3,13,24,64,097,25,25,03,175,,27,01,311,,29,21,197,08*7E
$GPGSV,4,4,13,32,19,247,16*44
$GPGLL,2059.83263,N,10553.20818,E,092831.00,A,A*6B
$GPRMC,092832.00,A,2059.83304,N,10553.20812,E,0.599,,290624,,,A*75
$GPVTG,,T,,M,0.599,N,1.110,K,A*27
$GPGGA,092832.00,[0m
[0;32mI (33109) GPS: UTC Time: 092828.00, Latitude: 20.997202, Longitude: 105.886787[0m
[0;32mI (37399) Transmit UART: Encoded and sent data over UART.[0m
=== Reading Node number 5 ===
[0;32mI (38119) PMS7003: PM1.0: 12 µg/m³[0m
[0;32mI (38119) PMS7003: PM2.5: 14 µg/m³[0m
[0;32mI (38119) PMS7003: PM10: 15 µg/m³[0m
[0;32mI (38129) DHT22: Hum 33.4[0m
[0;32mI (38129) DHT22: Tmp 33.1[0m
[0;32mI (38129) MQ131: MQ131 - O3 Concentration: 631654296015678004493549568000.00 ppb[0m
[0;32mI (38139) MQ136: MQ136 - SO2 Concentration: 25.11 ppm[0m

[0;32mI (38149) MICS6814: MICS6814 - CO Concentration: 1.00 ppm[0m
[0;32mI (38149) MICS6814: MICS6814 - NO2 Concentration: 3.17 ppm[0m

[0;32mI (38159) GPS: Received: ,13,05,17,088,06,10,11,304,19,12,04,147,,13,06,041,11*71
$GPGSV,4,2,13,15,34,032,26,18,77,318,23,20,00,107,,23,35,330,21*79
$GPGSV,4,3,13,24,64,097,23,25,03,175,,27,01,311,,29,21,197,09*79
$GPGSV,4,4,13,32,19,247,18*4A
$GPGLL,2059.83225,N,10553.20811,E,092836.00,A,A*67
$GPRMC,092837.00,A,2059.83214,N,10553.20866,E,0.537,,290624,,,A*77
$GPVTG,,T,,M,0.537,N,0.994,K,A*26
$GPGGA,092837.00,2059.83214,N,10553.20866,E,1,05,3.63,-3.7,M,-23.3,M,,*54
$GPGSA,A,3,15,18,23,24,13,,,,,,,,5.28,3.63,3.84*0C
$GPGSV,4,1[0m
[0;32mI (38209) GPS: UTC Time: 092828.00, Latitude: 20.997202, Longitude: 105.886787[0m
[0;32mI (42399) Transmit UART: Encoded and sent data over UART.[0m
=== Reading Node number 5 ===
[0;32mI (43219) PMS7003: PM1.0: 12 µg/m³[0m
[0;32mI (43219) PMS7003: PM2.5: 14 µg/m³[0m
[0;32mI (43219) PMS7003: PM10: 15 µg/m³[0m
[0;32mI (43219) DHT22: Hum 33.4[0m
[0;32mI (43219) DHT22: Tmp 33.1[0m
[0;32mI (43229) MQ131: MQ131 - O3 Concentration: 631654296015678004493549568000.00 ppb[0m
[0;32mI (43229) MQ136: MQ136 - SO2 Concentration: 25.41 ppm[0m

[0;32mI (43239) MICS6814: MICS6814 - CO Concentration: 3999.00 ppm[0m
[0;32mI (43249) MICS6814: MICS6814 - NO2 Concentration: 3.02 ppm[0m

[0;32mI (43249) GPS: Received: 73
$GPGSV,4,3,13,24,64,097,23,25,03,175,,27,01,311,15,29,21,197,07*73
$GPGSV,4,4,13,32,19,247,17*45
$GPGLL,2059.83270,N,10553.20916,E,092841.00,A,A*61
$GPRMC,092842.00,A,2059.83283,N,10553.20894,E,0.276,,290624,,,A*74
$GPVTG,,T,,M,0.276,N,0.511,K,A*25
$GPGGA,092842.00,2059.83283,N,10553.20894,E,1,05,3.63,-3.2,M,-23.3,M,,*50
$GPGSA,A,3,15,18,23,24,13,,,,,,,,5.28,3.63,3.84*0C
$GPGSV,4,1,13,05,16,089,,10,11,304,18,12,04,147,,13,06,041,10*77
$GPGSV,4,2,13,15,34,032,25,18,77,318,22,20,00,107,,23,35,330,18*[0m
[0;32mI (43299) GPS: UTC Time: 092828.00, Latitude: 20.997202, Longitude: 105.886787[0m
[0;32mI (47399) Transmit UART: Encoded and sent data over UART.[0m
=== Reading Node number 5 ===
[0;32mI (48309) PMS7003: PM1.0: 11 µg/m³[0m
[0;32mI (48309) PMS7003: PM2.5: 12 µg/m³[0m
[0;32mI (48309) PMS7003: PM10: 15 µg/m³[0m
[0;32mI (48309) DHT22: Hum 33.4[0m
[0;32mI (48309) DHT22: Tmp 33.1[0m
[0;32mI (48319) MQ131: MQ131 - O3 Concentration: 631654296015678004493549568000.00 ppb[0m
[0;32mI (48319) MQ136: MQ136 - SO2 Concentration: 26.03 ppm[0m

[0;32mI (48329) MICS6814: MICS6814 - CO Concentration: 3999.00 ppm[0m
[0;32mI (48339) MICS6814: MICS6814 - NO2 Concentration: 2.97 ppm[0m

[0;32mI (48339) GPS: Received: GPGSV,4,3,14,23,35,330,18,24,64,097,23,25,03,175,,27,01,311,*7E
$GPGSV,4,4,14,29,21,197,,32,19,247,19*7B
$GPGLL,2059.83212,N,10553.20935,E,092846.00,A,A*63
$GPRMC,092847.00,A,2059.83249,N,10553.20830,E,0.927,,290624,,,A*76
$GPVTG,,T,,M,0.927,N,1.717,K,A*2F
$GPGGA,092847.00,2059.83249,N,10553.20830,E,1,06,3.64,-2.5,M,-23.3,M,,*5F
$GPGSA,A,3,15,05,18,23,24,13,,,,,,,5.29,3.64,3.84*0F
$GPGSV,4,1,14,01,,,12,05,16,089,13,10,11,304,19,12,04,146,*40
$GPGSV,4,2,14,13,06,041,08,15,34,032,25,18,77,318,22,20,00,107,*71
$GPGSV,4,3,14,23,35,330,17,24,64,097,22,25,03,175,,27,01,311,*70
$GPGSV,4,4,14,29,21,197,,32,19,247,19*7B
$GPGLL,20 41,N,10553.20461,E,1,06,2.64,-27.3,M,-23.3,M,,*68
$GPGSA,A,3,15,05,18,23,24,13,,,,,,,3.83,2.64,2.78*0A
$GPGSV,4,1,13,05,17,088,15,10,11,304,19,12,04,147,,13,06,041,17*75
$GPGSV,4,2,13,15,34,032,21,18,77,318,22,20,00,107,,23,35,330,18*75
$GPGSV,4,3,13,24,64,097,24,25,03,175,,27,01,311,,29,21,197,*77
$GPGSV,4,4,13,32,19,247,11*43
$GPGLL,2059.82641,N,10553.20461,E,092801.00,A,A*092828.00[0m
[0;32mI (48439) GPS: UTC Time: 092828.00, Latitude: 20.997202, Longitude: 105.886787[0m
[0;32mI (52399) Transmit UART: Encoded and sent data over UART.[0m
=== Reading Node number 5 ===
[0;32mI (53439) PMS7003: PM1.0: 11 µg/m³[0m
[0;32mI (53439) PMS7003: PM2.5: 12 µg/m³[0m
[0;32mI (53439) PMS7003: PM10: 15 µg/m³[0m
[0;32mI (53439) DHT22: Hum 33.4[0m
[0;32mI (53439) DHT22: Tmp 33.1[0m
[0;32mI (53449) MQ131: MQ131 - O3 Concentration: 631654296015678004493549568000.00 ppb[0m
[0;32mI (53449) MQ136: MQ136 - SO2 Concentration: 25.72 ppm[0m

[0;32mI (53459) MICS6814: MICS6814 - CO Concentration: 2161.00 ppm[0m
[0;32mI (53469) MICS6814: MICS6814 - NO2 Concentration: 3.26 ppm[0m

[0;32mI (53469) GPS: Received: $GPRMC,092852.00,A,2059.83196,N,10553.20612,E,1.306,,290624,,,A*75
$GPVTG,,T,,M,1.306,N,2.418,K,A*28
$GPGGA,092852.00,2059.83196,N,10553.20612,E,1,06,3.64,-0.3,M,-23.3,M,,*50
$GPGSA,A,3,15,05,18,23,24,13,,,,,,,5.29,3.64,3.84*0F
$GPGSV,4,1,14,01,,,08,05,16,089,12,10,11,304,21,12,04,146,*41
$GPGSV,4,2,14,13,05,042,12,15,34,033,26,18,77,318,23,20,00,107,*79
$GPGSV,4,3,14,23,35,330,19,24,64,097,23,25,03,175,,27,01,311,*7F
$GPGSV,4,4,14,29,21,197,,32,19,247,20*71
$GPGLL,2059.83196,N,10553.20612,E,092852.00,A,A*63
[0m
[0;32mI (53519) GPS: UTC Time: 092852.00, Latitude: 20.997200, Longitude: 105.886772[0m
[0;32mI (57399) Transmit UART: Encoded and sent data over UART.[0m
=== Reading Node number 5 ===
[0;32mI (58529) PMS7003: PM1.0: 10 µg/m³[0m
[0;32mI (58529) PMS7003: PM2.5: 12 µg/m³[0m
[0;32mI (58529) PMS7003: PM10: 15 µg/m³[0m
[0;32mI (58529) DHT22: Hum 33.4[0m
[0;32mI (58529) DHT22: Tmp 33.1[0m
[0;32mI (58539) MQ131: MQ131 - O3 Concentration: 631654296015678004493549568000.00 ppb[0m
[0;32mI (58539) MQ136: MQ136 - SO2 Concentration: 26.09 ppm[0m

[0;32mI (58549) MICS6814: MICS6814 - CO Concentration: 230.00 ppm[0m
[0;32mI (58559) MICS6814: MICS6814 - NO2 Concentration: 3.45 ppm[0m

[0;32mI (58559) GPS: Received: $GPRMC,092857.00,A,2059.83229,N,10553.20546,E,0.551,,290624,,,A*70
$GPVTG,,T,,M,0.551,N,1.020,K,A*21
$GPGGA,092857.00,2059.83229,N,10553.20546,E,1,06,3.64,0.9,M,-23.3,M,,*77
$GPGSA,A,3,15,05,18,23,24,13,,,,,,,5.29,3.64,3.84*0F
$GPGSV,4,1,14,01,,,08,05,16,089,07,10,11,304,21,12,04,146,*45
$GPGSV,4,2,14,13,05,042,11,15,34,033,28,18,77,316,25,20,00,108,15*77
$GPGSV,4,3,14,23,35,330,20,24,64,097,23,25,03,175,,27,01,311,*75
$GPGSV,4,4,14,29,21,197,,32,19,247,21*70
$GPGLL,2059.83229,N,10553.20546,E,092857.00,A,A*63
[0m
[0;32mI (58609) GPS: UTC Time: 092857.00, Latitude: 20.997206, Longitude: 105.886757[0m
[0;32mI (62399) Transmit UART: Encoded and sent data over UART.[0m
=== Reading Node number 5 ===
[0;32mI (63619) PMS7003: PM1.0: 11 µg/m³[0m
[0;32mI (63619) PMS7003: PM2.5: 15 µg/m³[0m
[0;32mI (63619) PMS7003: PM10: 16 µg/m³[0m
[0;32mI (63619) DHT22: Hum 33.4[0m
[0;32mI (63619) DHT22: Tmp 33.1[0m
[0;32mI (63629) MQ131: MQ131 - O3 Concentration: 631654296015678004493549568000.00 ppb[0m
[0;32mI (63629) MQ136: MQ136 - SO2 Concentration: 25.22 ppm[0m

[0;32mI (63639) MICS6814: MICS6814 - CO Concentration: 60.00 ppm[0m
[0;32mI (63649) MICS6814: MICS6814 - NO2 Concentration: 3.23 ppm[0m

[0;32mI (63649) GPS: Received: $GPRMC,092902.00,A,2059.83268,N,10553.20593,E,0.162,,290624,,,A*78
$GPVTG,,T,,M,0.162,N,0.300,K,A*25
$GPGGA,092902.00,2059.83268,N,10553.20593,E,1,05,3.64,0.8,M,-23.3,M,,*79
$GPGSA,A,3,15,18,23,24,13,,,,,,,,5.29,3.64,3.84*0A
$GPGSV,4,1,13,05,16,089,,10,11,304,22,12,04,146,,13,05,042,09*77
$GPGSV,4,2,13,15,34,033,27,18,77,316,23,20,00,108,05,23,35,330,19*76
$GPGSV,4,3,13,24,64,096,22,25,03,175,,27,01,311,,29,21,197,*70
$GPGSV,4,4,13,32,19,247,19*4B
$GPGLL,2059.83268,N,10553.20593,E,092902.00,A,A*6F
[0m
[0;32mI (63699) GPS: UTC Time: 092902.00, Latitude: 20.997211, Longitude: 105.886765[0m
[0;32mI (67399) Transmit UART: Encoded and sent data over UART.[0m
=== Reading Node number 5 ===
[0;32mI (68709) PMS7003: PM1.0: 12 µg/m³[0m
[0;32mI (68709) PMS7003: PM2.5: 15 µg/m³[0m
[0;32mI (68709) PMS7003: PM10: 16 µg/m³[0m
[0;32mI (68709) DHT22: Hum 33.4[0m
[0;32mI (68709) DHT22: Tmp 33.1[0m
[0;32mI (68719) MQ131: MQ131 - O3 Concentration: 631654296015678004493549568000.00 ppb[0m
[0;32mI (68719) MQ136: MQ136 - SO2 Concentration: 25.00 ppm[0m

[0;32mI (68729) MICS6814: MICS6814 - CO Concentration: 34.00 ppm[0m
[0;32mI (68739) MICS6814: MICS6814 - NO2 Concentration: 3.26 ppm[0m

[0;32mI (68739) GPS: Received: $GPRMC,092906.00,A,2059.83310,N,10553.20565,E,0.419,,290624,,,A*72
$GPVTG,,T,,M,0.797,N,1.477,K,A*2F
$GPGGA,092907.00,2059.83335,N,10553.20514,E,1,05,3.65,0.7,M,-23.3,M,,*74
$GPGSA,A,3,15,18,23,24,13,,,,,,,,5.30,3.65,3.84*03
$GPGSV,4,1,13,05,16,089,10,10,11,304,21,12,04,146,,13,05,042,08*74
$GPGSV,4,2,13,15,34,033,27,18,77,316,24,20,00,108,,23,35,330,21*7F
$GPGSV,4,3,13,24,64,096,24,25,03,175,,27,01,311,,29,21,197,16*71
$GPGSV,4,4,13,32,19,248,21*4F
$GPGLL,2059.83335,N,10553.20514,E,092907.00,A,A*6C
 C
[0m
[0;32mI (68789) GPS: UTC Time: 092907.00, Latitude: 20.997223, Longitude: 105.886749[0m
[0;32mI (72399) Transmit UART: Encoded and sent data over UART.[0m
[0;31mE (72839) DHT: Sensor Timeout
[0m
=== Reading Node number 5 ===
[0;32mI (73799) PMS7003: PM1.0: 13 µg/m³[0m
[0;32mI (73799) PMS7003: PM2.5: 16 µg/m³[0m
[0;32mI (73799) PMS7003: PM10: 16 µg/m³[0m
[0;32mI (73799) DHT22: Hum 33.4[0m
[0;32mI (73799) DHT22: Tmp 33.1[0m
[0;32mI (73809) MQ131: MQ131 - O3 Concentration: 631654296015678004493549568000.00 ppb[0m
[0;32mI (73809) MQ136: MQ136 - SO2 Concentration: 26.34 ppm[0m

[0;32mI (73819) MICS6814: MICS6814 - CO Concentration: 135.00 ppm[0m
[0;32mI (73829) MICS6814: MICS6814 - NO2 Concentration: 2.75 ppm[0m

[0;32mI (73829) GPS: Received: $GPRMC,092911.00,A,2059.83394,N,10553.20436,E,1.276,,290624,,,A*71
$GPVTG,,T,,M,1.276,N,2.363,K,A*25
$GPGGA,092911.00,2059.83394,N,10553.20436,E,1,06,3.65,1.6,M,-23.3,M,,*7A
$GPGSA,A,3,15,05,18,23,24,13,,,,,,,5.30,3.65,3.84*06
$GPGSV,4,1,13,05,16,089,16,10,11,304,20,12,04,146,,13,05,042,11*7B
$GPGSV,4,2,13,15,34,033,28,18,77,316,26,20,00,108,,23,35,330,21*72
$GPGSV,4,3,13,24,64,096,25,25,03,175,,27,01,311,,29,21,197,11*77
$GPGSV,4,4,13,32,19,248,23*4D
$GPGLL,2059.83431,N,10553.20403,E,092912.00,A,A*6C
[0m
[0;32mI (73879) GPS: UTC Time: 092912.00, Latitude: 20.997238, Longitude: 105.886734[0m
[0;32mI (77399) Transmit UART: Encoded and sent data over UART.[0m
=== Reading Node number 5 ===
[0;32mI (78889) PMS7003: PM1.0: 13 µg/m³[0m
[0;32mI (78889) PMS7003: PM2.5: 17 µg/m³[0m
[0;32mI (78889) PMS7003: PM10: 18 µg/m³[0m
[0;32mI (78889) DHT22: Hum 33.4[0m
[0;32mI (78889) DHT22: Tmp 33.1[0m
[0;32mI (78899) MQ131: MQ131 - O3 Concentration: 631654296015678004493549568000.00 ppb[0m
[0;32mI (78899) MQ136: MQ136 - SO2 Concentration: 25.19 ppm[0m

[0;32mI (78909) MICS6814: MICS6814 - CO Concentration: 3999.00 ppm[0m
[0;32mI (78919) MICS6814: MICS6814 - NO2 Concentration: 3.68 ppm[0m

[0;32mI (78929) GPS: Received: $GPRMC,092916.00,A,2059.83492,N,10553.20447,E,0.296,,290624,,,A*7E
$GPVTG,,T,,M,0.296,N,0.549,K,A*26
$GPGGA,092916.00,2059.83492,N,10553.20447,E,1,06,6.38,3.9,M,-23.3,M,,*7A
$GPGSA,A,3,15,05,18,23,24,13,,,,,,,12.06,6.38,10.24*00
$GPGSV,4,1,13,05,16,089,10,10,11,304,21,12,04,146,,13,05,042,07*7B
$GPGSV,4,2,13,15,34,033,29,18,77,316,26,20,00,108,,23,35,330,21*73
$GPGSV,4,3,13,24,64,096,23,25,03,175,,27,01,311,20,29,21,197,08*7B
$GPGSV,4,4,13,32,19,248,24*4A
$GPGLL,2059.83492,N,10553.20447,E,092916.00,A,A*61
[0m
[0;31mE (78959) DHT: Sensor Timeout
[0m
[0;32mI (78979) GPS: UTC Time: 092916.00, Latitude: 20.997250, Longitude: 105.886742[0m
[0;32mI (82399) Transmit UART: Encoded and sent data over UART.[0m
=== Reading Node number 5 ===
[0;32mI (83979) PMS7003: PM1.0: 13 µg/m³[0m
[0;32mI (83979) PMS7003: PM2.5: 16 µg/m³[0m
[0;32mI (83979) PMS7003: PM10: 17 µg/m³[0m
[0;32mI (83979) DHT22: Hum 33.4[0m
[0;32mI (83979) DHT22: Tmp 33.1[0m
[0;32mI (83989) MQ131: MQ131 - O3 Concentration: 631654296015678004493549568000.00 ppb[0m
[0;32mI (83989) MQ136: MQ136 - SO2 Concentration: 24.84 ppm[0m

[0;32mI (83999) MICS6814: MICS6814 - CO Concentration: 3960.00 ppm[0m
[0;32mI (84009) MICS6814: MICS6814 - NO2 Concentration: 3.83 ppm[0m

[0;32mI (84009) GPS: Received: 2059.83575,N,10553.20456,E,1,05,6.42,4.9,M,-23.3,M,,*7F
$GPGSA,A,3,15,18,23,24,13,,,,,,,,12.15,6.42,10.31*0E
$GPGSV,4,1,13,05,16,089,06,10,11,304,21,12,04,146,,13,05,042,09*72
$GPGSV,4,2,13,15,34,033,30,18,77,316,29,20,00,108,,23,35,330,21*74
$GPGSV,4,3,13,24,64,096,25,25,03,175,21,27,01,311,08,29,21,197,08*74
$GPGSV,4,4,13,32,19,248,26*48
$GPGLL,2059.83575,N,10553.20456,E,092921.00,A,A*6D
$GPRMC,092922.00,A,2059.83582,N,10553.20460,E,0.261,,290624,,,A*74
$GPVTG,,T,,M,0.261,N,0.484,K,A*2E
$GPGGA,092922.00,[0m
[0;32mI (84059) GPS: UTC Time: 092917.00, Latitude: 20.997253, Longitude: 105.886742[0m
[0;31mE (85109) DHT: Sensor Timeout
[0m
[0;32mI (87399) Transmit UART: Encoded and sent data over UART.[0m
=== Reading Node number 5 ===
[0;32mI (89069) PMS7003: PM1.0: 12 µg/m³[0m
[0;32mI (89069) PMS7003: PM2.5: 15 µg/m³[0m
[0;32mI (89069) PMS7003: PM10: 16 µg/m³[0m
[0;32mI (89069) DHT22: Hum 33.4[0m
[0;32mI (89069) DHT22: Tmp 33.1[0m
[0;32mI (89079) MQ131: MQ131 - O3 Concentration: 631654296015678004493549568000.00 ppb[0m
[0;32mI (89079) MQ136: MQ136 - SO2 Concentration: 25.69 ppm[0m

[0;32mI (89089) MICS6814: MICS6814 - CO Concentration: 1.00 ppm[0m
[0;32mI (89099) MICS6814: MICS6814 - NO2 Concentration: 3.50 ppm[0m

[0;32mI (89099) GPS: Received: 4,1,13,05,16,089,18,10,11,304,19,12,04,146,,13,05,042,16*78
$GPGSV,4,2,13,15,34,033,29,18,77,316,28,20,00,108,14,23,35,330,22*7B
$GPGSV,4,3,13,24,64,096,24,25,03,175,10,27,01,311,08,29,21,197,12*7C
$GPGSV,4,4,13,32,19,248,25*4B
$GPGLL,2059.83588,N,10553.20443,E,092926.00,A,A*6C
$GPRMC,092927.00,A,2059.83557,N,10553.20494,E,0.680,,290624,,,A*79
$GPVTG,,T,,M,0.680,N,1.259,K,A*22
$GPGGA,092927.00,2059.83557,N,10553.20494,E,1,06,6.48,4.7,M,-23.3,M,,*70
$GPGSA,A,3,15,05,18,23,24,13,,,,,,,12.25,6.48,10.40*04
$GPGSV,[0m
[0;32mI (89149) GPS: UTC Time: 092917.00, Latitude: 20.997253, Longitude: 105.886742[0m
[0;32mI (92399) Transmit UART: Encoded and sent data over UART.[0m
=== Reading Node number 5 ===
[0;32mI (94159) PMS7003: PM1.0: 13 µg/m³[0m
[0;32mI (94159) PMS7003: PM2.5: 15 µg/m³[0m
[0;32mI (94159) PMS7003: PM10: 17 µg/m³[0m
[0;32mI (94159) DHT22: Hum 33.3[0m
[0;32mI (94159) DHT22: Tmp 33.1[0m
[0;32mI (94169) MQ131: MQ131 - O3 Concentration: 631654296015678004493549568000.00 ppb[0m
[0;32mI (94169) MQ136: MQ136 - SO2 Concentration: 25.22 ppm[0m

[0;32mI (94179) MICS6814: MICS6814 - CO Concentration: 117.00 ppm[0m
[0;32mI (94189) MICS6814: MICS6814 - NO2 Concentration: 3.41 ppm[0m

[0;32mI (94189) GPS: Received: 0,21*79
$GPGSV,4,3,13,24,64,096,24,25,03,175,10,27,01,311,,29,21,197,12*74
$GPGSV,4,4,13,32,19,248,26*48
$GPGLL,2059.83553,N,10553.20495,E,092931.00,A,A*67
$GPRMC,092932.00,A,2059.83565,N,10553.20508,E,0.480,,290624,,,A*7A
$GPVTG,,T,,M,0.480,N,0.889,K,A*26
$GPGGA,092932.00,2059.83565,N,10553.20508,E,1,06,2.59,4.3,M,-23.3,M,,*71
$GPGSA,A,3,15,05,18,23,24,13,,,,,,,3.69,2.59,2.63*0A
$GPGSV,4,1,13,05,16,089,16,10,11,304,15,12,04,146,,13,05,042,13*7F
$GPGSV,4,2,13,15,34,033,27,18,77,316,27,20,00,108,09,23,35,33[0m
[0;32mI (94239) GPS: UTC Time: 092917.00, Latitude: 20.997253, Longitude: 105.886742[0m
[0;31mE (97369) DHT: Sensor Timeout
[0m
[0;32mI (97399) Transmit UART: Encoded and sent data over UART.[0m
=== Reading Node number 5 ===
[0;32mI (99249) PMS7003: PM1.0: 13 µg/m³[0m
[0;32mI (99249) PMS7003: PM2.5: 15 µg/m³[0m
[0;32mI (99249) PMS7003: PM10: 15 µg/m³[0m
[0;32mI (99249) DHT22: Hum 33.3[0m
[0;32mI (99249) DHT22: Tmp 33.1[0m
[0;32mI (99259) MQ131: MQ131 - O3 Concentration: 631654296015678004493549568000.00 ppb[0m
[0;32mI (99259) MQ136: MQ136 - SO2 Concentration: 25.58 ppm[0m

[0;32mI (99269) MICS6814: MICS6814 - CO Concentration: 1.00 ppm[0m
[0;32mI (99279) MICS6814: MICS6814 - NO2 Concentration: 2.68 ppm[0m

[0;32mI (99279) GPS: Received: $GPRMC,092937.00,A,2059.83627,N,10553.20493,E,0.251,,290624,,,A*73
$GPVTG,,T,,M,0.251,N,0.465,K,A*22
$GPGGA,092937.00,2059.83627,N,10553.20493,E,1,05,2.63,5.0,M,-23.3,M,,*7A
$GPGSA,A,3,15,05,18,23,24,,,,,,,,3.82,2.63,2.77*01
$GPGSV,4,1,13,05,16,089,19,10,11,304,15,12,04,146,,13,05,042,08*7A
$GPGSV,4,2,13,15,34,033,29,18,77,316,29,20,00,108,08,23,35,330,24*71
$GPGSV,4,3,13,24,64,096,25,25,03,175,,27,01,311,,29,21,197,13*75
$GPGSV,4,4,13,32,19,248,28*46
$GPGLL,2059.83627,N,10553.20493,E,092937.00,A,A*67
[0m
[0;32mI (99329) GPS: UTC Time: 092937.00, Latitude: 20.997271, Longitude: 105.886749[0m
[0;32mI (102399) Transmit UART: Encoded and sent data over UART.[0m
=== Reading Node number 5 ===
[0;32mI (104339) PMS7003: PM1.0: 13 µg/m³[0m
[0;32mI (104339) PMS7003: PM2.5: 16 µg/m³[0m
[0;32mI (104339) PMS7003: PM10: 17 µg/m³[0m
[0;32mI (104339) DHT22: Hum 33.3[0m
[0;32mI (104339) DHT22: Tmp 33.1[0m
[0;32mI (104349) MQ131: MQ131 - O3 Concentration: 631654296015678004493549568000.00 ppb[0m
[0;32mI (104349) MQ136: MQ136 - SO2 Concentration: 25.30 ppm[0m

[0;32mI (104359) MICS6814: MICS6814 - CO Concentration: 22.00 ppm[0m
[0;32mI (104369) MICS6814: MICS6814 - NO2 Concentration: 3.21 ppm[0m

[0;32mI (104369) GPS: Received: $GPRMC,092942.00,A,2059.83637,N,10553.20573,E,0.346,,290624,,,A*78
$GPVTG,,T,,M,0.346,N,0.641,K,A*21
$GPGGA,092942.00,2059.83637,N,10553.20573,E,1,06,2.63,6.7,M,-23.3,M,,*71
$GPGSA,A,3,15,05,18,23,24,13,,,,,,,3.82,2.63,2.77*03
$GPGSV,4,1,13,05,16,089,17,10,11,304,12,12,04,146,,13,05,042,15*7F
$GPGSV,4,2,13,15,34,033,27,18,77,316,28,20,00,108,,23,35,330,23*71
$GPGSV,4,3,13,24,64,096,22,25,03,175,,27,01,311,22,29,21,197,16*77
$GPGSV,4,4,13,32,19,248,26*48
$GPGLL,2059.83637,N,10553.20573,E,092942.00,A,A*6B
[0m
[0;32mI (104419) GPS: UTC Time: 092942.00, Latitude: 20.997272, Longitude: 105.886765[0m
[0;32mI (107399) Transmit UART: Encoded and sent data over UART.[0m
=== Reading Node number 5 ===
[0;32mI (109429) PMS7003: PM1.0: 14 µg/m³[0m
[0;32mI (109429) PMS7003: PM2.5: 17 µg/m³[0m
[0;32mI (109429) PMS7003: PM10: 17 µg/m³[0m
[0;32mI (109429) DHT22: Hum 33.3[0m
[0;32mI (109429) DHT22: Tmp 33.1[0m
[0;32mI (109439) MQ131: MQ131 - O3 Concentration: 631654296015678004493549568000.00 ppb[0m
[0;32mI (109439) MQ136: MQ136 - SO2 Concentration: 25.55 ppm[0m

[0;32mI (109449) MICS6814: MICS6814 - CO Concentration: 66.00 ppm[0m
[0;32mI (109459) MICS6814: MICS6814 - NO2 Concentration: 3.21 ppm[0m

[0;32mI (109459) GPS: Received: $GPRMC,092947.00,A,2059.83599,N,10553.20593,E,0.298,,290624,,,A*76
$GPVTG,,T,,M,0.298,N,0.551,K,A*21
$GPGGA,092947.00,2059.83599,N,10553.20593,E,1,06,2.59,7.4,M,-23.3,M,,*76
$GPGSA,A,3,15,05,18,23,24,13,,,,,,,3.69,2.59,2.63*0A
$GPGSV,4,1,13,05,16,089,17,10,11,304,13,12,04,146,,13,05,042,15*7E
$GPGSV,4,2,13,15,34,033,28,18,77,316,30,20,00,108,,23,35,330,24*70
$GPGSV,4,3,13,24,64,096,22,25,03,175,,27,01,311,,29,21,197,18*79
$GPGSV,4,4,13,32,19,248,26*48
$GPGLL,2059.83599,N,10553.20593,E,092947.00,A,A*67
[0m
[0;32mI (109509) GPS: UTC Time: 092947.00, Latitude: 20.997267, Longitude: 105.886765[0m
[0;32mI (112399) Transmit UART: Encoded and sent data over UART.[0m
=== Reading Node number 5 ===
[0;32mI (114519) PMS7003: PM1.0: 14 µg/m³[0m
[0;32mI (114519) PMS7003: PM2.5: 17 µg/m³[0m
[0;32mI (114519) PMS7003: PM10: 17 µg/m³[0m
[0;32mI (114519) DHT22: Hum 33.3[0m
[0;32mI (114519) DHT22: Tmp 33.1[0m
[0;32mI (114529) MQ131: MQ131 - O3 Concentration: 631654296015678004493549568000.00 ppb[0m
[0;32mI (114529) MQ136: MQ136 - SO2 Concentration: 25.33 ppm[0m

[0;32mI (114539) MICS6814: MICS6814 - CO Concentration: 146.00 ppm[0m
[0;32mI (114549) MICS6814: MICS6814 - NO2 Concentration: 3.32 ppm[0m

[0;32mI (114549) GPS: Received: $GPRMC,092952.00,A,2059.83593,N,10553.20601,E,0.196,,290624,,,A*7D
$GPVTG,,T,,M,0.196,N,0.363,K,A*2B
$GPGGA,092952.00,2059.83593,N,10553.20601,E,1,06,2.59,7.9,M,-23.3,M,,*7D
$GPGSA,A,3,15,05,18,23,24,13,,,,,,,3.68,2.59,2.63*0B
$GPGSV,4,1,13,05,16,089,19,10,11,304,11,12,04,146,,13,05,042,13*74
$GPGSV,4,2,13,15,34,033,28,18,77,316,29,20,00,108,,23,35,330,23*7F
$GPGSV,4,3,13,24,64,096,22,25,03,175,,27,01,311,,29,21,197,10*71
$GPGSV,4,4,13,32,19,248,25*4B
$GPGLL,2059.83593,N,10553.20601,E,092952.00,A,A*61
[0m
[0;32mI (114599) GPS: UTC Time: 092952.00, Latitude: 20.997265, Longitude: 105.886765[0m
[0;31mE (115749) DHT: Sensor Timeout
[0m
[0;32mI (117399) Transmit UART: Encoded and sent data over UART.[0m
=== Reading Node number 5 ===
[0;32mI (119609) PMS7003: PM1.0: 13 µg/m³[0m
[0;32mI (119609) PMS7003: PM2.5: 17 µg/m³[0m
[0;32mI (119609) PMS7003: PM10: 17 µg/m³[0m
[0;32mI (119609) DHT22: Hum 33.3[0m
[0;32mI (119609) DHT22: Tmp 33.1[0m
[0;32mI (119619) MQ131: MQ131 - O3 Concentration: 631654296015678004493549568000.00 ppb[0m
[0;32mI (119619) MQ136: MQ136 - SO2 Concentration: 25.41 ppm[0m

[0;32mI (119629) MICS6814: MICS6814 - CO Concentration: 128.00 ppm[0m
[0;32mI (119639) MICS6814: MICS6814 - NO2 Concentration: 3.49 ppm[0m

[0;32mI (119639) GPS: Received: $GPRMC,092957.00,A,2059.83650,N,10553.20651,E,0.027,,290624,,,A*7A
$GPVTG,,T,,M,0.027,N,0.049,K,A*2B
$GPGGA,092957.00,2059.83650,N,10553.20651,E,1,06,2.58,8.9,M,-23.3,M,,*7F
$GPGSA,A,3,15,05,18,23,24,13,,,,,,,3.68,2.58,2.62*0B
$GPGSV,4,1,13,05,16,089,19,10,12,305,,12,04,146,,13,05,042,09*7D
$GPGSV,4,2,13,15,34,033,27,18,77,316,28,20,00,108,,23,35,330,22*70
$GPGSV,4,3,13,24,64,096,20,25,03,175,,27,01,311,,29,21,197,12*71
$GPGSV,4,4,13,32,19,248,22*4C
$GPGLL,2059.83650,N,10553.20651,E,092957.00,A,A*6D
[0m
[0;32mI (119689) GPS: UTC Time: 092957.00, Latitude: 20.997274, Longitude: 105.886772[0m
[0;32mI (122399) Transmit UART: Encoded and sent data over UART.[0m
=== Reading Node number 5 ===
[0;32mI (124699) PMS7003: PM1.0: 13 µg/m³[0m
[0;32mI (124699) PMS7003: PM2.5: 16 µg/m³[0m
[0;32mI (124699) PMS7003: PM10: 16 µg/m³[0m
[0;32mI (124699) DHT22: Hum 33.3[0m
[0;32mI (124699) DHT22: Tmp 33.1[0m
[0;32mI (124709) MQ131: MQ131 - O3 Concentration: 631654296015678004493549568000.00 ppb[0m
[0;32mI (124709) MQ136: MQ136 - SO2 Concentration: 24.97 ppm[0m

[0;32mI (124719) MICS6814: MICS6814 - CO Concentration: 419.00 ppm[0m
[0;32mI (124729) MICS6814: MICS6814 - NO2 Concentration: 3.01 ppm[0m

[0;32mI (124729) GPS: Received: $GPRMC,093002.00,A,2059.83754,N,10553.20690,E,0.405,,290624,,,A*7E
$GPVTG,,T,,M,0.405,N,0.751,K,A*21
$GPGGA,093002.00,2059.83754,N,10553.20690,E,1,06,2.63,9.6,M,-23.3,M,,*79
$GPGSA,A,3,15,05,18,23,24,13,,,,,,,3.81,2.63,2.76*01
$GPGSV,4,1,13,05,16,089,18,10,12,305,,12,05,146,,13,05,042,14*71
$GPGSV,4,2,13,15,33,033,28,18,77,316,29,20,00,108,,23,35,330,21*7A
$GPGSV,4,3,13,24,64,096,23,25,03,175,,27,01,311,,29,21,197,12*72
$GPGSV,4,4,13,32,19,248,22*4C
$GPGLL,2059.83754,N,10553.20690,E,093002.00,A,A*6D
[0m
[0;32mI (124779) GPS: UTC Time: 093002.00, Latitude: 20.997292, Longitude: 105.886780[0m
[0;31mE (125959) DHT: CheckSum error
[0m
[0;32mI (127399) Transmit UART: Encoded and sent data over UART.[0m
=== Reading Node number 5 ===
[0;32mI (129789) PMS7003: PM1.0: 11 µg/m³[0m
[0;32mI (129789) PMS7003: PM2.5: 15 µg/m³[0m
[0;32mI (129789) PMS7003: PM10: 15 µg/m³[0m
[0;32mI (129789) DHT22: Hum 33.3[0m
[0;32mI (129799) DHT22: Tmp 33.1[0m
[0;32mI (129799) MQ131: MQ131 - O3 Concentration: 631654296015678004493549568000.00 ppb[0m
[0;32mI (129809) MQ136: MQ136 - SO2 Concentration: 24.78 ppm[0m

[0;32mI (129809) MICS6814: MICS6814 - CO Concentration: 1.00 ppm[0m
[0;32mI (129819) MICS6814: MICS6814 - NO2 Concentration: 3.14 ppm[0m

[0;32mI (129829) GPS: Received: 2059.83755,N,10553.20767,E,1,06,2.63,10.4,M,-23.3,M,,*4E
$GPGSA,A,3,15,05,18,23,24,13,,,,,,,3.81,2.63,2.76*01
$GPGSV,3,1,12,05,16,089,20,10,12,305,16,12,05,146,,13,05,042,17*78
$GPGSV,3,2,12,15,33,033,29,18,78,315,31,23,35,330,25,24,64,096,25*7B
$GPGSV,3,3,12,25,03,175,,27,01,311,21,29,21,197,13,32,19,248,23*7A
$GPGLL,2059.83755,N,10553.20767,E,093007.00,A,A*60
$GPRMC,093008.00,A,2059.83748,N,10553.20787,E,0.069,,290624,,,A*70
$GPVTG,,T,,M,0.069,N,0.128,K,A*27
$GPGGA,093008.00,[0m
[0;32mI (129869) GPS: UTC Time: 093004.00, Latitude: 20.997297, Longitude: 105.886787[0m
[0;32mI (132399) Transmit UART: Encoded and sent data over UART.[0m
=== Reading Node number 5 ===
[0;32mI (134879) PMS7003: PM1.0: 10 µg/m³[0m
[0;32mI (134879) PMS7003: PM2.5: 13 µg/m³[0m
[0;32mI (134879) PMS7003: PM10: 13 µg/m³[0m
[0;32mI (134879) DHT22: Hum 33.3[0m
[0;32mI (134879) DHT22: Tmp 33.1[0m
[0;32mI (134889) MQ131: MQ131 - O3 Concentration: 631654296015678004493549568000.00 ppb[0m
[0;32mI (134889) MQ136: MQ136 - SO2 Concentration: 25.19 ppm[0m

[0;32mI (134899) MICS6814: MICS6814 - CO Concentration: 3999.00 ppm[0m
[0;32mI (134909) MICS6814: MICS6814 - NO2 Concentration: 3.28 ppm[0m

[0;32mI (134909) GPS: Received: ,1,12,05,16,089,19,10,12,305,18,12,05,146,,13,05,042,14*7F
$GPGSV,3,2,12,15,33,033,29,18,78,315,30,23,36,331,24,24,64,094,25*7B
$GPGSV,3,3,12,25,04,174,,27,01,311,08,29,21,197,,32,19,248,20*76
$GPGLL,2059.83763,N,10553.20812,E,093012.00,A,A*6C
$GPRMC,093013.00,A,2059.83749,N,10553.20832,E,0.253,,290624,,,A*71
$GPVTG,,T,,M,0.253,N,0.469,K,A*2C
$GPGGA,093013.00,2059.83749,N,10553.20832,E,1,06,2.63,10.2,M,-23.3,M,,*4F
$GPGSA,A,3,15,05,18,23,24,13,,,,,,,3.81,2.63,2.76*01
$GPGSV,3[0m
[0;32mI (134959) GPS: UTC Time: 093004.00, Latitude: 20.997297, Longitude: 105.886787[0m
[0;32mI (137399) Transmit UART: Encoded and sent data over UART.[0m
=== Reading Node number 5 ===
[0;32mI (139969) PMS7003: PM1.0: 10 µg/m³[0m
[0;32mI (139969) PMS7003: PM2.5: 13 µg/m³[0m
[0;32mI (139969) PMS7003: PM10: 13 µg/m³[0m
[0;32mI (139969) DHT22: Hum 33.3[0m
[0;32mI (139969) DHT22: Tmp 33.1[0m
[0;32mI (139979) MQ131: MQ131 - O3 Concentration: 631654296015678004493549568000.00 ppb[0m
[0;32mI (139979) MQ136: MQ136 - SO2 Concentration: 24.75 ppm[0m

[0;32mI (139989) MICS6814: MICS6814 - CO Concentration: 1.00 ppm[0m
[0;32mI (139999) MICS6814: MICS6814 - NO2 Concentration: 3.73 ppm[0m

[0;32mI (139999) GPS: Received: 94,25*72
$GPGSV,3,3,12,25,04,174,14,27,01,310,,29,20,197,,32,19,248,20*7B
$GPGLL,2059.83774,N,10553.20818,E,093017.00,A,A*65
$GPRMC,093018.00,A,2059.83777,N,10553.20820,E,0.215,,290624,,,A*76
$GPVTG,,T,,M,0.215,N,0.398,K,A*27
$GPGGA,093018.00,2059.83777,N,10553.20820,E,1,06,2.63,10.1,M,-23.3,M,,*49
$GPGSA,A,3,15,05,18,23,24,13,,,,,,,3.81,2.63,2.76*01
$GPGSV,3,1,12,05,16,089,19,10,12,305,17,12,05,146,,13,05,042,16*72
$GPGSV,3,2,12,15,33,033,32,18,78,315,30,23,36,331,25,24,64,0[0m
[0;32mI (140049) GPS: UTC Time: 093004.00, Latitude: 20.997297, Longitude: 105.886787[0m
[0;32mI (142399) Transmit UART: Encoded and sent data over UART.[0m
[0;31mE (143329) DHT: CheckSum error
[0m
=== Reading Node number 5 ===
[0;32mI (145059) PMS7003: PM1.0: 11 µg/m³[0m
[0;32mI (145059) PMS7003: PM2.5: 16 µg/m³[0m
[0;32mI (145059) PMS7003: PM10: 16 µg/m³[0m
[0;32mI (145059) DHT22: Hum 33.3[0m
[0;32mI (145059) DHT22: Tmp 33.1[0m
[0;32mI (145069) MQ131: MQ131 - O3 Concentration: 631654296015678004493549568000.00 ppb[0m
[0;32mI (145069) MQ136: MQ136 - SO2 Concentration: 25.11 ppm[0m

[0;32mI (145079) MICS6814: MICS6814 - CO Concentration: 3163.00 ppm[0m
[0;32mI (145089) MICS6814: MICS6814 - NO2 Concentration: 3.67 ppm[0m

[0;32mI (145089) GPS: Received: $GPRMC,093023.00,A,2059.83790,N,10553.20868,E,0.501,,290624,,,A*79
$GPVTG,,T,,M,0.501,N,0.928,K,A*24
$GPGGA,093023.00,2059.83790,N,10553.20868,E,1,05,2.63,10.3,M,-23.3,M,,*45
$GPGSA,A,3,15,05,18,23,24,,,,,,,,3.81,2.63,2.76*03
$GPGSV,3,1,12,05,16,089,15,10,12,305,14,12,05,146,,13,05,042,08*72
$GPGSV,3,2,12,15,33,033,26,18,78,315,31,23,36,331,22,24,64,094,24*72
$GPGSV,3,3,12,25,04,174,,27,01,310,,29,20,197,,32,19,248,15*78
$GPGLL,2059.83790,N,10553.20868,E,093023.00,A,A*6F
[0m
[0;32mI (145139) GPS: UTC Time: 093023.00, Latitude: 20.997299, Longitude: 105.886810[0m
[0;32mI (147399) Transmit UART: Encoded and sent data over UART.[0m
=== Reading Node number 5 ===
[0;32mI (150149) PMS7003: PM1.0: 11 µg/m³[0m
[0;32mI (150149) PMS7003: PM2.5: 18 µg/m³[0m
[0;32mI (150149) PMS7003: PM10: 18 µg/m³[0m
[0;32mI (150149) DHT22: Hum 33.3[0m
[0;32mI (150149) DHT22: Tmp 33.1[0m
[0;32mI (150159) MQ131: MQ131 - O3 Concentration: 631654296015678004493549568000.00 ppb[0m
[0;32mI (150159) MQ136: MQ136 - SO2 Concentration: 25.41 ppm[0m

[0;32mI (150169) MICS6814: MICS6814 - CO Concentration: 1242.00 ppm[0m
[0;32mI (150179) MICS6814: MICS6814 - NO2 Concentration: 3.15 ppm[0m

[0;32mI (150179) GPS: Received: $GPRMC,093028.00,A,2059.83782,N,10553.20832,E,0.152,,290624,,,A*7C
$GPVTG,,T,,M,0.152,N,0.281,K,A*2E
$GPGGA,093028.00,2059.83782,N,10553.20832,E,1,06,2.62,8.6,M,-23.3,M,,*7C
$GPGSA,A,3,15,05,18,23,24,13,,,,,,,3.81,2.62,2.76*00
$GPGSV,3,1,12,05,16,089,18,10,12,305,19,12,05,146,,13,05,042,12*79
$GPGSV,3,2,12,15,33,033,28,18,78,315,30,23,36,331,24,24,64,094,26*79
$GPGSV,3,3,12,25,04,174,,27,01,310,,29,20,197,,32,19,248,18*75
$GPGLL,2059.83782,N,10553.20832,E,093028.00,A,A*68
[0m
[0;32mI (150229) GPS: UTC Time: 093028.00, Latitude: 20.997297, Longitude: 105.886803[0m
[0;32mI (152399) Transmit UART: Encoded and sent data over UART.[0m
=== Reading Node number 5 ===
[0;32mI (155239) PMS7003: PM1.0: 12 µg/m³[0m
[0;32mI (155239) PMS7003: PM2.5: 19 µg/m³[0m
[0;32mI (155239) PMS7003: PM10: 19 µg/m³[0m
[0;32mI (155239) DHT22: Hum 33.3[0m
[0;32mI (155239) DHT22: Tmp 33.1[0m
[0;32mI (155249) MQ131: MQ131 - O3 Concentration: 631654296015678004493549568000.00 ppb[0m
[0;32mI (155249) MQ136: MQ136 - SO2 Concentration: 26.17 ppm[0m

[0;32mI (155259) MICS6814: MICS6814 - CO Concentration: 1.00 ppm[0m
[0;32mI (155269) MICS6814: MICS6814 - NO2 Concentration: 2.74 ppm[0m

[0;32mI (155269) GPS: Received: $GPRMC,093033.00,A,2059.83829,N,10553.20799,E,0.384,,290624,,,A*7F
$GPVTG,,T,,M,0.384,N,0.711,K,A*2B
$GPGGA,093033.00,2059.83829,N,10553.20799,E,1,06,2.62,7.9,M,-23.3,M,,*76
$GPGSA,A,3,15,05,18,23,24,13,,,,,,,3.81,2.62,2.76*00
$GPGSV,3,1,12,05,16,089,17,10,12,305,16,12,05,146,,13,05,042,10*7B
$GPGSV,3,2,12,15,33,033,26,18,78,315,27,23,36,331,22,24,64,094,24*75
$GPGSV,3,3,12,25,04,174,,27,01,310,,29,20,197,,32,19,248,17*7A
$GPGLL,2059.83829,N,10553.20799,E,093033.00,A,A*62
[0m
[0;32mI (155319) GPS: UTC Time: 093033.00, Latitude: 20.997305, Longitude: 105.886803[0m
[0;32mI (157399) Transmit UART: Encoded and sent data over UART.[0m
=== Reading Node number 5 ===
[0;32mI (160329) PMS7003: PM1.0: 12 µg/m³[0m
[0;32mI (160329) PMS7003: PM2.5: 17 µg/m³[0m
[0;32mI (160329) PMS7003: PM10: 17 µg/m³[0m
[0;32mI (160329) DHT22: Hum 33.3[0m
[0;32mI (160329) DHT22: Tmp 33.1[0m
[0;32mI (160339) MQ131: MQ131 - O3 Concentration: 631654296015678004493549568000.00 ppb[0m
[0;32mI (160339) MQ136: MQ136 - SO2 Concentration: 25.92 ppm[0m

[0;32mI (160349) MICS6814: MICS6814 - CO Concentration: 1.00 ppm[0m
[0;32mI (160359) MICS6814: MICS6814 - NO2 Concentration: 2.66 ppm[0m

[0;32mI (160359) GPS: Received: $GPRMC,093038.00,A,2059.83805,N,10553.20852,E,0.159,,290624,,,A*70
$GPVTG,,T,,M,0.159,N,0.294,K,A*21
$GPGGA,093038.00,2059.83805,N,10553.20852,E,1,06,2.62,7.1,M,-23.3,M,,*73
$GPGSA,A,3,15,05,18,23,24,13,,,,,,,3.81,2.62,2.76*00
$GPGSV,3,1,12,05,16,089,20,10,12,305,08,12,05,146,,13,05,042,15*75
$GPGSV,3,2,12,15,33,033,27,18,78,315,27,23,36,331,25,24,64,094,24*73
$GPGSV,3,3,12,25,04,174,,27,01,310,,29,20,197,23,32,19,248,19*75
$GPGLL,2059.83805,N,10553.20852,E,093038.00,A,A*6F
[0m
[0;32mI (160409) GPS: UTC Time: 093038.00, Latitude: 20.997301, Longitude: 105.886810[0m
[0;32mI (162419) Transmit UART: Encoded and sent data over UART.[0m
=== Reading Node number 5 ===
[0;32mI (165419) PMS7003: PM1.0: 11 µg/m³[0m
[0;32mI (165419) PMS7003: PM2.5: 17 µg/m³[0m
[0;32mI (165419) PMS7003: PM10: 17 µg/m³[0m
[0;32mI (165419) DHT22: Hum 33.3[0m
[0;32mI (165419) DHT22: Tmp 33.1[0m
[0;32mI (165429) MQ131: MQ131 - O3 Concentration: 631654296015678004493549568000.00 ppb[0m
[0;32mI (165429) MQ136: MQ136 - SO2 Concentration: 25.81 ppm[0m

[0;32mI (165439) MICS6814: MICS6814 - CO Concentration: 1.00 ppm[0m
[0;32mI (165449) MICS6814: MICS6814 - NO2 Concentration: 2.84 ppm[0m

[0;32mI (165449) GPS: Received: $GPRMC,093043.00,A,2059.83788,N,10553.20872,E,0.198,,290624,,,A*79
$GPVTG,,T,,M,0.198,N,0.367,K,A*21
$GPGGA,093043.00,2059.83788,N,10553.20872,E,1,06,2.62,6.6,M,-23.3,M,,*71
$GPGSA,A,3,15,05,18,23,24,13,,,,,,,3.81,2.62,2.76*00
$GPGSV,3,1,12,05,16,089,22,10,12,305,,12,05,146,,13,05,042,16*7C
$GPGSV,3,2,12,15,33,033,30,18,78,315,28,23,36,331,27,24,64,094,26*7A
$GPGSV,3,3,12,25,04,174,,27,01,310,,29,20,197,13,32,19,248,21*7D
$GPGLL,2059.83788,N,10553.20872,E,093043.00,A,A*6B
[0m
[0;32mI (165499) GPS: UTC Time: 093043.00, Latitude: 20.997297, Longitude: 105.886810[0m
[0;32mI (167419) Transmit UART: Encoded and sent data over UART.[0m
=== Reading Node number 5 ===
[0;32mI (170519) PMS7003: PM1.0: 11 µg/m³[0m
[0;32mI (170519) PMS7003: PM2.5: 16 µg/m³[0m
[0;32mI (170529) PMS7003: PM10: 16 µg/m³[0m
[0;32mI (170529) DHT22: Hum 33.3[0m
[0;32mI (170529) DHT22: Tmp 33.1[0m
[0;32mI (170529) MQ131: MQ131 - O3 Concentration: 631654296015678004493549568000.00 ppb[0m
[0;32mI (170539) MQ136: MQ136 - SO2 Concentration: 25.78 ppm[0m

[0;32mI (170539) MICS6814: MICS6814 - CO Concentration: 1.00 ppm[0m
[0;32mI (170549) MICS6814: MICS6814 - NO2 Concentration: 2.83 ppm[0m

[0;32mI (170559) GPS: Received: $GPRMC,093048.00,A,2059.83822,N,10553.20868,E,0.141,,290624,,,A*72
$GPVTG,,T,,M,0.141,N,0.261,K,A*22
$GPGGA,093048.00,2059.83822,N,10553.20868,E,1,06,2.62,7.3,M,-23.3,M,,*7A
$GPGSA,A,3,15,05,18,23,24,13,,,,,,,3.81,2.62,2.76*00
$GPGSV,3,1,12,05,16,089,22,10,12,305,17,12,05,146,,13,05,042,15*79
$GPGSV,3,2,12,15,33,033,29,18,78,315,27,23,36,331,27,24,64,094,26*7D
$GPGSV,3,3,12,25,04,174,09,27,01,310,,29,20,197,08,32,19,248,21*7E
$GPGLL,2059.83822,N,10553.20868,E,093048.00,A,A*64
[0m
[0;32mI (170599) GPS: UTC Time: 093048.00, Latitude: 20.997303, Longitude: 105.886810[0m
[0;32mI (172419) Transmit UART: Encoded and sent data over UART.[0m
=== Reading Node number 5 ===
[0;32mI (175609) PMS7003: PM1.0: 10 µg/m³[0m
[0;32mI (175609) PMS7003: PM2.5: 15 µg/m³[0m
[0;32mI (175609) PMS7003: PM10: 15 µg/m³[0m
[0;32mI (175609) DHT22: Hum 33.3[0m
[0;32mI (175609) DHT22: Tmp 33.1[0m
[0;32mI (175619) MQ131: MQ131 - O3 Concentration: 631654296015678004493549568000.00 ppb[0m
[0;32mI (175619) MQ136: MQ136 - SO2 Concentration: 26.03 ppm[0m

[0;32mI (175629) MICS6814: MICS6814 - CO Concentration: 1.00 ppm[0m
[0;32mI (175639) MICS6814: MICS6814 - NO2 Concentration: 2.74 ppm[0m

[0;32mI (175639) GPS: Received: $GPRMC,093053.00,A,2059.83807,N,10553.20905,E,0.147,,290624,,,A*73
$GPVTG,,T,,M,0.147,N,0.272,K,A*26
$GPGGA,093053.00,2059.83807,N,10553.20905,E,1,06,2.62,7.4,M,-23.3,M,,*7A
$GPGSA,A,3,15,05,18,23,24,13,,,,,,,3.80,2.62,2.76*01
$GPGSV,3,1,12,05,16,089,23,10,12,305,15,12,05,146,,13,05,042,16*79
$GPGSV,3,2,12,15,33,033,29,18,78,315,27,23,36,331,27,24,64,094,25*7E
$GPGSV,3,3,12,25,04,174,,27,01,310,,29,20,197,,32,19,248,21*7F
$GPGLL,2059.83807,N,10553.20905,E,093053.00,A,A*63
$GPRMC,093054.00,A,2059.83801,N,10553.20917,E,0.213,,290624,,,A*73
$GPVTG,,T,,M,0.213,N,0.394,K,A*2D
$GPGGA,093054.00,[0m
[0;32mI (175699) GPS: UTC Time: 093053.00, Latitude: 20.997301, Longitude: 105.886818[0m
[0;32mI (177419) Transmit UART: Encoded and sent data over UART.[0m
=== Reading Node number 5 ===
[0;32mI (180709) PMS7003: PM1.0: 11 µg/m³[0m
[0;32mI (180709) PMS7003: PM2.5: 15 µg/m³[0m
[0;32mI (180709) PMS7003: PM10: 15 µg/m³[0m
[0;32mI (180709) DHT22: Hum 33.3[0m
[0;32mI (180709) DHT22: Tmp 33.1[0m
[0;32mI (180719) MQ131: MQ131 - O3 Concentration: 631654296015678004493549568000.00 ppb[0m
[0;32mI (180719) MQ136: MQ136 - SO2 Concentration: 26.03 ppm[0m

[0;32mI (180729) MICS6814: MICS6814 - CO Concentration: 1.00 ppm[0m
[0;32mI (180739) MICS6814: MICS6814 - NO2 Concentration: 3.38 ppm[0m

[0;32mI (180739) GPS: Received: 2059.83794,N,10553.20939,E,1,06,2.62,7.5,M,-23.3,M,,*7A
$GPGSA,A,3,15,05,18,23,24,13,,,,,,,3.80,2.62,2.76*01
$GPGSV,3,1,12,05,16,089,23,10,12,305,15,12,05,146,,13,05,042,16*79
$GPGSV,3,2,12,15,33,033,28,18,78,315,27,23,36,331,27,24,64,094,24*7E
$GPGSV,3,3,12,25,04,174,,27,01,310,,29,20,197,14,32,19,248,22*79
$GPGLL,2059.83794,N,10553.20939,E,093058.00,A,A*62
$GPRMC,093059.00,A,2059.83791,N,10553.20941,E,0.132,,290624,,,A*7B
$GPVTG,,T,,M,0.132,N,0.245,K,A*20
$GPGGA,093059.00,[0m
[0;32mI (180789) GPS: UTC Time: 093053.00, Latitude: 20.997301, Longitude: 105.886818[0m
[0;32mI (182419) Transmit UART: Encoded and sent data over UART.[0m
=== Reading Node number 5 ===
[0;32mI (185799) PMS7003: PM1.0: 12 µg/m³[0m
[0;32mI (185799) PMS7003: PM2.5: 14 µg/m³[0m
[0;32mI (185799) PMS7003: PM10: 14 µg/m³[0m
[0;32mI (185799) DHT22: Hum 33.3[0m
[0;32mI (185799) DHT22: Tmp 33.1[0m
[0;32mI (185809) MQ131: MQ131 - O3 Concentration: 631654296015678004493549568000.00 ppb[0m
[0;32mI (185809) MQ136: MQ136 - SO2 Concentration: 25.72 ppm[0m

[0;32mI (185819) MICS6814: MICS6814 - CO Concentration: 1.00 ppm[0m
[0;32mI (185829) MICS6814: MICS6814 - NO2 Concentration: 3.30 ppm[0m

[0;32mI (185829) GPS: Received: 1,12,05,16,090,23,10,12,305,17,12,05,146,,13,05,042,15*70
$GPGSV,3,2,12,15,33,033,28,18,78,315,26,23,36,331,27,24,64,094,23*78
$GPGSV,3,3,12,25,04,174,,27,01,310,,29,20,197,,32,19,248,23*7D
$GPGLL,2059.83783,N,10553.20980,E,093103.00,A,A*69
$GPRMC,093104.00,A,2059.83778,N,10553.20987,E,0.110,,290624,,,A*7F
$GPVTG,,T,,M,0.110,N,0.204,K,A*25
$GPGGA,093104.00,2059.83778,N,10553.20987,E,1,06,2.62,8.5,M,-23.3,M,,*7A
$GPGSA,A,3,15,05,18,23,24,13,,,,,,,3.80,2.62,2.76*01
$GPGSV,3,[0m
[0;32mI (185879) GPS: UTC Time: 093053.00, Latitude: 20.997301, Longitude: 105.886818[0m
[0;31mE (187209) DHT: Sensor Timeout
[0m
[0;32mI (187419) Transmit UART: Encoded and sent data over UART.[0m
=== Reading Node number 5 ===
[0;32mI (190889) PMS7003: PM1.0: 11 µg/m³[0m
[0;32mI (190889) PMS7003: PM2.5: 14 µg/m³[0m
[0;32mI (190889) PMS7003: PM10: 14 µg/m³[0m
[0;32mI (190889) DHT22: Hum 33.3[0m
[0;32mI (190889) DHT22: Tmp 33.1[0m
[0;32mI (190899) MQ131: MQ131 - O3 Concentration: 631654296015678004493549568000.00 ppb[0m
[0;32mI (190899) MQ136: MQ136 - SO2 Concentration: 25.25 ppm[0m

[0;32mI (190909) MICS6814: MICS6814 - CO Concentration: 1.00 ppm[0m
[0;32mI (190919) MICS6814: MICS6814 - NO2 Concentration: 3.31 ppm[0m

[0;32mI (190919) GPS: Received: 4,22*79
$GPGSV,3,3,12,25,04,174,,27,01,310,,29,20,197,,32,19,248,23*7D
$GPGLL,2059.83759,N,10553.21017,E,093108.00,A,A*63
$GPRMC,093109.00,A,2059.83789,N,10553.21017,E,0.203,,290624,,,A*7C
$GPVTG,,T,,M,0.203,N,0.376,K,A*20
$GPGGA,093109.00,2059.83789,N,10553.21017,E,1,06,2.62,9.4,M,-23.3,M,,*78
$GPGSA,A,3,15,05,18,23,24,13,,,,,,,3.80,2.62,2.76*01
$GPGSV,3,1,12,05,16,090,24,10,12,305,19,12,05,145,,13,05,042,13*7C
$GPGSV,3,2,12,15,33,033,29,18,78,315,27,23,36,331,27,24,64,09[0m
[0;32mI (190969) GPS: UTC Time: 093053.00, Latitude: 20.997301, Longitude: 105.886818[0m
[0;32mI (192419) Transmit UART: Encoded and sent data over UART.[0m
=== Reading Node number 5 ===
[0;32mI (195989) PMS7003: PM1.0: 11 µg/m³[0m
[0;32mI (195989) PMS7003: PM2.5: 14 µg/m³[0m
[0;32mI (195989) PMS7003: PM10: 14 µg/m³[0m
[0;32mI (195989) DHT22: Hum 33.3[0m
[0;32mI (195999) DHT22: Tmp 33.1[0m
[0;32mI (195999) MQ131: MQ131 - O3 Concentration: 631654296015678004493549568000.00 ppb[0m
[0;32mI (196009) MQ136: MQ136 - SO2 Concentration: 25.22 ppm[0m

[0;32mI (196009) MICS6814: MICS6814 - CO Concentration: 3690.00 ppm[0m
[0;32mI (196019) MICS6814: MICS6814 - NO2 Concentration: 3.26 ppm[0m

[0;32mI (196029) GPS: Received: $GPRMC,093114.00,A,2059.83825,N,10553.21053,E,0.125,,290624,,,A*7E
$GPVTG,,T,,M,0.125,N,0.232,K,A*26
$GPGGA,093114.00,2059.83825,N,10553.21053,E,1,06,2.62,11.0,M,-23.3,M,,*40
$GPGSA,A,3,15,05,18,23,24,13,,,,,,,3.80,2.62,2.75*02
$GPGSV,3,1,12,05,16,090,26,10,12,305,19,12,05,145,,13,05,042,12*7F
$GPGSV,3,2,12,15,33,034,29,18,78,315,28,23,36,331,28,24,64,094,24*78
$GPGSV,3,3,12,25,04,174,,27,01,310,,29,20,197,,32,19,248,25*7B
$GPGLL,2059.83825,N,10553.21053,E,093114.00,A,A*6A
[0m
[0;32mI (196069) GPS: UTC Time: 093114.00, Latitude: 20.997305, Longitude: 105.886841[0m
[0;32mI (197419) Transmit UART: Encoded and sent data over UART.[0m
[0;31mE (199479) DHT: Sensor Timeout
[0m
=== Reading Node number 5 ===
[0;32mI (201079) PMS7003: PM1.0: 12 µg/m³[0m
[0;32mI (201079) PMS7003: PM2.5: 15 µg/m³[0m
[0;32mI (201079) PMS7003: PM10: 15 µg/m³[0m
[0;32mI (201079) DHT22: Hum 33.3[0m
[0;32mI (201079) DHT22: Tmp 33.1[0m
[0;32mI (201089) MQ131: MQ131 - O3 Concentration: 631654296015678004493549568000.00 ppb[0m
[0;32mI (201089) MQ136: MQ136 - SO2 Concentration: 24.56 ppm[0m

[0;32mI (201099) MICS6814: MICS6814 - CO Concentration: 1.00 ppm[0m
[0;32mI (201109) MICS6814: MICS6814 - NO2 Concentration: 3.13 ppm[0m

[0;32mI (201109) GPS: Received: $GPRMC,093119.00,A,2059.83893,N,10553.21096,E,0.255,,290624,,,A*73
$GPVTG,,T,,M,0.255,N,0.472,K,A*20
$GPGGA,093119.00,2059.83893,N,10553.21096,E,1,06,2.62,12.1,M,-23.3,M,,*4B
$GPGSA,A,3,15,05,18,23,24,13,,,,,,,3.80,2.62,2.75*02
$GPGSV,3,1,12,05,16,090,23,10,12,305,17,12,05,145,,13,05,042,12*74
$GPGSV,3,2,12,15,33,034,27,18,78,313,26,23,36,331,26,24,64,094,22*76
$GPGSV,3,3,12,25,04,174,,27,01,310,,29,20,197,,32,19,248,23*7D
$GPGLL,2059.83893,N,10553.21096,E,093119.00,A,A*63
[0m
[0;32mI (201159) GPS: UTC Time: 093119.00, Latitude: 20.997316, Longitude: 105.886848[0m
[0;32mI (202419) Transmit UART: Encoded and sent data over UART.[0m
=== Reading Node number 5 ===
[0;32mI (206169) PMS7003: PM1.0: 10 µg/m³[0m
[0;32mI (206169) PMS7003: PM2.5: 13 µg/m³[0m
[0;32mI (206169) PMS7003: PM10: 14 µg/m³[0m
[0;32mI (206169) DHT22: Hum 33.3[0m
[0;32mI (206169) DHT22: Tmp 33.1[0m
[0;32mI (206179) MQ131: MQ131 - O3 Concentration: 631654296015678004493549568000.00 ppb[0m
[0;32mI (206179) MQ136: MQ136 - SO2 Concentration: 24.97 ppm[0m

[0;32mI (206189) MICS6814: MICS6814 - CO Concentration: 1.00 ppm[0m
[0;32mI (206199) MICS6814: MICS6814 - NO2 Concentration: 3.00 ppm[0m

[0;32mI (206199) GPS: Received: $GPRMC,093124.00,A,2059.83891,N,10553.21136,E,0.293,,290624,,,A*7E
$GPVTG,,T,,M,0.293,N,0.543,K,A*29
$GPGGA,093124.00,2059.83891,N,10553.21136,E,1,06,2.62,13.1,M,-23.3,M,,*4D
$GPGSA,A,3,15,05,18,23,24,13,,,,,,,3.80,2.62,2.75*02
$GPGSV,3,1,12,05,16,090,24,10,12,305,,12,05,145,,13,05,042,14*73
$GPGSV,3,2,12,15,33,034,28,18,78,313,27,23,36,331,28,24,64,093,22*71
$GPGSV,3,3,12,25,04,174,,27,01,310,,29,20,197,,32,19,248,24*7A
$GPGLL,2059.83891,N,10553.21136,E,093124.00,A,A*64
[0m
[0;32mI (206249) GPS: UTC Time: 093124.00, Latitude: 20.997314, Longitude: 105.886856[0m
[0;32mI (207419) Transmit UART: Encoded and sent data over UART.[0m
=== Reading Node number 5 ===
[0;32mI (211259) PMS7003: PM1.0: 11 µg/m³[0m
[0;32mI (211259) PMS7003: PM2.5: 14 µg/m³[0m
[0;32mI (211259) PMS7003: PM10: 15 µg/m³[0m
[0;32mI (211259) DHT22: Hum 33.3[0m
[0;32mI (211259) DHT22: Tmp 33.1[0m
[0;32mI (211269) MQ131: MQ131 - O3 Concentration: 631654296015678004493549568000.00 ppb[0m
[0;32mI (211269) MQ136: MQ136 - SO2 Concentration: 24.84 ppm[0m

[0;32mI (211279) MICS6814: MICS6814 - CO Concentration: 36.00 ppm[0m
[0;32mI (211289) MICS6814: MICS6814 - NO2 Concentration: 3.21 ppm[0m

[0;32mI (211289) GPS: Received: $GPRMC,093129.00,A,2059.83959,N,10553.21147,E,0.103,,290624,,,A*7A
$GPVTG,,T,,M,0.103,N,0.191,K,A*28
$GPGGA,093129.00,2059.83959,N,10553.21147,E,1,06,2.62,14.5,M,-23.3,M,,*40
$GPGSA,A,3,15,05,18,23,24,13,,,,,,,3.80,2.62,2.75*02
$GPGSV,3,1,12,05,16,090,24,10,12,305,20,12,05,145,,13,05,042,11*74
$GPGSV,3,2,12,15,33,034,28,18,78,313,27,23,36,331,27,24,64,093,21*7D
$GPGSV,3,3,12,25,04,174,,27,01,310,,29,20,196,,32,19,249,24*7A
$GPGLL,2059.83959,N,10553.21147,E,093129.00,A,A*6A
[0m
[0;32mI (211339) GPS: UTC Time: 093129.00, Latitude: 20.997326, Longitude: 105.886856[0m
