ets Jul 29 2019 12:21:46

rst:0x1 (POWERON_RESET),boot:0x13 (SPI_FAST_FLASH_BOOT)
configsip: 0, SPIWP:0xee
clk_drv:0x00,q_drv:0x00,d_drv:0x00,cs0_drv:0x00,hd_drv:0x00,wp_drv:0x00
mode:DIO, clock div:2
load:0x3fff0030,len:7172
load:0x40078000,len:15540
load:0x40080400,len:4
ho 8 tail 4 room 4
load:0x40080404,len:3904
entry 0x40080640
[0;32mI (31) boot: ESP-IDF v5.2.1-dirty 2nd stage bootloader[0m
[0;32mI (31) boot: compile time Jun 28 2024 03:55:22[0m
[0;32mI (31) boot: Multicore bootloader[0m
[0;32mI (36) boot: chip revision: v3.1[0m
[0;32mI (40) boot.esp32: SPI Speed      : 40MHz[0m
[0;32mI (44) boot.esp32: SPI Mode       : DIO[0m
[0;32mI (49) boot.esp32: SPI Flash Size : 2MB[0m
[0;32mI (53) boot: Enabling RNG early entropy source...[0m
[0;32mI (59) boot: Partition Table:[0m
[0;32mI (62) boot: ## Label            Usage          Type ST Offset   Length[0m
[0;32mI (70) boot:  0 nvs              WiFi data        01 02 00009000 00006000[0m
[0;32mI (77) boot:  1 phy_init         RF data          01 01 0000f000 00001000[0m
[0;32mI (85) boot:  2 factory          factory app      00 00 00010000 00100000[0m
[0;32mI (92) boot: End of partition table[0m
[0;32mI (96) esp_image: segment 0: paddr=00010020 vaddr=3f400020 size=0d8a8h ( 55464) map[0m
[0;32mI (124) esp_image: segment 1: paddr=0001d8d0 vaddr=3ffb0000 size=02694h (  9876) load[0m
[0;32mI (128) esp_image: segment 2: paddr=0001ff6c vaddr=40080000 size=000ach (   172) load[0m
[0;32mI (130) esp_image: segment 3: paddr=00020020 vaddr=400d0020 size=21d88h (138632) map[0m
[0;32mI (186) esp_image: segment 4: paddr=00041db0 vaddr=400800ac size=0ea18h ( 59928) load[0m
[0;32mI (217) boot: Loaded app from partition at offset 0x10000[0m
[0;32mI (217) boot: Disabling RNG early entropy source...[0m
[0;32mI (228) cpu_start: Multicore app[0m
[0;32mI (237) cpu_start: Pro cpu start user code[0m
[0;32mI (237) cpu_start: cpu freq: 160000000 Hz[0m
[0;32mI (237) cpu_start: Application information:[0m
[0;32mI (240) cpu_start: Project name:     NODE[0m
[0;32mI (245) cpu_start: App version:      1[0m
[0;32mI (249) cpu_start: Compile time:     Jun 28 2024 03:55:09[0m
[0;32mI (255) cpu_start: ELF file SHA256:  29ed83fb4...[0m
[0;32mI (261) cpu_start: ESP-IDF:          v5.2.1-dirty[0m
[0;32mI (266) cpu_start: Min chip rev:     v0.0[0m
[0;32mI (271) cpu_start: Max chip rev:     v3.99 [0m
[0;32mI (275) cpu_start: Chip rev:         v3.1[0m
[0;32mI (281) heap_init: Initializing. RAM available for dynamic allocation:[0m
[0;32mI (288) heap_init: At 3FFAE6E0 len 00001920 (6 KiB): DRAM[0m
[0;32mI (293) heap_init: At 3FFB3698 len 0002C968 (178 KiB): DRAM[0m
[0;32mI (300) heap_init: At 3FFE0440 len 00003AE0 (14 KiB): D/IRAM[0m
[0;32mI (306) heap_init: At 3FFE4350 len 0001BCB0 (111 KiB): D/IRAM[0m
[0;32mI (313) heap_init: At 4008EAC4 len 0001153C (69 KiB): IRAM[0m
[0;32mI (320) spi_flash: detected chip: generic[0m
[0;32mI (323) spi_flash: flash io: dio[0m
[0;33mW (327) spi_flash: Detected size(4096k) larger than the size in the binary image header(2048k). Using the size in the binary image header.[0m
[0;33mW (340) ADC: legacy driver is deprecated, please migrate to `esp_adc/adc_oneshot.h`[0m
[0;32mI (349) main_task: Started on CPU0[0m
[0;32mI (359) main_task: Calling app_main()[0m
[0;32mI (359) gpio: GPIO[18]| InputEn: 1| OutputEn: 0| OpenDrain: 0| Pullup: 1| Pulldown: 0| Intr:0 [0m
[0;32mI (359) gpio: GPIO[19]| InputEn: 0| OutputEn: 1| OpenDrain: 0| Pullup: 1| Pulldown: 0| Intr:0 [0m
Sending message: Hiiiii!
[0;32mI (389) gpio: GPIO[4]| InputEn: 0| OutputEn: 0| OpenDrain: 0| Pullup: 1| Pulldown: 0| Intr:0 [0m
[0;32mI (389) gpio: GPIO[5]| InputEn: 0| OutputEn: 0| OpenDrain: 0| Pullup: 1| Pulldown: 0| Intr:0 [0m
[0;32mI (2399) Transmit UART: Encoded and sent data over UART.[0m
[0;32mI (2399) gpio: GPIO[2]| InputEn: 0| OutputEn: 0| OpenDrain: 0| Pullup: 1| Pulldown: 0| Intr:0 [0m
=== Reading Node number 5 ===
[0;32mI (2409) PMS7003: PM1.0: 15 µg/m³[0m
[0;32mI (2409) PMS7003: PM2.5: 25 µg/m³[0m
[0;32mI (2409) PMS7003: PM10: 40 µg/m³[0m
[0;32mI (2409) DHT22: Hum 33.9[0m
[0;32mI (2419) DHT22: Tmp 33.2[0m
[0;32mI (2419) MQ131: MQ131 - O3 Concentration: 30.93 ppb[0m
[0;32mI (2429) MQ136: MQ136 - SO2 Concentration: 26.40 ppm[0m

[0;32mI (2429) MICS6814: MICS6814 - CO Concentration: 3698.00 ppm[0m
[0;32mI (2439) MICS6814: MICS6814 - NO2 Concentration: 3.33 ppm[0m

[0;32mI (2439) GPS: Received: $GPRMC,091805.00,A,2059.83705,N,10553.20900,E,1.088,,290624,,,A*71
$GPVTG,,T,,M,1.088,N,2.016,K,A*27
$GPGGA,091805.00,2059.83705,N,10553.20900,E,1,04,2.74,30.3,M,-23.3,M,,*4D
$GPGSA,A,3,15,05,23,13,,,,,,,,,4.52,2.74,3.60*07
$GPGSV,3,1,12,05,18,084,19,10,09,300,10,12,03,150,,13,09,040,19*79
$GPGSV,3,2,12,15,38,029,13,18,72,326,23,20,02,103,,23,33,325,18*79
$GPGSV,3,3,12,24,63,110,,25,02,179,,29,25,200,,32,16,243,09*77
$GPGLL,2059.83705,N,10553.20900,E,091805.00,A,A*62
$GPRMC,091806.00,A,2059.83668,N,10553.20805,E,1.332,,290624,,,A*7E
$GPVTG,,T,,M,1.332,N,2.466,K,A*26
$GPGGA,091806.00,2059.83668,N,10553.20805,E,1,04,2.74,30.0,M,-23.3,M,,*43
$GPGSA,A,3,15,05,23,13,,,,,,,,,4.52,2.74,3.60*07
$GPGSV,3,1,12,05,18,084,19,10,09,301,09,12,03,150,,13,09,040,19*70
$GPGSV,3,2,12,15,38,029,13,18,72,326,23,20,02,103,,23,33,325,16*77
$GPGSV,3,3,12,24,63,110,,25,02,179,,29,25,200,,32,16,243,09*77
$GPGLL,2059.83668,N,10553.20805,E,091806.00,A,A*6F
[0m
[0;32mI (2529) GPS: UTC Time: 091805.00, Latitude: 20.997284, Longitude: 105.886818[0m
[0;32mI (2539) SSD1306: INTERFACE is i2c[0m
[0;32mI (2539) SSD1306: CONFIG_SDA_GPIO=21[0m
[0;32mI (2549) SSD1306: CONFIG_SCL_GPIO=22[0m
[0;32mI (2549) SSD1306: CONFIG_RESET_GPIO=33[0m
[0;32mI (2559) SSD1306: New i2c driver is used[0m
[0;32mI (2559) gpio: GPIO[21]| InputEn: 1| OutputEn: 1| OpenDrain: 1| Pullup: 1| Pulldown: 0| Intr:0 [0m
[0;32mI (2569) gpio: GPIO[22]| InputEn: 1| OutputEn: 1| OpenDrain: 1| Pullup: 1| Pulldown: 0| Intr:0 [0m
[0;32mI (2579) gpio: GPIO[33]| InputEn: 0| OutputEn: 0| OpenDrain: 0| Pullup: 1| Pulldown: 0| Intr:0 [0m
[0;32mI (2589) main_task: Returned from app_main()[0m
[0;32mI (2639) SSD1306: Panel is 128x64[0m
[0;32mI (2639) SSD1306: OLED configured successfully[0m
[0;32mI (2899) RX_TASK: Read 6 bytes: C000051F06C7[0m
[0;32mI (7399) Transmit UART: Encoded and sent data over UART.[0m
=== Reading Node number 5 ===
[0;32mI (7539) PMS7003: PM1.0: 12 µg/m³[0m
[0;32mI (7539) PMS7003: PM2.5: 17 µg/m³[0m
[0;32mI (7539) PMS7003: PM10: 20 µg/m³[0m
[0;32mI (7539) DHT22: Hum 33.8[0m
[0;32mI (7539) DHT22: Tmp 33.2[0m
[0;32mI (7549) MQ131: MQ131 - O3 Concentration: 631654296015678004493549568000.00 ppb[0m
[0;32mI (7549) MQ136: MQ136 - SO2 Concentration: 26.66 ppm[0m

[0;32mI (7559) MICS6814: MICS6814 - CO Concentration: 832.00 ppm[0m
[0;32mI (7569) MICS6814: MICS6814 - NO2 Concentration: 3.47 ppm[0m

[0;32mI (7569) GPS: Received: $GPRMC,091811.00,A,2059.84005,N,10553.20923,E,1.375,,290624,,,A*74
$GPVTG,,T,,M,1.375,N,2.547,K,A*27
$GPGGA,091811.00,2059.84005,N,10553.20923,E,1,04,2.74,28.5,M,-23.3,M,,*46
$GPGSA,A,3,15,05,23,13,,,,,,,,,4.52,2.74,3.60*07
$GPGSV,3,1,12,05,18,084,20,10,09,301,10,12,03,150,,13,09,040,21*79
$GPGSV,3,2,12,15,37,029,14,18,72,326,24,20,02,103,,23,33,325,18*76
$GPGSV,3,3,12,24,63,110,,25,02,179,,29,25,200,,32,16,243,11*7E
$GPGLL,2059.84005,N,10553.20923,E,091811.00,A,A*66
[0m
[0;32mI (7619) GPS: UTC Time: 091811.00, Latitude: 20.997334, Longitude: 105.886818[0m
[0;32mI (12399) Transmit UART: Encoded and sent data over UART.[0m
=== Reading Node number 5 ===
[0;32mI (12629) PMS7003: PM1.0: 12 µg/m³[0m
[0;32mI (12629) PMS7003: PM2.5: 17 µg/m³[0m
[0;32mI (12629) PMS7003: PM10: 19 µg/m³[0m
[0;32mI (12629) DHT22: Hum 33.8[0m
[0;32mI (12629) DHT22: Tmp 33.2[0m
[0;32mI (12639) MQ131: MQ131 - O3 Concentration: 631654296015678004493549568000.00 ppb[0m
[0;32mI (12639) MQ136: MQ136 - SO2 Concentration: 27.26 ppm[0m

[0;32mI (12649) MICS6814: MICS6814 - CO Concentration: 3264.00 ppm[0m
[0;32mI (12659) MICS6814: MICS6814 - NO2 Concentration: 2.86 ppm[0m

[0;32mI (12659) GPS: Received: $GPRMC,091816.00,A,2059.84098,N,10553.21134,E,1.192,,290624,,,A*73
$GPVTG,,T,,M,1.192,N,2.207,K,A*2F
$GPGGA,091816.00,2059.84098,N,10553.21134,E,1,05,2.74,27.3,M,-23.3,M,,*42
$GPGSA,A,3,15,05,23,24,13,,,,,,,,4.52,2.74,3.60*01
$GPGSV,3,1,12,05,18,084,21,10,09,301,14,12,03,150,,13,09,040,22*7F
$GPGSV,3,2,12,15,37,029,13,18,72,326,26,20,02,104,,23,33,325,20*7F
$GPGSV,3,3,12,24,63,110,12,25,02,179,,29,25,200,,32,16,243,10*7C
$GPGLL,2059.84098,N,10553.21134,E,091816.00,A,A*6A
[0m
[0;32mI (12709) GPS: UTC Time: 091816.00, Latitude: 20.997349, Longitude: 105.886856[0m
[0;32mI (17399) Transmit UART: Encoded and sent data over UART.[0m
=== Reading Node number 5 ===
[0;32mI (17719) PMS7003: PM1.0: 11 µg/m³[0m
[0;32mI (17719) PMS7003: PM2.5: 14 µg/m³[0m
[0;32mI (17719) PMS7003: PM10: 14 µg/m³[0m
[0;32mI (17729) DHT22: Hum 33.8[0m
[0;32mI (17729) DHT22: Tmp 33.3[0m
[0;32mI (17729) MQ131: MQ131 - O3 Concentration: 631654296015678004493549568000.00 ppb[0m
[0;32mI (17739) MQ136: MQ136 - SO2 Concentration: 26.00 ppm[0m

[0;32mI (17749) MICS6814: MICS6814 - CO Concentration: 1.00 ppm[0m
[0;32mI (17749) MICS6814: MICS6814 - NO2 Concentration: 3.62 ppm[0m

[0;32mI (17759) GPS: Received: 2059.84204,N,10553.21185,E,1,04,2.74,26.5,M,-23.3,M,,*4D
$GPGSA,A,3,15,05,23,13,,,,,,,,,4.52,2.74,3.60*07
$GPGSV,3,1,12,05,18,084,20,10,09,301,11,12,03,150,,13,09,040,21*78
$GPGSV,3,2,12,15,37,029,11,18,72,326,25,20,02,104,,23,33,325,21*7F
$GPGSV,3,3,12,24,64,108,,25,02,178,,29,25,200,,32,16,243,08*79
$GPGLL,2059.84204,N,10553.21185,E,091821.00,A,A*63
$GPRMC,091822.00,A,2059.84193,N,10553.21211,E,0.898,,290624,,,A*78
$GPVTG,,T,,M,0.898,N,1.664,K,A*2F
$GPGGA,091822.00,[0m
[0;32mI (17809) GPS: UTC Time: 091818.00, Latitude: 20.997351, Longitude: 105.886864[0m
[0;32mI (22399) Transmit UART: Encoded and sent data over UART.[0m
=== Reading Node number 5 ===
[0;32mI (22809) PMS7003: PM1.0: 13 µg/m³[0m
[0;32mI (22809) PMS7003: PM2.5: 17 µg/m³[0m
[0;32mI (22809) PMS7003: PM10: 18 µg/m³[0m
[0;32mI (22809) DHT22: Hum 33.7[0m
[0;32mI (22809) DHT22: Tmp 33.3[0m
[0;32mI (22819) MQ131: MQ131 - O3 Concentration: 631654296015678004493549568000.00 ppb[0m
[0;32mI (22819) MQ136: MQ136 - SO2 Concentration: 26.17 ppm[0m

[0;32mI (22829) MICS6814: MICS6814 - CO Concentration: 3720.00 ppm[0m
[0;32mI (22839) MICS6814: MICS6814 - NO2 Concentration: 3.80 ppm[0m

[0;32mI (22839) GPS: Received: 2,05,18,084,22,10,09,301,10,12,03,150,,13,09,040,18*71
$GPGSV,3,2,12,15,37,029,08,18,72,326,24,20,02,104,,23,33,325,20*77
$GPGSV,3,3,12,24,64,108,09,25,02,178,,29,25,200,,32,16,243,08*70
$GPGLL,2059.84609,N,10553.21428,E,091826.00,A,A*6F
$GPRMC,091827.00,A,2059.84668,N,10553.21470,E,2.096,,290624,,,A*7B
$GPVTG,,T,,M,2.096,N,3.882,K,A*2F
$GPGGA,091827.00,2059.84668,N,10553.21470,E,1,05,2.74,25.8,M,-23.3,M,,*45
$GPGSA,A,3,15,05,23,24,13,,,,,,,,4.52,2.74,3.60*01
$GPGSV,3,1[0m
[0;32mI (22889) GPS: UTC Time: 091818.00, Latitude: 20.997351, Longitude: 105.886864[0m
[0;31mE (24869) DHT: Sensor Timeout
[0m
[0;32mI (27399) Transmit UART: Encoded and sent data over UART.[0m
=== Reading Node number 5 ===
[0;32mI (27899) PMS7003: PM1.0: 12 µg/m³[0m
[0;32mI (27899) PMS7003: PM2.5: 15 µg/m³[0m
[0;32mI (27899) PMS7003: PM10: 17 µg/m³[0m
[0;32mI (27899) DHT22: Hum 33.7[0m
[0;32mI (27899) DHT22: Tmp 33.3[0m
[0;32mI (27909) MQ131: MQ131 - O3 Concentration: 631654296015678004493549568000.00 ppb[0m
[0;32mI (27909) MQ136: MQ136 - SO2 Concentration: 27.97 ppm[0m

[0;32mI (27919) MICS6814: MICS6814 - CO Concentration: 1244.00 ppm[0m
[0;32mI (27929) MICS6814: MICS6814 - NO2 Concentration: 2.71 ppm[0m

[0;32mI (27929) GPS: Received: 2*74
$GPGSV,3,3,12,24,64,108,16,25,02,178,,29,25,200,,32,16,244,08*79
$GPGLL,2059.84491,N,10553.21466,E,091830.00,A,A*61
$GPRMC,091832.00,A,2059.84498,N,10553.21484,E,0.639,,290624,,,A*78
$GPVTG,,T,,M,0.639,N,1.184,K,A*23
$GPGGA,091832.00,2059.84498,N,10553.21484,E,1,05,2.49,25.9,M,-23.3,M,,*48
$GPGSA,A,3,15,05,23,24,13,,,,,,,,3.80,2.49,2.87*0F
$GPGSV,3,1,12,05,18,084,22,10,09,301,13,12,03,150,,13,09,040,21*78
$GPGSV,3,2,12,15,37,029,11,18,72,326,24,20,02,104,,23,33,325,2[0m
[0;32mI (27979) GPS: UTC Time: 091818.00, Latitude: 20.997351, Longitude: 105.886864[0m
[0;32mI (32399) Transmit UART: Encoded and sent data over UART.[0m
=== Reading Node number 5 ===
[0;32mI (32989) PMS7003: PM1.0: 13 µg/m³[0m
[0;32mI (32989) PMS7003: PM2.5: 17 µg/m³[0m
[0;32mI (32989) PMS7003: PM10: 18 µg/m³[0m
[0;32mI (32989) DHT22: Hum 33.7[0m
[0;32mI (32989) DHT22: Tmp 33.3[0m
[0;32mI (32999) MQ131: MQ131 - O3 Concentration: 631654296015678004493549568000.00 ppb[0m
[0;32mI (32999) MQ136: MQ136 - SO2 Concentration: 27.56 ppm[0m

[0;32mI (33009) MICS6814: MICS6814 - CO Concentration: 3999.00 ppm[0m
[0;32mI (33019) MICS6814: MICS6814 - NO2 Concentration: 2.91 ppm[0m

[0;32mI (33019) GPS: Received: 75
$GPGSV,3,3,12,24,64,108,08,25,02,178,,29,25,200,,32,16,244,*7E
$GPGLL,2059.84602,N,10553.21524,E,091835.00,A,A*6B
$GPRMC,091836.00,A,2059.84699,N,10553.21517,E,1.034,,290624,,,A*7E
$GPVTG,,T,,M,1.034,N,1.916,K,A*2A
$GPGGA,091836.00,2059.84699,N,10553.21517,E,1,03,2.75,26.0,M,-23.3,M,,*47
$GPGSA,A,2,05,23,13,,,,,,,,,,2.92,2.75,1.00*0D
4,,23,33,325,18*76
$GPGSV,3,3,12,24,64,108,10,25,02,178,,29,25,200,,32,16,244,*77
$GPGLL,2059.84719,N,10553.21520,E,091837.00,A,A*66
$GPGSV,3,3,12,24,64,108,08,25,02,178,,29,25,200,,32,16,244,*7E
$GPGLL,2059.84699,N,10553.21517,E,091836.00,A,A*6A
[0m
[0;32mI (33079) GPS: UTC Time: 091837.00, Latitude: 20.997454, Longitude: 105.886917[0m
[0;31mE (37149) DHT: Sensor Timeout
[0m
[0;32mI (37399) Transmit UART: Encoded and sent data over UART.[0m
=== Reading Node number 5 ===
[0;32mI (38089) PMS7003: PM1.0: 13 µg/m³[0m
[0;32mI (38089) PMS7003: PM2.5: 18 µg/m³[0m
[0;32mI (38089) PMS7003: PM10: 19 µg/m³[0m
[0;32mI (38089) DHT22: Hum 33.7[0m
[0;32mI (38089) DHT22: Tmp 33.3[0m
[0;32mI (38099) MQ131: MQ131 - O3 Concentration: 631654296015678004493549568000.00 ppb[0m
[0;32mI (38099) MQ136: MQ136 - SO2 Concentration: 27.73 ppm[0m

[0;32mI (38109) MICS6814: MICS6814 - CO Concentration: 3999.00 ppm[0m
[0;32mI (38119) MICS6814: MICS6814 - NO2 Concentration: 3.09 ppm[0m

[0;32mI (38119) GPS: Received: $GPRMC,091841.00,A,2059.84695,N,10553.21581,E,1.067,,290624,,,A*7B
$GPVTG,,T,,M,1.067,N,1.976,K,A*2A
$GPGGA,091841.00,2059.84695,N,10553.21581,E,1,05,2.50,26.1,M,-23.3,M,,*44
$GPGSA,A,3,15,05,23,24,13,,,,,,,,3.80,2.50,2.87*07
$GPGSV,3,1,12,05,18,084,21,10,09,301,15,12,03,150,,13,09,040,20*7C
$GPGSV,3,2,12,15,37,029,20,18,72,326,23,20,02,104,,23,33,325,17*7E
$GPGSV,3,3,12,24,64,108,12,25,02,178,,29,25,200,,32,16,244,*75
$GPGLL,2059.84695,N,10553.21581,E,091841.00,A,A*69
[0m
[0;32mI (38169) GPS: UTC Time: 091841.00, Latitude: 20.997450, Longitude: 105.886932[0m
[0;32mI (42399) Transmit UART: Encoded and sent data over UART.[0m
=== Reading Node number 5 ===
[0;32mI (43179) PMS7003: PM1.0: 13 µg/m³[0m
[0;32mI (43179) PMS7003: PM2.5: 17 µg/m³[0m
[0;32mI (43179) PMS7003: PM10: 17 µg/m³[0m
[0;32mI (43179) DHT22: Hum 33.7[0m
[0;32mI (43179) DHT22: Tmp 33.3[0m
[0;32mI (43189) MQ131: MQ131 - O3 Concentration: 631654296015678004493549568000.00 ppb[0m
[0;32mI (43189) MQ136: MQ136 - SO2 Concentration: 26.37 ppm[0m

[0;32mI (43199) MICS6814: MICS6814 - CO Concentration: 3128.00 ppm[0m
[0;32mI (43209) MICS6814: MICS6814 - NO2 Concentration: 3.85 ppm[0m

[0;32mI (43209) GPS: Received: $GPRMC,091846.00,A,2059.85020,N,10553.21826,E,1.959,,290624,,,A*71
$GPVTG,,T,,M,1.959,N,3.628,K,A*28
$GPGGA,091846.00,2059.85020,N,10553.21826,E,1,05,2.50,26.1,M,-23.3,M,,*4A
$GPGSA,A,3,15,05,23,24,13,,,,,,,,3.80,2.50,2.87*07
$GPGSV,3,1,12,05,18,084,20,10,09,301,08,12,03,150,,13,09,040,20*71
$GPGSV,3,2,12,15,37,029,17,18,72,326,23,20,02,104,,23,33,325,16*7B
$GPGSV,3,3,12,24,64,108,09,25,02,178,,29,25,200,,32,16,244,*7F
$GPGLL,2059.85020,N,10553.21826,E,091846.00,A,A*67
[0m
[0;32mI (43259) GPS: UTC Time: 091846.00, Latitude: 20.997503, Longitude: 105.886971[0m
[0;32mI (47409) Transmit UART: Encoded and sent data over UART.[0m
=== Reading Node number 5 ===
[0;32mI (48269) PMS7003: PM1.0: 13 µg/m³[0m
[0;32mI (48269) PMS7003: PM2.5: 17 µg/m³[0m
[0;32mI (48269) PMS7003: PM10: 17 µg/m³[0m
[0;32mI (48269) DHT22: Hum 33.6[0m
[0;32mI (48269) DHT22: Tmp 33.4[0m
[0;32mI (48279) MQ131: MQ131 - O3 Concentration: 631654296015678004493549568000.00 ppb[0m
[0;32mI (48279) MQ136: MQ136 - SO2 Concentration: 25.86 ppm[0m

[0;32mI (48289) MICS6814: MICS6814 - CO Concentration: 574.00 ppm[0m
[0;32mI (48299) MICS6814: MICS6814 - NO2 Concentration: 3.95 ppm[0m

[0;32mI (48299) GPS: Received: $GPRMC,091851.00,A,2059.85217,N,10553.21936,E,2.032,,290624,,,A*76
$GPVTG,,T,,M,2.032,N,3.762,K,A*20
$GPGGA,091851.00,2059.85217,N,10553.21936,E,1,05,2.50,25.7,M,-23.3,M,,*4F
$GPGSA,A,3,15,05,23,24,13,,,,,,,,3.80,2.50,2.86*06
$GPGSV,3,1,12,05,18,084,21,10,09,301,13,12,03,150,16,13,09,040,20*7D
$GPGSV,3,2,12,15,37,029,19,18,72,326,25,20,02,104,,23,33,325,14*71
$GPGSV,3,3,12,24,64,108,09,25,02,178,,29,25,200,,32,16,244,*7F
$GPGLL,2059.85217,N,10553.21936,E,091851.00,A,A*67
[0m
[0;32mI (48349) GPS: UTC Time: 091851.00, Latitude: 20.997536, Longitude: 105.886986[0m
[0;31mE (49409) DHT: Sensor Timeout
[0m
[0;32mI (52409) Transmit UART: Encoded and sent data over UART.[0m
=== Reading Node number 5 ===
[0;32mI (53359) PMS7003: PM1.0: 13 µg/m³[0m
[0;32mI (53359) PMS7003: PM2.5: 16 µg/m³[0m
[0;32mI (53359) PMS7003: PM10: 16 µg/m³[0m
[0;32mI (53359) DHT22: Hum 33.6[0m
[0;32mI (53359) DHT22: Tmp 33.4[0m
[0;32mI (53369) MQ131: MQ131 - O3 Concentration: 631654296015678004493549568000.00 ppb[0m
[0;32mI (53369) MQ136: MQ136 - SO2 Concentration: 27.76 ppm[0m

[0;32mI (53379) MICS6814: MICS6814 - CO Concentration: 1.00 ppm[0m
[0;32mI (53389) MICS6814: MICS6814 - NO2 Concentration: 3.33 ppm[0m

[0;32mI (53389) GPS: Received: $GPRMC,091856.00,A,2059.84645,N,10553.22015,E,2.043,,290624,,,A*7E
$GPVTG,,T,,M,2.043,N,3.785,K,A*2F
$GPGGA,091856.00,2059.84645,N,10553.22015,E,1,05,2.50,25.5,M,-23.3,M,,*43
$GPGSA,A,3,15,05,23,24,13,,,,,,,,3.80,2.50,2.86*06
$GPGSV,3,1,12,05,18,084,21,10,09,301,13,12,03,150,08,13,09,040,20*72
$GPGSV,3,2,12,15,37,029,15,18,72,326,25,20,02,104,,23,33,325,17*7E
$GPGSV,3,3,12,24,64,108,07,25,02,178,,29,25,200,,32,16,244,*71
$GPGLL,2059.84645,N,10553.22015,E,091856.00,A,A*69
[0m
[0;32mI (53439) GPS: UTC Time: 091856.00, Latitude: 20.997440, Longitude: 105.887001[0m
[0;32mI (57409) Transmit UART: Encoded and sent data over UART.[0m
=== Reading Node number 5 ===
[0;32mI (58449) PMS7003: PM1.0: 13 µg/m³[0m
[0;32mI (58449) PMS7003: PM2.5: 15 µg/m³[0m
[0;32mI (58449) PMS7003: PM10: 15 µg/m³[0m
[0;32mI (58449) DHT22: Hum 33.6[0m
[0;32mI (58449) DHT22: Tmp 33.4[0m
[0;32mI (58459) MQ131: MQ131 - O3 Concentration: 631654296015678004493549568000.00 ppb[0m
[0;32mI (58459) MQ136: MQ136 - SO2 Concentration: 26.89 ppm[0m

[0;32mI (58469) MICS6814: MICS6814 - CO Concentration: 1728.00 ppm[0m
[0;32mI (58479) MICS6814: MICS6814 - NO2 Concentration: 3.62 ppm[0m

[0;32mI (58479) GPS: Received: $GPRMC,091901.00,A,2059.84529,N,10553.21988,E,1.163,,290624,,,A*7A
$GPVTG,,T,,M,1.163,N,2.154,K,A*24
$GPGGA,091901.00,2059.84529,N,10553.21988,E,1,05,2.74,25.2,M,-23.3,M,,*46
$GPGSA,A,3,15,05,23,24,13,,,,,,,,4.53,2.74,3.60*00
$GPGSV,3,1,12,05,18,084,22,10,09,301,14,12,03,150,,13,09,040,22*7C
$GPGSV,3,2,12,15,37,029,14,18,72,326,26,20,02,104,,23,33,325,14*7F
$GPGSV,3,3,12,24,64,108,08,25,02,178,,29,25,200,,32,16,244,*7E
$GPGLL,2059.84529,N,10553.21988,E,091901.00,A,A*6D
[0m
[0;32mI (58529) GPS: UTC Time: 091901.00, Latitude: 20.997421, Longitude: 105.887001[0m
[0;32mI (62409) Transmit UART: Encoded and sent data over UART.[0m
=== Reading Node number 5 ===
[0;32mI (63539) PMS7003: PM1.0: 13 µg/m³[0m
[0;32mI (63539) PMS7003: PM2.5: 15 µg/m³[0m
[0;32mI (63539) PMS7003: PM10: 15 µg/m³[0m
[0;32mI (63539) DHT22: Hum 33.6[0m
[0;32mI (63539) DHT22: Tmp 33.4[0m
[0;32mI (63549) MQ131: MQ131 - O3 Concentration: 631654296015678004493549568000.00 ppb[0m
[0;32mI (63549) MQ136: MQ136 - SO2 Concentration: 27.21 ppm[0m

[0;32mI (63559) MICS6814: MICS6814 - CO Concentration: 3526.00 ppm[0m
[0;32mI (63569) MICS6814: MICS6814 - NO2 Concentration: 3.05 ppm[0m

[0;32mI (63569) GPS: Received: 2059.84330,N,10553.21855,E,1,05,2.50,25.1,M,-23.3,M,,*4B
$GPGSA,A,3,15,05,23,24,13,,,,,,,,3.80,2.50,2.86*06
$GPGSV,3,1,12,05,18,084,22,10,09,301,10,12,03,150,,13,09,040,22*78
$GPGSV,3,2,12,15,37,029,13,18,72,326,27,20,02,104,,23,33,325,15*78
$GPGSV,3,3,12,24,64,108,09,25,02,178,,29,25,200,,32,16,244,*7F
$GPGLL,2059.84330,N,10553.21855,E,091906.00,A,A*65
$GPRMC,091907.00,A,2059.84233,N,10553.21781,E,0.807,,290624,,,A*7D
$GPVTG,,T,,M,0.807,N,1.495,K,A*25
$GPGGA,091907.00,[0m
[0;32mI (63619) GPS: UTC Time: 091905.00, Latitude: 20.997393, Longitude: 105.886993[0m
[0;32mI (67409) Transmit UART: Encoded and sent data over UART.[0m
[0;31mE (67789) DHT: Sensor Timeout
[0m
=== Reading Node number 5 ===
[0;32mI (68629) PMS7003: PM1.0: 13 µg/m³[0m
[0;32mI (68629) PMS7003: PM2.5: 16 µg/m³[0m
[0;32mI (68629) PMS7003: PM10: 16 µg/m³[0m
[0;32mI (68629) DHT22: Hum 33.6[0m
[0;32mI (68629) DHT22: Tmp 33.4[0m
[0;32mI (68639) MQ131: MQ131 - O3 Concentration: 631654296015678004493549568000.00 ppb[0m
[0;32mI (68639) MQ136: MQ136 - SO2 Concentration: 27.65 ppm[0m

[0;32mI (68649) MICS6814: MICS6814 - CO Concentration: 242.00 ppm[0m
[0;32mI (68659) MICS6814: MICS6814 - NO2 Concentration: 2.80 ppm[0m

[0;32mI (68659) GPS: Received: 2059.84190,N,10553.21649,E,1,03,2.74,25.1,M,-23.3,M,,*46
$GPGSA,A,2,05,23,13,,,,,,,,,,2.92,2.74,1.00*0C
$GPGSV,3,1,12,05,18,084,23,10,09,301,10,12,03,150,,13,09,040,22*79
$GPGSV,3,2,12,15,37,029,09,18,72,326,27,20,02,104,,23,33,325,14*72
$GPGSV,3,3,12,24,64,108,06,25,02,178,,29,25,200,,32,16,244,*70
$GPGLL,2059.84190,N,10553.21649,E,091911.00,A,A*68
$GPRMC,091912.00,A,2059.84235,N,10553.21759,E,0.607,,290624,,,A*74
$GPVTG,,T,,M,0.607,N,1.124,K,A*24
$GPGGA,091912.00,2059.84235,N,10553.21759,E,1,03,2.74,25.2,M,-23.3,M,,*4A
$GPGSA,A,2,05,23,13,,,,,,,,,,2.92,2.74,1.00*0C
$GPGSV,3,1,12,[0m
[0;32mI (68719) GPS: UTC Time: 091905.00, Latitude: 20.997393, Longitude: 105.886993[0m
[0;32mI (72409) Transmit UART: Encoded and sent data over UART.[0m
=== Reading Node number 5 ===
[0;32mI (73729) PMS7003: PM1.0: 15 µg/m³[0m
[0;32mI (73729) PMS7003: PM2.5: 19 µg/m³[0m
[0;32mI (73729) PMS7003: PM10: 20 µg/m³[0m
[0;32mI (73729) DHT22: Hum 33.6[0m
[0;32mI (73729) DHT22: Tmp 33.4[0m
[0;32mI (73739) MQ131: MQ131 - O3 Concentration: 631654296015678004493549568000.00 ppb[0m
[0;32mI (73739) MQ136: MQ136 - SO2 Concentration: 27.00 ppm[0m

[0;32mI (73749) MICS6814: MICS6814 - CO Concentration: 1.00 ppm[0m
[0;32mI (73759) MICS6814: MICS6814 - NO2 Concentration: 2.90 ppm[0m

[0;32mI (73759) GPS: Received: ,12,05,18,084,24,10,09,301,12,12,03,150,,13,09,040,22*7C
$GPGSV,3,2,12,15,37,029,13,18,72,326,27,20,02,104,,23,33,325,19*74
$GPGSV,3,3,12,24,64,108,11,25,02,178,,29,25,200,17,32,16,244,*70
$GPGLL,2059.84033,N,10553.21697,E,091916.00,A,A*64
$GPRMC,091917.00,A,2059.84021,N,10553.21665,E,0.739,,290624,,,A*74
$GPVTG,,T,,M,0.739,N,1.368,K,A*22
$GPGGA,091917.00,2059.84021,N,10553.21665,E,1,05,2.51,25.3,M,-23.3,M,,*46
$GPGSA,A,3,15,05,23,24,13,,,,,,,,3.80,2.51,2.86*07
$GPGSV,3,1,12,05,18,084,23,10,10,301,12,12,03,150,,13,09,040,21*70
$GPGSV,3,2,12,15,37,029,13,18,72,326,27,20,02,104,,23,33,325,1[0m
[0;32mI (73819) GPS: UTC Time: 091905.00, Latitude: 20.997393, Longitude: 105.886993[0m
[0;32mI (77409) Transmit UART: Encoded and sent data over UART.[0m
=== Reading Node number 5 ===
[0;32mI (78829) PMS7003: PM1.0: 14 µg/m³[0m
[0;32mI (78829) PMS7003: PM2.5: 19 µg/m³[0m
[0;32mI (78829) PMS7003: PM10: 21 µg/m³[0m
[0;32mI (78829) DHT22: Hum 33.6[0m
[0;32mI (78829) DHT22: Tmp 33.4[0m
[0;32mI (78839) MQ131: MQ131 - O3 Concentration: 631654296015678004493549568000.00 ppb[0m
[0;32mI (78839) MQ136: MQ136 - SO2 Concentration: 27.35 ppm[0m

[0;32mI (78849) MICS6814: MICS6814 - CO Concentration: 32.00 ppm[0m
[0;32mI (78859) MICS6814: MICS6814 - NO2 Concentration: 2.94 ppm[0m

[0;32mI (78859) GPS: Received: 7*7B
$GPGSV,3,3,12,24,64,108,11,25,02,178,,29,25,200,15,32,16,244,*72
$GPGLL,2059.83764,N,10553.21580,E,091921.00,A,A*67
$GPRMC,091922.00,A,2059.83664,N,10553.21531,E,1.845,,290624,,,A*75
$GPVTG,,T,,M,1.845,N,3.417,K,A*2A
$GPGGA,091922.00,2059.83664,N,10553.21531,E,1,05,2.51,25.5,M,-23.3,M,,*44
$GPGSA,A,3,15,05,23,24,13,,,,,,,,3.80,2.51,2.86*07
$GPGSV,3,1,12,05,18,084,21,10,10,301,13,12,03,150,,13,09,040,22*70
$GPGSV,3,2,12,15,37,030,13,18,72,326,27,20,02,104,,23,33,325,1[0m
[0;32mI (78909) GPS: UTC Time: 091905.00, Latitude: 20.997393, Longitude: 105.886993[0m
[0;31mE (80059) DHT: Sensor Timeout
[0m
[0;32mI (82409) Transmit UART: Encoded and sent data over UART.[0m
=== Reading Node number 5 ===
[0;32mI (83919) PMS7003: PM1.0: 14 µg/m³[0m
[0;32mI (83919) PMS7003: PM2.5: 18 µg/m³[0m
[0;32mI (83919) PMS7003: PM10: 20 µg/m³[0m
[0;32mI (83919) DHT22: Hum 33.5[0m
[0;32mI (83919) DHT22: Tmp 33.4[0m
[0;32mI (83929) MQ131: MQ131 - O3 Concentration: 631654296015678004493549568000.00 ppb[0m
[0;32mI (83929) MQ136: MQ136 - SO2 Concentration: 27.41 ppm[0m

[0;32mI (83939) MICS6814: MICS6814 - CO Concentration: 1.00 ppm[0m
[0;32mI (83949) MICS6814: MICS6814 - NO2 Concentration: 2.95 ppm[0m

[0;32mI (83949) GPS: Received: $GPRMC,091927.00,A,2059.83352,N,10553.21336,E,2.516,,290624,,,A*79
$GPVTG,,T,,M,2.516,N,4.660,K,A*27
$GPGGA,091927.00,2059.83352,N,10553.21336,E,1,05,2.51,25.7,M,-23.3,M,,*42
$GPGSA,A,3,15,05,23,24,13,,,,,,,,3.80,2.51,2.85*04
$GPGSV,3,1,12,05,18,084,22,10,10,301,10,12,03,150,,13,09,040,22*70
$GPGSV,3,2,12,15,37,030,07,18,73,325,28,20,02,104,,23,33,325,19*74
$GPGSV,3,3,12,24,64,108,12,25,02,178,,29,25,200,14,32,16,244,*70
$GPGLL,2059.83352,N,10553.21336,E,091927.00,A,A*6B
[0m
[0;32mI (83999) GPS: UTC Time: 091927.00, Latitude: 20.997225, Longitude: 105.886887[0m
[0;32mI (87409) Transmit UART: Encoded and sent data over UART.[0m
=== Reading Node number 5 ===
[0;32mI (89009) PMS7003: PM1.0: 15 µg/m³[0m
[0;32mI (89009) PMS7003: PM2.5: 18 µg/m³[0m
[0;32mI (89009) PMS7003: PM10: 20 µg/m³[0m
[0;32mI (89009) DHT22: Hum 33.5[0m
[0;32mI (89009) DHT22: Tmp 33.3[0m
[0;32mI (89019) MQ131: MQ131 - O3 Concentration: 631654296015678004493549568000.00 ppb[0m
[0;32mI (89019) MQ136: MQ136 - SO2 Concentration: 27.73 ppm[0m

[0;32mI (89029) MICS6814: MICS6814 - CO Concentration: 675.00 ppm[0m
[0;32mI (89039) MICS6814: MICS6814 - NO2 Concentration: 2.95 ppm[0m

[0;32mI (89039) GPS: Received: $GPRMC,091932.00,A,2059.83627,N,10553.21488,E,0.396,,290624,,,A*74
$GPVTG,,T,,M,0.396,N,0.734,K,A*2F
$GPGGA,091932.00,2059.83627,N,10553.21488,E,1,05,2.51,25.7,M,-23.3,M,,*43
$GPGSA,A,3,15,05,23,24,13,,,,,,,,3.80,2.51,2.85*04
$GPGSV,3,1,12,05,18,084,23,10,10,301,12,12,03,150,,13,09,040,22*73
$GPGSV,3,2,12,15,37,030,13,18,73,325,28,20,02,104,,23,33,326,18*73
$GPGSV,3,3,12,24,64,107,15,25,02,178,,29,25,200,17,32,16,244,*7B
$GPGLL,2059.83627,N,10553.21488,E,091932.00,A,A*6A
[0m
[0;32mI (89089) GPS: UTC Time: 091932.00, Latitude: 20.997271, Longitude: 105.886917[0m
[0;32mI (92409) Transmit UART: Encoded and sent data over UART.[0m
=== Reading Node number 5 ===
[0;32mI (94109) PMS7003: PM1.0: 14 µg/m³[0m
[0;32mI (94109) PMS7003: PM2.5: 18 µg/m³[0m
[0;32mI (94109) PMS7003: PM10: 19 µg/m³[0m
[0;32mI (94109) DHT22: Hum 33.5[0m
[0;32mI (94119) DHT22: Tmp 33.3[0m
[0;32mI (94119) MQ131: MQ131 - O3 Concentration: 631654296015678004493549568000.00 ppb[0m
[0;32mI (94129) MQ136: MQ136 - SO2 Concentration: 27.70 ppm[0m

[0;32mI (94139) MICS6814: MICS6814 - CO Concentration: 1.00 ppm[0m
[0;32mI (94139) MICS6814: MICS6814 - NO2 Concentration: 3.01 ppm[0m

[0;32mI (94149) GPS: Received: $GPRMC,091937.00,A,2059.83922,N,10553.21598,E,0.499,,290624,,,A*73
$GPVTG,,T,,M,0.499,N,0.924,K,A*28
$GPGGA,091937.00,2059.83922,N,10553.21598,E,1,05,2.51,25.6,M,-23.3,M,,*4D
$GPGSA,A,3,15,05,23,24,13,,,,,,,,3.80,2.51,2.85*04
$GPGSV,4,1,13,05,18,084,23,10,10,301,12,12,03,150,,13,09,040,21*76
$GPGSV,4,2,13,15,37,030,13,18,73,325,27,20,02,104,,23,33,326,18*7A
$GPGSV,4,3,13,24,64,107,15,25,02,178,,27,00,314,,29,24,200,*7D
$GPGSV,4,4,13,32,16,244,*4F
$GPGLL,2059.83922,N,10553.21598,E,091937.00,A,A*65
[0m
[0;32mI (94199) GPS: UTC Time: 091937.00, Latitude: 20.997320, Longitude: 105.886932[0m
[0;32mI (97409) Transmit UART: Encoded and sent data over UART.[0m
=== Reading Node number 5 ===
[0;32mI (99199) PMS7003: PM1.0: 14 µg/m³[0m
[0;32mI (99199) PMS7003: PM2.5: 19 µg/m³[0m
[0;32mI (99199) PMS7003: PM10: 19 µg/m³[0m
[0;32mI (99199) DHT22: Hum 33.5[0m
[0;32mI (99199) DHT22: Tmp 33.3[0m
[0;32mI (99209) MQ131: MQ131 - O3 Concentration: 631654296015678004493549568000.00 ppb[0m
[0;32mI (99209) MQ136: MQ136 - SO2 Concentration: 27.56 ppm[0m

[0;32mI (99219) MICS6814: MICS6814 - CO Concentration: 3999.00 ppm[0m
[0;32mI (99229) MICS6814: MICS6814 - NO2 Concentration: 3.41 ppm[0m

[0;32mI (99229) GPS: Received: $GPRMC,091942.00,A,2059.84190,N,10553.21656,E,0.830,,290624,,,A*79
$GPVTG,,T,,M,0.830,N,1.537,K,A*28
$GPGGA,091942.00,2059.84190,N,10553.21656,E,1,05,2.52,25.4,M,-23.3,M,,*49
$GPGSA,A,3,15,05,23,24,13,,,,,,,,3.80,2.52,2.85*07
$GPGSV,4,1,13,05,18,084,24,10,10,301,11,12,03,150,,13,09,040,22*71
$GPGSV,4,2,13,15,37,030,10,18,73,325,27,20,02,104,,23,33,326,18*79
$GPGSV,4,3,13,24,64,107,10,25,02,178,,27,00,314,,29,24,200,16*7F
$GPGSV,4,4,13,32,16,244,*4F
$GPGLL,2059.84190,N,10553.21656,E,091942.00,A,A*60
[0m
[0;32mI (99279) GPS: UTC Time: 091942.00, Latitude: 20.997366, Longitude: 105.886940[0m
[0;32mI (102409) Transmit UART: Encoded and sent data over UART.[0m
=== Reading Node number 5 ===
[0;32mI (104289) PMS7003: PM1.0: 13 µg/m³[0m
[0;32mI (104289) PMS7003: PM2.5: 17 µg/m³[0m
[0;32mI (104289) PMS7003: PM10: 17 µg/m³[0m
[0;32mI (104289) DHT22: Hum 33.5[0m
[0;32mI (104289) DHT22: Tmp 33.3[0m
[0;32mI (104299) MQ131: MQ131 - O3 Concentration: 631654296015678004493549568000.00 ppb[0m
[0;32mI (104299) MQ136: MQ136 - SO2 Concentration: 26.71 ppm[0m

[0;32mI (104309) MICS6814: MICS6814 - CO Concentration: 158.00 ppm[0m
[0;32mI (104319) MICS6814: MICS6814 - NO2 Concentration: 4.19 ppm[0m

[0;32mI (104319) GPS: Received: $GPRMC,091947.00,A,2059.84171,N,10553.21507,E,1.410,,290624,,,A*7B
$GPVTG,,T,,M,1.410,N,2.611,K,A*23
$GPGGA,091947.00,2059.84171,N,10553.21507,E,1,05,2.52,25.3,M,-23.3,M,,*43
$GPGSA,A,3,15,05,23,24,13,,,,,,,,3.80,2.52,2.85*07
$GPGSV,4,1,13,05,18,084,25,10,10,301,12,12,03,150,,13,09,040,19*7B
$GPGSV,4,2,13,15,37,030,19,18,73,325,27,20,02,104,,23,33,326,18*70
$GPGSV,4,3,13,24,64,107,13,25,02,178,,27,00,314,,29,24,200,13*79
$GPGSV,4,4,13,32,16,244,*4F
$GPGLL,2059.84171,N,10553.21507,E,091947.00,A,A*6D
[0m
[0;32mI (104369) GPS: UTC Time: 091947.00, Latitude: 20.997362, Longitude: 105.886917[0m
[0;32mI (107409) Transmit UART: Encoded and sent data over UART.[0m
=== Reading Node number 5 ===
[0;32mI (109379) PMS7003: PM1.0: 13 µg/m³[0m
[0;32mI (109379) PMS7003: PM2.5: 16 µg/m³[0m
[0;32mI (109379) PMS7003: PM10: 16 µg/m³[0m
[0;32mI (109379) DHT22: Hum 33.5[0m
[0;32mI (109379) DHT22: Tmp 33.3[0m
[0;32mI (109389) MQ131: MQ131 - O3 Concentration: 631654296015678004493549568000.00 ppb[0m
[0;32mI (109389) MQ136: MQ136 - SO2 Concentration: 27.12 ppm[0m

[0;32mI (109399) MICS6814: MICS6814 - CO Concentration: 1.00 ppm[0m
[0;32mI (109409) MICS6814: MICS6814 - NO2 Concentration: 3.40 ppm[0m

[0;32mI (109409) GPS: Received: $GPRMC,091952.00,A,2059.84249,N,10553.21530,E,1.003,,290624,,,A*75
$GPVTG,,T,,M,1.003,N,1.858,K,A*25
$GPGGA,091952.00,2059.84249,N,10553.21530,E,1,05,2.52,25.3,M,-23.3,M,,*4B
$GPGSA,A,3,15,05,23,24,13,,,,,,,,3.80,2.52,2.85*07
$GPGSV,4,1,13,05,18,084,25,10,10,301,10,12,03,150,,13,09,040,18*78
$GPGSV,4,2,13,15,37,030,14,18,73,325,27,20,02,104,,23,33,326,18*7D
$GPGSV,4,3,13,24,64,107,14,25,02,178,,27,00,314,,29,24,200,15*78
$GPGSV,4,4,13,32,16,244,*4F
$GPGLL,2059.84249,N,10553.21530,E,091952.00,A,A*65
[0m
[0;32mI (109459) GPS: UTC Time: 091952.00, Latitude: 20.997375, Longitude: 105.886925[0m
[0;32mI (112409) Transmit UART: Encoded and sent data over UART.[0m
=== Reading Node number 5 ===
[0;32mI (114469) PMS7003: PM1.0: 14 µg/m³[0m
[0;32mI (114469) PMS7003: PM2.5: 17 µg/m³[0m
[0;32mI (114469) PMS7003: PM10: 17 µg/m³[0m
[0;32mI (114469) DHT22: Hum 33.5[0m
[0;32mI (114469) DHT22: Tmp 33.3[0m
[0;32mI (114479) MQ131: MQ131 - O3 Concentration: 631654296015678004493549568000.00 ppb[0m
[0;32mI (114479) MQ136: MQ136 - SO2 Concentration: 27.03 ppm[0m

[0;32mI (114489) MICS6814: MICS6814 - CO Concentration: 3101.00 ppm[0m
[0;32mI (114499) MICS6814: MICS6814 - NO2 Concentration: 3.46 ppm[0m

[0;32mI (114499) GPS: Received: 2059.84593,N,10553.21783,E,1,06,2.51,25.0,M,-23.3,M,,*47
$GPGSA,A,3,15,05,18,23,24,13,,,,,,,3.69,2.51,2.70*00
$GPGSV,4,1,13,05,18,084,25,10,10,301,11,12,03,150,,13,09,040,18*79
$GPGSV,4,2,13,15,37,030,15,18,73,325,25,20,02,104,,23,33,326,18*7E
$GPGSV,4,3,13,24,64,107,12,25,02,178,,27,00,314,,29,24,200,13*78
$GPGSV,4,4,13,32,16,244,*4F
$GPGLL,2059.84593,N,10553.21783,E,091957.00,A,A*6A
$GPRMC,091958.00,A,2059.84519,N,10553.21778,E,0.519,,290624,,,A*7C
$GPVTG,,T,,M,0.519,N,0.961,K,A*20
$GPGGA,091958.00,[0m
[0;32mI (114549) GPS: UTC Time: 091953.00, Latitude: 20.997383, Longitude: 105.886932[0m
[0;32mI (117409) Transmit UART: Encoded and sent data over UART.[0m
=== Reading Node number 5 ===
[0;32mI (119569) PMS7003: PM1.0: 14 µg/m³[0m
[0;32mI (119569) PMS7003: PM2.5: 18 µg/m³[0m
[0;32mI (119569) PMS7003: PM10: 18 µg/m³[0m
[0;32mI (119579) DHT22: Hum 33.5[0m
[0;32mI (119579) DHT22: Tmp 33.3[0m
[0;32mI (119579) MQ131: MQ131 - O3 Concentration: 631654296015678004493549568000.00 ppb[0m
[0;32mI (119589) MQ136: MQ136 - SO2 Concentration: 27.82 ppm[0m

[0;32mI (119599) MICS6814: MICS6814 - CO Concentration: 1.00 ppm[0m
[0;32mI (119599) MICS6814: MICS6814 - NO2 Concentration: 2.84 ppm[0m

[0;32mI (119609) GPS: Received: ,1,13,05,18,084,23,10,10,301,10,12,03,150,,13,09,040,17*71
$GPGSV,4,2,13,15,37,030,15,18,73,325,26,20,02,104,,23,33,326,16*73
$GPGSV,4,3,13,24,64,107,07,25,02,178,,27,00,314,,29,24,200,12*7D
$GPGSV,4,4,13,32,16,244,*4F
$GPGLL,2059.84571,N,10553.21706,E,092002.00,A,A*61
$GPRMC,092003.00,A,2059.84692,N,10553.21693,E,1.195,,290624,,,A*7D
$GPVTG,,T,,M,1.195,N,2.213,K,A*2D
$GPGGA,092003.00,2059.84692,N,10553.21693,E,1,06,2.52,24.5,M,-23.3,M,,*49
$GPGSA,A,3,15,05,18,23,24,13,,,,,,,3.69,2.52,2.70*03
$GPGSV,4[0m
[0;32mI (119659) GPS: UTC Time: 091953.00, Latitude: 20.997383, Longitude: 105.886932[0m
[0;32mI (122409) Transmit UART: Encoded and sent data over UART.[0m
=== Reading Node number 5 ===
[0;32mI (124669) PMS7003: PM1.0: 12 µg/m³[0m
[0;32mI (124669) PMS7003: PM2.5: 16 µg/m³[0m
[0;32mI (124669) PMS7003: PM10: 16 µg/m³[0m
[0;32mI (124669) DHT22: Hum 33.5[0m
[0;32mI (124669) DHT22: Tmp 33.3[0m
[0;32mI (124679) MQ131: MQ131 - O3 Concentration: 631654296015678004493549568000.00 ppb[0m
[0;32mI (124679) MQ136: MQ136 - SO2 Concentration: 27.41 ppm[0m

[0;32mI (124689) MICS6814: MICS6814 - CO Concentration: 3999.00 ppm[0m
[0;32mI (124699) MICS6814: MICS6814 - NO2 Concentration: 3.03 ppm[0m

[0;32mI (124699) GPS: Received: ,15*73
$GPGSV,4,3,13,24,64,107,07,25,02,178,,27,00,314,,29,24,200,11*7E
$GPGSV,4,4,13,32,16,244,*4F
$GPGLL,2059.84839,N,10553.21750,E,092007.00,A,A*66
$GPRMC,092008.00,A,2059.84806,N,10553.21768,E,0.417,,290624,,,A*7E
$GPVTG,,T,,M,0.417,N,0.772,K,A*23
$GPGGA,092008.00,2059.84806,N,10553.21768,E,1,06,2.52,24.4,M,-23.3,M,,*45
$GPGSA,A,3,15,05,18,23,24,13,,,,,,,3.69,2.52,2.70*03
$GPGSV,4,1,13,05,18,084,25,10,10,301,11,12,03,150,,13,09,040,18*79
$GPGSV,4,2,13,15,37,030,14,18,73,325,26,20,02,104,,23,33,326[0m
[0;32mI (124749) GPS: UTC Time: 091953.00, Latitude: 20.997383, Longitude: 105.886932[0m
[0;32mI (127409) Transmit UART: Encoded and sent data over UART.[0m
=== Reading Node number 5 ===
[0;32mI (129759) PMS7003: PM1.0: 12 µg/m³[0m
[0;32mI (129759) PMS7003: PM2.5: 15 µg/m³[0m
[0;32mI (129759) PMS7003: PM10: 16 µg/m³[0m
[0;32mI (129759) DHT22: Hum 33.5[0m
[0;32mI (129759) DHT22: Tmp 33.3[0m
[0;32mI (129769) MQ131: MQ131 - O3 Concentration: 631654296015678004493549568000.00 ppb[0m
[0;32mI (129769) MQ136: MQ136 - SO2 Concentration: 27.47 ppm[0m

[0;32mI (129779) MICS6814: MICS6814 - CO Concentration: 3231.00 ppm[0m
[0;32mI (129789) MICS6814: MICS6814 - NO2 Concentration: 2.91 ppm[0m

[0;32mI (129789) GPS: Received: ,N,10553.21721,E,092012.00,A,A*69
$GPRMC,092013.00,A,2059.84885,N,10553.21706,E,0.611,,290624,,,A*73
$GPVTG,,T,,M,0.611,N,1.132,K,A*24
$GPGGA,092013.00,2059.84885,N,10553.21706,E,1,06,2.52,24.1,M,-23.3,M,,*49
$GPGSA,A,3,15,05,18,23,24,13,,,,,,,3.70,2.52,2.70*0B
$GPGSV,4,1,13,05,18,084,26,10,10,301,,12,03,150,,13,09,040,19*7B
$GPGSV,4,2,13,15,37,030,14,18,73,325,27,20,02,104,,23,33,326,15*70
$GPGSV,4,3,13,24,64,107,12,25,02,178,,27,00,314,,29,24,200,12*79
$GPGSV,4,4,13,32,16,244,*4F
$GPGLL,2059.84885,N[0m
[0;32mI (129839) GPS: UTC Time: 091953.00, Latitude: 20.997383, Longitude: 105.886932[0m
[0;31mE (130089) DHT: Sensor Timeout
[0m
[0;32mI (132419) Transmit UART: Encoded and sent data over UART.[0m
=== Reading Node number 5 ===
[0;32mI (134849) PMS7003: PM1.0: 13 µg/m³[0m
[0;32mI (134849) PMS7003: PM2.5: 16 µg/m³[0m
[0;32mI (134849) PMS7003: PM10: 18 µg/m³[0m
[0;32mI (134849) DHT22: Hum 33.5[0m
[0;32mI (134849) DHT22: Tmp 33.3[0m
[0;32mI (134859) MQ131: MQ131 - O3 Concentration: 631654296015678004493549568000.00 ppb[0m
[0;32mI (134859) MQ136: MQ136 - SO2 Concentration: 26.77 ppm[0m

[0;32mI (134869) MICS6814: MICS6814 - CO Concentration: 129.00 ppm[0m
[0;32mI (134879) MICS6814: MICS6814 - NO2 Concentration: 2.96 ppm[0m

[0;32mI (134879) GPS: Received: $GPRMC,092018.00,A,2059.84943,N,10553.21616,E,0.856,,290624,,,A*7E
$GPVTG,,T,,M,0.856,N,1.586,K,A*22
$GPGGA,092018.00,2059.84943,N,10553.21616,E,1,05,4.78,23.3,M,-23.3,M,,*41
$GPGSA,A,3,05,18,23,24,13,,,,,,,,6.77,4.78,4.80*0A
$GPGSV,4,1,13,05,18,084,25,10,10,301,,12,03,150,,13,09,040,18*79
$GPGSV,4,2,13,15,37,030,08,18,73,325,26,20,02,104,,23,33,326,10*79
$GPGSV,4,3,13,24,64,107,14,25,02,178,,27,00,314,,29,24,200,12*7F
$GPGSV,4,4,13,32,16,244,*4F
$GPGLL,2059.84943,N,10553.21616,E,092018.00,A,A*67
[0m
[0;32mI (134929) GPS: UTC Time: 092018.00, Latitude: 20.997490, Longitude: 105.886932[0m
[0;32mI (137419) Transmit UART: Encoded and sent data over UART.[0m
=== Reading Node number 5 ===
[0;32mI (139939) PMS7003: PM1.0: 13 µg/m³[0m
[0;32mI (139939) PMS7003: PM2.5: 17 µg/m³[0m
[0;32mI (139939) PMS7003: PM10: 18 µg/m³[0m
[0;32mI (139939) DHT22: Hum 33.6[0m
[0;32mI (139939) DHT22: Tmp 33.3[0m
[0;32mI (139949) MQ131: MQ131 - O3 Concentration: 631654296015678004493549568000.00 ppb[0m
[0;32mI (139949) MQ136: MQ136 - SO2 Concentration: 26.89 ppm[0m

[0;32mI (139959) MICS6814: MICS6814 - CO Concentration: 1.00 ppm[0m
[0;32mI (139969) MICS6814: MICS6814 - NO2 Concentration: 3.09 ppm[0m

[0;32mI (139969) GPS: Received: $GPRMC,092023.00,A,2059.85042,N,10553.21537,E,0.353,,290624,,,A*71
$GPVTG,,T,,M,0.353,N,0.653,K,A*26
$GPGGA,092023.00,2059.85042,N,10553.21537,E,1,05,4.79,22.7,M,-23.3,M,,*44
$GPGSA,A,3,05,18,23,24,13,,,,,,,,6.78,4.79,4.80*04
$GPGSV,4,1,13,05,18,085,24,10,10,301,,12,03,150,,13,09,040,19*78
$GPGSV,4,2,13,15,37,030,08,18,73,325,27,20,02,104,,23,33,326,15*7D
$GPGSV,4,3,13,24,64,107,15,25,02,178,,27,00,314,,29,24,200,10*7C
$GPGSV,4,4,13,32,16,244,*4F
$GPGLL,2059.85042,N,10553.21537,E,092023.00,A,A*66
[0m
[0;32mI (140019) GPS: UTC Time: 092023.00, Latitude: 20.997507, Longitude: 105.886925[0m
[0;31mE (142339) DHT: Sensor Timeout
[0m
[0;32mI (142419) Transmit UART: Encoded and sent data over UART.[0m
=== Reading Node number 5 ===
[0;32mI (145029) PMS7003: PM1.0: 13 µg/m³[0m
[0;32mI (145029) PMS7003: PM2.5: 17 µg/m³[0m
[0;32mI (145029) PMS7003: PM10: 18 µg/m³[0m
[0;32mI (145029) DHT22: Hum 33.6[0m
[0;32mI (145029) DHT22: Tmp 33.3[0m
[0;32mI (145039) MQ131: MQ131 - O3 Concentration: 631654296015678004493549568000.00 ppb[0m
[0;32mI (145039) MQ136: MQ136 - SO2 Concentration: 26.17 ppm[0m

[0;32mI (145049) MICS6814: MICS6814 - CO Concentration: 3303.00 ppm[0m
[0;32mI (145059) MICS6814: MICS6814 - NO2 Concentration: 2.93 ppm[0m

[0;32mI (145059) GPS: Received: $GPRMC,092028.00,A,2059.85058,N,10553.21659,E,0.601,,290624,,,A*78
$GPVTG,,T,,M,0.601,N,1.113,K,A*26
$GPGGA,092028.00,2059.85058,N,10553.21659,E,1,06,2.52,22.4,M,-23.3,M,,*40
$GPGSA,A,3,15,05,18,23,24,13,,,,,,,3.70,2.52,2.70*0B
$GPGSV,4,1,13,05,18,085,23,10,10,301,,12,03,150,,13,09,040,16*70
$GPGSV,4,2,13,15,37,030,07,18,73,325,26,20,02,104,,23,33,326,18*7E
$GPGSV,4,3,13,24,64,107,14,25,02,178,,27,00,314,,29,24,200,*7C
$GPGSV,4,4,13,32,16,244,*4F
$GPGLL,2059.85058,N,10553.21659,E,092028.00,A,A*6D
[0m
[0;32mI (145109) GPS: UTC Time: 092028.00, Latitude: 20.997509, Longitude: 105.886940[0m
[0;32mI (147419) Transmit UART: Encoded and sent data over UART.[0m
=== Reading Node number 5 ===
[0;32mI (150119) PMS7003: PM1.0: 12 µg/m³[0m
[0;32mI (150119) PMS7003: PM2.5: 16 µg/m³[0m
[0;32mI (150119) PMS7003: PM10: 18 µg/m³[0m
[0;32mI (150119) DHT22: Hum 33.5[0m
[0;32mI (150119) DHT22: Tmp 33.3[0m
[0;32mI (150129) MQ131: MQ131 - O3 Concentration: 631654296015678004493549568000.00 ppb[0m
[0;32mI (150129) MQ136: MQ136 - SO2 Concentration: 27.00 ppm[0m

[0;32mI (150139) MICS6814: MICS6814 - CO Concentration: 716.00 ppm[0m
[0;32mI (150149) MICS6814: MICS6814 - NO2 Concentration: 3.28 ppm[0m

[0;32mI (150149) GPS: Received: $GPRMC,092033.00,A,2059.85366,N,10553.21812,E,0.513,,290624,,,A*7D
$GPVTG,,T,,M,0.513,N,0.949,K,A*20
$GPGGA,092033.00,2059.85366,N,10553.21812,E,1,06,2.52,23.4,M,-23.3,M,,*44
$GPGSA,A,3,15,05,18,23,24,13,,,,,,,3.70,2.52,2.70*0B
$GPGSV,4,1,13,05,18,085,21,10,10,301,,12,03,149,,13,08,040,18*75
$GPGSV,4,2,13,15,36,030,08,18,73,325,26,20,02,104,,23,33,326,16*7E
$GPGSV,4,3,13,24,64,107,20,25,02,178,18,27,00,314,,29,24,200,*72
$GPGSV,4,4,13,32,16,244,*4F
$GPGLL,2059.85366,N,10553.21812,E,092033.00,A,A*68
[0m
[0;32mI (150199) GPS: UTC Time: 092033.00, Latitude: 20.997561, Longitude: 105.886971[0m
[0;32mI (152419) Transmit UART: Encoded and sent data over UART.[0m
=== Reading Node number 5 ===
[0;32mI (155209) PMS7003: PM1.0: 12 µg/m³[0m
[0;32mI (155209) PMS7003: PM2.5: 16 µg/m³[0m
[0;32mI (155209) PMS7003: PM10: 16 µg/m³[0m
[0;32mI (155209) DHT22: Hum 33.5[0m
[0;32mI (155209) DHT22: Tmp 33.3[0m
[0;32mI (155219) MQ131: MQ131 - O3 Concentration: 631654296015678004493549568000.00 ppb[0m
[0;32mI (155219) MQ136: MQ136 - SO2 Concentration: 27.56 ppm[0m

[0;32mI (155229) MICS6814: MICS6814 - CO Concentration: 1.00 ppm[0m
[0;32mI (155239) MICS6814: MICS6814 - NO2 Concentration: 2.84 ppm[0m

[0;32mI (155239) GPS: Received: $GPRMC,092038.00,A,2059.85320,N,10553.21796,E,0.327,,290624,,,A*76
$GPVTG,,T,,M,0.327,N,0.606,K,A*25
$GPGGA,092038.00,2059.85320,N,10553.21796,E,1,05,4.81,23.3,M,-23.3,M,,*42
$GPGSA,A,3,05,18,23,24,13,,,,,,,,6.80,4.81,4.81*05
$GPGSV,4,1,13,05,18,085,22,10,10,301,16,12,03,149,,13,08,040,17*7E
$GPGSV,4,2,13,15,36,030,,18,74,324,26,20,01,105,,23,33,326,20*77
$GPGSV,4,3,13,24,64,107,21,25,02,178,,27,00,314,,29,24,200,*7A
$GPGSV,4,4,13,32,16,244,*4F
$GPGLL,2059.85320,N,10553.21796,E,092038.00,A,A*62
[0m
[0;32mI (155289) GPS: UTC Time: 092038.00, Latitude: 20.997553, Longitude: 105.886963[0m
[0;32mI (157419) Transmit UART: Encoded and sent data over UART.[0m
=== Reading Node number 5 ===
[0;32mI (160299) PMS7003: PM1.0: 12 µg/m³[0m
[0;32mI (160299) PMS7003: PM2.5: 15 µg/m³[0m
[0;32mI (160299) PMS7003: PM10: 15 µg/m³[0m
[0;32mI (160299) DHT22: Hum 33.5[0m
[0;32mI (160299) DHT22: Tmp 33.3[0m
[0;32mI (160309) MQ131: MQ131 - O3 Concentration: 631654296015678004493549568000.00 ppb[0m
[0;32mI (160309) MQ136: MQ136 - SO2 Concentration: 26.46 ppm[0m

[0;32mI (160319) MICS6814: MICS6814 - CO Concentration: 282.00 ppm[0m
[0;32mI (160329) MICS6814: MICS6814 - NO2 Concentration: 3.62 ppm[0m

[0;32mI (160329) GPS: Received: 2059.85308,N,10553.21850,E,1,06,4.81,23.2,M,-23.3,M,,*43
$GPGSA,A,3,15,05,18,23,24,13,,,,,,,6.80,4.81,4.81*01
$GPGSV,4,1,13,05,18,085,22,10,10,301,12,12,03,149,,13,08,040,16*7B
$GPGSV,4,2,13,15,36,030,13,18,74,324,26,20,01,105,,23,33,326,17*71
$GPGSV,4,3,13,24,64,106,20,25,02,177,,27,00,314,,29,24,200,*75
$GPGSV,4,4,13,32,16,244,20*4D
$GPGLL,2059.85308,N,10553.21850,E,092043.00,A,A*61
$GPRMC,092044.00,A,2059.85372,N,10553.21886,E,1.193,,290624,,,A*78
$GPVTG,,T,,M,1.193,N,2.209,K,A*20
$GPGGA,092044.00,[0m
[0;32mI (160379) GPS: UTC Time: 092040.00, Latitude: 20.997536, Longitude: 105.886978[0m
[0;31mE (160739) DHT: Sensor Timeout
[0m
[0;32mI (162419) Transmit UART: Encoded and sent data over UART.[0m
=== Reading Node number 5 ===
[0;32mI (165389) PMS7003: PM1.0: 12 µg/m³[0m
[0;32mI (165389) PMS7003: PM2.5: 14 µg/m³[0m
[0;32mI (165389) PMS7003: PM10: 14 µg/m³[0m
[0;32mI (165389) DHT22: Hum 33.5[0m
[0;32mI (165389) DHT22: Tmp 33.3[0m
[0;32mI (165399) MQ131: MQ131 - O3 Concentration: 631654296015678004493549568000.00 ppb[0m
[0;32mI (165399) MQ136: MQ136 - SO2 Concentration: 26.89 ppm[0m

[0;32mI (165409) MICS6814: MICS6814 - CO Concentration: 3999.00 ppm[0m
[0;32mI (165419) MICS6814: MICS6814 - NO2 Concentration: 3.42 ppm[0m

[0;32mI (165419) GPS: Received: ,1,13,05,18,085,24,10,10,301,09,12,03,149,,13,08,040,15*74
$GPGSV,4,2,13,15,36,030,10,18,74,324,26,20,01,105,,23,33,326,16*73
$GPGSV,4,3,13,24,64,106,22,25,02,177,,27,00,314,,29,24,199,*74
$GPGSV,4,4,13,32,16,244,*4F
$GPGLL,2059.85439,N,10553.22026,E,092048.00,A,A*65
$GPRMC,092049.00,A,2059.85518,N,10553.22079,E,1.802,,290624,,,A*75
$GPVTG,,T,,M,1.802,N,3.338,K,A*23
$GPGGA,092049.00,2059.85518,N,10553.22079,E,1,06,4.82,23.4,M,-23.3,M,,*4B
$GPGSA,A,3,15,05,18,23,24,13,,,,,,,6.81,4.82,4.81*03
$GPGSV,4[0m
[0;32mI (165469) GPS: UTC Time: 092040.00, Latitude: 20.997536, Longitude: 105.886978[0m
[0;32mI (167419) Transmit UART: Encoded and sent data over UART.[0m
=== Reading Node number 5 ===
[0;32mI (170479) PMS7003: PM1.0: 12 µg/m³[0m
[0;32mI (170479) PMS7003: PM2.5: 15 µg/m³[0m
[0;32mI (170479) PMS7003: PM10: 15 µg/m³[0m
[0;32mI (170479) DHT22: Hum 33.5[0m
[0;32mI (170479) DHT22: Tmp 33.3[0m
[0;32mI (170489) MQ131: MQ131 - O3 Concentration: 631654296015678004493549568000.00 ppb[0m
[0;32mI (170489) MQ136: MQ136 - SO2 Concentration: 26.63 ppm[0m

[0;32mI (170499) MICS6814: MICS6814 - CO Concentration: 3087.00 ppm[0m
[0;32mI (170509) MICS6814: MICS6814 - NO2 Concentration: 3.32 ppm[0m

[0;32mI (170509) GPS: Received: ,16*71
$GPGSV,4,3,13,24,64,106,21,25,02,177,,27,00,314,,29,24,199,*77
$GPGSV,4,4,13,32,17,245,*4F
$GPGLL,2059.85466,N,10553.21993,E,092053.00,A,A*61
$GPRMC,092054.00,A,2059.85345,N,10553.21950,E,0.691,,290624,,,A*73
$GPVTG,,T,,M,0.691,N,1.281,K,A*27
$GPGGA,092054.00,2059.85345,N,10553.21950,E,1,06,2.53,21.2,M,-23.3,M,,*46
$GPGSA,A,3,15,05,18,23,24,13,,,,,,,3.70,2.53,2.70*0A
$GPGSV,4,1,13,05,18,085,23,10,10,301,12,12,03,149,,13,08,040,13*7F
$GPGSV,4,2,13,15,36,030,12,18,74,324,26,20,01,105,,23,33,326[0m
[0;32mI (170559) GPS: UTC Time: 092040.00, Latitude: 20.997536, Longitude: 105.886978[0m
[0;32mI (172419) Transmit UART: Encoded and sent data over UART.[0m
[0;31mE (173019) DHT: Sensor Timeout
[0m
=== Reading Node number 5 ===
[0;32mI (175569) PMS7003: PM1.0: 11 µg/m³[0m
[0;32mI (175569) PMS7003: PM2.5: 15 µg/m³[0m
[0;32mI (175569) PMS7003: PM10: 15 µg/m³[0m
[0;32mI (175569) DHT22: Hum 33.5[0m
[0;32mI (175569) DHT22: Tmp 33.3[0m
[0;32mI (175579) MQ131: MQ131 - O3 Concentration: 631654296015678004493549568000.00 ppb[0m
[0;32mI (175579) MQ136: MQ136 - SO2 Concentration: 26.57 ppm[0m

[0;32mI (175589) MICS6814: MICS6814 - CO Concentration: 482.00 ppm[0m
[0;32mI (175599) MICS6814: MICS6814 - NO2 Concentration: 3.47 ppm[0m

[0;32mI (175599) GPS: Received: 2059.84657,N,10553.21689,E,092058.00,A,A*6F
$GPRMC,092059.00,A,2059.84389,N,10553.21595,E,3.594,188.46,290624,,,A*62
$GPVTG,188.46,T,,M,3.594,N,6.656,K,A*36
$GPGGA,092059.00,2059.84389,N,10553.21595,E,1,06,2.53,18.1,M,-23.3,M,,*46
$GPGSA,A,3,15,05,18,23,24,13,,,,,,,3.70,2.53,2.70*0A
$GPGSV,4,1,13,05,18,085,23,10,10,301,10,12,03,149,,13,08,040,10*7E
$GPGSV,4,2,13,15,36,030,11,18,74,324,26,20,01,105,,23,33,326,13*77
$GPGSV,4,3,13,24,64,106,19,25,02,177,,27,00,314,,29,24,199,*7C
$GPGSV,4,4,13,32,17,245,*4F
$GPGLL,[0m
[0;32mI (175649) GPS: UTC Time: 092040.00, Latitude: 20.997536, Longitude: 105.886978[0m
[0;31mE (176089) DHT: CheckSum error
[0m
[0;32mI (177419) Transmit UART: Encoded and sent data over UART.[0m
=== Reading Node number 5 ===
[0;32mI (180659) PMS7003: PM1.0: 11 µg/m³[0m
[0;32mI (180659) PMS7003: PM2.5: 15 µg/m³[0m
[0;32mI (180659) PMS7003: PM10: 15 µg/m³[0m
[0;32mI (180659) DHT22: Hum 33.6[0m
[0;32mI (180659) DHT22: Tmp 33.3[0m
[0;32mI (180669) MQ131: MQ131 - O3 Concentration: 631654296015678004493549568000.00 ppb[0m
[0;32mI (180669) MQ136: MQ136 - SO2 Concentration: 26.94 ppm[0m

[0;32mI (180679) MICS6814: MICS6814 - CO Concentration: 1.00 ppm[0m
[0;32mI (180689) MICS6814: MICS6814 - NO2 Concentration: 2.96 ppm[0m

[0;32mI (180689) GPS: Received: $GPRMC,092104.00,A,2059.84449,N,10553.21462,E,0.610,,290624,,,A*78
$GPVTG,,T,,M,0.610,N,1.129,K,A*2F
$GPGGA,092104.00,2059.84449,N,10553.21462,E,1,05,4.84,16.5,M,-23.3,M,,*48
$GPGSA,A,3,05,18,23,24,13,,,,,,,,6.83,4.84,4.82*00
$GPGSV,4,1,13,05,18,085,25,10,10,301,13,12,03,149,,13,08,040,17*7C
$GPGSV,4,2,13,15,36,030,,18,74,324,25,20,01,105,,23,33,326,14*73
$GPGSV,4,3,13,24,64,106,20,25,02,177,,27,00,314,,29,24,199,*76
$GPGSV,4,4,13,32,17,245,*4F
$GPGLL,2059.84449,N,10553.21462,E,092104.00,A,A*6D
[0m
[0;32mI (180739) GPS: UTC Time: 092104.00, Latitude: 20.997408, Longitude: 105.886909[0m
[0;32mI (182439) Transmit UART: Encoded and sent data over UART.[0m
[0;31mE (185269) DHT: Sensor Timeout
[0m
=== Reading Node number 5 ===
[0;32mI (185749) PMS7003: PM1.0: 11 µg/m³[0m
[0;32mI (185749) PMS7003: PM2.5: 16 µg/m³[0m
[0;32mI (185749) PMS7003: PM10: 16 µg/m³[0m
[0;32mI (185749) DHT22: Hum 33.6[0m
[0;32mI (185749) DHT22: Tmp 33.3[0m
[0;32mI (185759) MQ131: MQ131 - O3 Concentration: 631654296015678004493549568000.00 ppb[0m
[0;32mI (185759) MQ136: MQ136 - SO2 Concentration: 26.63 ppm[0m

[0;32mI (185769) MICS6814: MICS6814 - CO Concentration: 1.00 ppm[0m
[0;32mI (185779) MICS6814: MICS6814 - NO2 Concentration: 3.19 ppm[0m

[0;32mI (185779) GPS: Received: $GPRMC,092109.00,A,2059.84396,N,10553.21425,E,0.681,,290624,,,A*7B
$GPVTG,,T,,M,0.681,N,1.262,K,A*2B
$GPGGA,092109.00,2059.84396,N,10553.21425,E,1,05,4.84,15.9,M,-23.3,M,,*4C
$GPGSA,A,3,05,18,23,24,13,,,,,,,,6.83,4.84,4.82*00
$GPGSV,4,1,13,05,18,085,25,10,10,301,13,12,03,149,,13,08,040,15*7E
$GPGSV,4,2,13,15,36,030,,18,74,324,26,20,01,105,,23,33,326,15*71
$GPGSV,4,3,13,24,64,106,18,25,02,177,,27,00,314,,29,24,199,*7D
$GPGSV,4,4,13,32,17,245,*4F
$GPGLL,2059.84396,N,10553.21425,E,092109.00,A,A*66
[0m
[0;32mI (185829) GPS: UTC Time: 092109.00, Latitude: 20.997400, Longitude: 105.886902[0m
[0;32mI (187439) Transmit UART: Encoded and sent data over UART.[0m
=== Reading Node number 5 ===
[0;32mI (190839) PMS7003: PM1.0: 13 µg/m³[0m
[0;32mI (190839) PMS7003: PM2.5: 16 µg/m³[0m
[0;32mI (190839) PMS7003: PM10: 16 µg/m³[0m
[0;32mI (190839) DHT22: Hum 33.6[0m
[0;32mI (190839) DHT22: Tmp 33.3[0m
[0;32mI (190849) MQ131: MQ131 - O3 Concentration: 631654296015678004493549568000.00 ppb[0m
[0;32mI (190849) MQ136: MQ136 - SO2 Concentration: 27.12 ppm[0m

[0;32mI (190859) MICS6814: MICS6814 - CO Concentration: 2374.00 ppm[0m
[0;32mI (190869) MICS6814: MICS6814 - NO2 Concentration: 2.86 ppm[0m

[0;32mI (190869) GPS: Received: $GPRMC,092114.00,A,2059.84668,N,10553.21540,E,0.100,,290624,,,A*7F
$GPVTG,,T,,M,0.100,N,0.186,K,A*2D
$GPGGA,092114.00,2059.84668,N,10553.21540,E,1,05,3.29,19.1,M,-23.3,M,,*42
$GPGSA,A,2,15,05,18,23,24,,,,,,,,3.44,3.29,1.00*06
$GPGSV,4,1,13,05,18,085,25,10,10,301,10,12,03,149,,13,08,040,04*7D
$GPGSV,4,2,13,15,36,030,11,18,74,324,26,20,01,105,,23,33,326,17*73
$GPGSV,4,3,13,24,64,106,19,25,02,177,,27,00,314,,29,24,199,*7C
$GPGSV,4,4,13,32,17,245,*4F
$GPGLL,2059.84668,N,10553.21540,E,092114.00,A,A*6C
[0m
[0;32mI (190919) GPS: UTC Time: 092114.00, Latitude: 20.997444, Longitude: 105.886925[0m
[0;32mI (192439) Transmit UART: Encoded and sent data over UART.[0m
=== Reading Node number 5 ===
[0;32mI (195929) PMS7003: PM1.0: 13 µg/m³[0m
[0;32mI (195929) PMS7003: PM2.5: 16 µg/m³[0m
[0;32mI (195929) PMS7003: PM10: 16 µg/m³[0m
[0;32mI (195929) DHT22: Hum 33.6[0m
[0;32mI (195929) DHT22: Tmp 33.3[0m
[0;32mI (195939) MQ131: MQ131 - O3 Concentration: 631654296015678004493549568000.00 ppb[0m
[0;32mI (195939) MQ136: MQ136 - SO2 Concentration: 26.63 ppm[0m

[0;32mI (195949) MICS6814: MICS6814 - CO Concentration: 1547.00 ppm[0m
[0;32mI (195959) MICS6814: MICS6814 - NO2 Concentration: 3.70 ppm[0m

[0;32mI (195959) GPS: Received: $GPRMC,092119.00,A,2059.84466,N,10553.21480,E,0.576,,290624,,,A*76
$GPVTG,,T,,M,0.576,N,1.066,K,A*26
$GPGGA,092119.00,2059.84466,N,10553.21480,E,1,06,3.29,17.8,M,-23.3,M,,*4A
$GPGSA,A,2,15,05,18,23,24,13,,,,,,,3.44,3.29,1.00*04
$GPGSV,4,1,13,05,18,085,24,10,10,301,11,12,03,149,,13,08,040,15*7D
$GPGSV,4,2,13,15,36,030,12,18,74,324,25,20,01,105,,23,33,326,13*77
$GPGSV,4,3,13,24,64,106,18,25,02,177,,27,00,314,,29,24,199,*7D
$GPGSV,4,4,13,32,17,245,*4F
$GPGLL,2059.84466,N,10553.21480,E,092119.00,A,A*60
[0m
[0;32mI (196009) GPS: UTC Time: 092119.00, Latitude: 20.997412, Longitude: 105.886917[0m
[0;32mI (197439) Transmit UART: Encoded and sent data over UART.[0m
=== Reading Node number 5 ===
[0;32mI (201019) PMS7003: PM1.0: 13 µg/m³[0m
[0;32mI (201019) PMS7003: PM2.5: 16 µg/m³[0m
[0;32mI (201019) PMS7003: PM10: 17 µg/m³[0m
[0;32mI (201019) DHT22: Hum 33.6[0m
[0;32mI (201019) DHT22: Tmp 33.3[0m
[0;32mI (201029) MQ131: MQ131 - O3 Concentration: 631654296015678004493549568000.00 ppb[0m
[0;32mI (201029) MQ136: MQ136 - SO2 Concentration: 27.06 ppm[0m

[0;32mI (201039) MICS6814: MICS6814 - CO Concentration: 1.00 ppm[0m
[0;32mI (201049) MICS6814: MICS6814 - NO2 Concentration: 2.91 ppm[0m

[0;32mI (201049) GPS: Received: $GPRMC,092124.00,A,2059.84532,N,10553.21628,E,0.487,,290624,,,A*77
$GPVTG,,T,,M,0.487,N,0.902,K,A*23
$GPGGA,092124.00,2059.84532,N,10553.21628,E,1,04,9.79,17.6,M,-23.3,M,,*47
$GPGSA,A,3,05,18,24,13,,,,,,,,,14.13,9.79,10.20*09
$GPGSV,4,1,13,05,18,085,25,10,10,301,10,12,03,149,,13,08,040,15*7D
$GPGSV,4,2,13,15,36,030,05,18,74,324,25,20,01,105,,23,33,326,08*7B
$GPGSV,4,3,13,24,64,106,20,25,02,177,,27,00,314,,29,24,199,*76
$GPGSV,4,4,13,32,17,245,*4F
$GPGLL,2059.84532,N,10553.21628,E,092124.00,A,A*6E
[0m
[0;32mI (201099) GPS: UTC Time: 092124.00, Latitude: 20.997421, Longitude: 105.886940[0m
[0;32mI (202439) Transmit UART: Encoded and sent data over UART.[0m
=== Reading Node number 5 ===
[0;32mI (206109) PMS7003: PM1.0: 13 µg/m³[0m
[0;32mI (206109) PMS7003: PM2.5: 16 µg/m³[0m
[0;32mI (206109) PMS7003: PM10: 17 µg/m³[0m
[0;32mI (206109) DHT22: Hum 33.5[0m
[0;32mI (206109) DHT22: Tmp 33.3[0m
[0;32mI (206119) MQ131: MQ131 - O3 Concentration: 631654296015678004493549568000.00 ppb[0m
[0;32mI (206119) MQ136: MQ136 - SO2 Concentration: 27.18 ppm[0m

[0;32mI (206129) MICS6814: MICS6814 - CO Concentration: 2949.00 ppm[0m
[0;32mI (206139) MICS6814: MICS6814 - NO2 Concentration: 2.86 ppm[0m

[0;32mI (206139) GPS: Received: 2059.84818,N,10553.21616,E,1,04,9.73,17.7,M,-23.3,M,,*49
$GPGSA,A,3,05,18,24,13,,,,,,,,,14.04,9.73,10.12*04
$GPGSV,4,1,13,05,18,085,25,10,10,301,07,12,03,149,,13,08,040,16*78
$GPGSV,4,2,13,15,36,030,08,18,74,324,27,20,01,105,,23,33,326,07*7B
$GPGSV,4,3,13,24,64,106,21,25,02,177,,27,00,314,,29,24,199,*77
$GPGSV,4,4,13,32,17,245,*4F
$GPGLL,2059.84818,N,10553.21616,E,092129.00,A,A*6B
$GPRMC,092130.00,A,2059.84672,N,10553.21608,E,1.061,,290624,,,A*7A
$GPVTG,,T,,M,1.061,N,1.965,K,A*2E
$GPGGA,092130.00,[0m
[0;32mI (206189) GPS: UTC Time: 092127.00, Latitude: 20.997450, Longitude: 105.886932[0m
[0;32mI (207439) Transmit UART: Encoded and sent data over UART.[0m
=== Reading Node number 5 ===
[0;32mI (211199) PMS7003: PM1.0: 13 µg/m³[0m
[0;32mI (211199) PMS7003: PM2.5: 17 µg/m³[0m
[0;32mI (211199) PMS7003: PM10: 18 µg/m³[0m
[0;32mI (211199) DHT22: Hum 33.5[0m
[0;32mI (211199) DHT22: Tmp 33.3[0m
[0;32mI (211209) MQ131: MQ131 - O3 Concentration: 631654296015678004493549568000.00 ppb[0m
[0;32mI (211209) MQ136: MQ136 - SO2 Concentration: 27.35 ppm[0m

[0;32mI (211219) MICS6814: MICS6814 - CO Concentration: 3752.00 ppm[0m
[0;32mI (211229) MICS6814: MICS6814 - NO2 Concentration: 2.84 ppm[0m

[0;32mI (211229) GPS: Received: ,13,05,18,085,25,10,10,301,10,12,03,149,,13,08,040,14*7C
$GPGSV,4,2,13,15,36,030,10,18,74,324,26,20,01,105,,23,33,326,06*72
$GPGSV,4,3,13,24,64,106,19,25,02,177,,27,00,314,,29,24,199,*7C
$GPGSV,4,4,13,32,17,245,*4F
$GPGLL,2059.84709,N,10553.21583,E,092134.00,A,A*67
$GPRMC,092135.00,A,2059.84698,N,10553.21573,E,0.620,,290624,,,A*76
$GPVTG,,T,,M,0.620,N,1.149,K,A*2A
$GPGGA,092135.00,2059.84698,N,10553.21573,E,1,04,9.66,17.7,M,-23.3,M,,*46
$GPGSA,A,3,05,18,24,13,,,,,,,,,13.93,9.66,10.04*0E
$GPGSV,4,1[0m
[0;32mI (211279) GPS: UTC Time: 092127.00, Latitude: 20.997450, Longitude: 105.886932[0m
[0;32mI (212439) Transmit UART: Encoded and sent data over UART.[0m
=== Reading Node number 5 ===
[0;32mI (216289) PMS7003: PM1.0: 13 µg/m³[0m
[0;32mI (216289) PMS7003: PM2.5: 17 µg/m³[0m
[0;32mI (216289) PMS7003: PM10: 18 µg/m³[0m
[0;32mI (216289) DHT22: Hum 33.5[0m
[0;32mI (216289) DHT22: Tmp 33.3[0m
[0;32mI (216299) MQ131: MQ131 - O3 Concentration: 631654296015678004493549568000.00 ppb[0m
[0;32mI (216299) MQ136: MQ136 - SO2 Concentration: 27.12 ppm[0m

